{
  "updated_at": "2026-06-30",
  "source": "sample",
  "note": "샘플 데이터. GitHub Actions + Seoul API Key 설정 시 실데이터 자동 업데이트.",
  "projects": [
    {"id":"hannam3","name":"한남3구역","district":"용산구","dong":"한남동","type":"재개발","stage":"관리처분인가","stage_idx":3,"lat":37.5354,"lng":127.0019,"area_m2":387000,"units":5816,"contractor":"현대건설컨소시엄","stage_date":"2024-12","notes":"서울 최대 규모 재개발 사업"},
    {"id":"hannam4","name":"한남4구역","district":"용산구","dong":"한남동","type":"재개발","stage":"사업시행인가","stage_idx":2,"lat":37.5372,"lng":127.0042,"area_m2":122000,"units":1785,"contractor":"","stage_date":"2023-08","notes":""},
    {"id":"hannam5","name":"한남5구역","district":"용산구","dong":"한남동","type":"재개발","stage":"조합설립인가","stage_idx":1,"lat":37.5391,"lng":127.0061,"area_m2":94000,"units":1320,"contractor":"","stage_date":"2022-11","notes":""},
    {"id":"heukseok9","name":"흑석9구역","district":"동작구","dong":"흑석동","type":"재개발","stage":"관리처분인가","stage_idx":3,"lat":37.5087,"lng":126.9628,"area_m2":86000,"units":1490,"contractor":"대우건설","stage_date":"2023-06","notes":"흑석뉴타운 핵심 구역"},
    {"id":"heukseok11","name":"흑석11구역","district":"동작구","dong":"흑석동","type":"재개발","stage":"사업시행인가","stage_idx":2,"lat":37.5118,"lng":126.9695,"area_m2":47000,"units":671,"contractor":"","stage_date":"2022-04","notes":""},
    {"id":"noryangjin1","name":"노량진1구역","district":"동작구","dong":"노량진동","type":"재개발","stage":"관리처분인가","stage_idx":3,"lat":37.5133,"lng":126.9424,"area_m2":91000,"units":1536,"contractor":"HDC현대산업개발","stage_date":"2024-03","notes":"노량진뉴타운 최대 구역"},
    {"id":"noryangjin2","name":"노량진2구역","district":"동작구","dong":"노량진동","type":"재개발","stage":"관리처분인가","stage_idx":3,"lat":37.5152,"lng":126.9438,"area_m2":52000,"units":824,"contractor":"GS건설","stage_date":"2024-01","notes":""},
    {"id":"noryangjin3","name":"노량진3구역","district":"동작구","dong":"노량진동","type":"재개발","stage":"사업시행인가","stage_idx":2,"lat":37.5121,"lng":126.9447,"area_m2":38000,"units":540,"contractor":"","stage_date":"2023-05","notes":""},
    {"id":"shinlim1","name":"신림1구역","district":"관악구","dong":"신림동","type":"재개발","stage":"관리처분인가","stage_idx":3,"lat":37.4858,"lng":126.9183,"area_m2":64000,"units":1028,"contractor":"롯데건설","stage_date":"2024-09","notes":""},
    {"id":"shinlim3","name":"신림3구역","district":"관악구","dong":"신림동","type":"재개발","stage":"사업시행인가","stage_idx":2,"lat":37.4836,"lng":126.9213,"area_m2":49000,"units":740,"contractor":"","stage_date":"2022-07","notes":""},
    {"id":"ahyun3","name":"아현3구역","district":"마포구","dong":"아현동","type":"재개발","stage":"이주/착공","stage_idx":4,"lat":37.5505,"lng":126.9524,"area_m2":73000,"units":1124,"contractor":"GS건설","stage_date":"2023-09","notes":"마포래미안 아파트 건설 중"},
    {"id":"mia3","name":"미아3구역","district":"강북구","dong":"미아동","type":"재개발","stage":"사업시행인가","stage_idx":2,"lat":37.6261,"lng":127.0258,"area_m2":58000,"units":849,"contractor":"","stage_date":"2023-11","notes":""},
    {"id":"jangwi4","name":"장위4구역","district":"성북구","dong":"장위동","type":"재개발","stage":"사업시행인가","stage_idx":2,"lat":37.6042,"lng":127.0561,"area_m2":67000,"units":985,"contractor":"","stage_date":"2023-03","notes":"장위뉴타운"},
    {"id":"jangwi9","name":"장위9구역","district":"성북구","dong":"장위동","type":"재개발","stage":"관리처분인가","stage_idx":3,"lat":37.6088,"lng":127.0592,"area_m2":45000,"units":643,"contractor":"포스코이앤씨","stage_date":"2024-06","notes":""},
    {"id":"garibong1","name":"가리봉1구역","district":"구로구","dong":"가리봉동","type":"재개발","stage":"사업시행인가","stage_idx":2,"lat":37.4841,"lng":126.8838,"area_m2":39000,"units":561,"contractor":"","stage_date":"2022-12","notes":""},
    {"id":"yeongdeungpo","name":"영등포1-12구역","district":"영등포구","dong":"영등포동","type":"재개발","stage":"조합설립인가","stage_idx":1,"lat":37.5258,"lng":126.8975,"area_m2":82000,"units":1210,"contractor":"","stage_date":"2021-08","notes":"영등포 뉴타운"},
    {"id":"jamsilju5","name":"잠실주공5단지","district":"송파구","dong":"잠실동","type":"재건축","stage":"사업시행인가","stage_idx":2,"lat":37.5092,"lng":127.0839,"area_m2":183000,"units":6600,"contractor":"","stage_date":"2024-11","notes":"재건축 최대 규모, 서울 랜드마크 예정"},
    {"id":"eunma","name":"은마아파트","district":"강남구","dong":"대치동","type":"재건축","stage":"조합설립인가","stage_idx":1,"lat":37.5044,"lng":127.0594,"area_m2":116000,"units":4424,"contractor":"","stage_date":"2022-03","notes":"30년 넘은 재건축 숙원 사업"},
    {"id":"apgujeong1","name":"압구정1구역(현대1·2차)","district":"강남구","dong":"압구정동","type":"재건축","stage":"사업시행인가","stage_idx":2,"lat":37.5280,"lng":127.0308,"area_m2":49000,"units":1788,"contractor":"","stage_date":"2024-08","notes":"압구정 재건축 선도 구역"},
    {"id":"apgujeong3","name":"압구정3구역","district":"강남구","dong":"압구정동","type":"재건축","stage":"조합설립인가","stage_idx":1,"lat":37.5262,"lng":127.0285,"area_m2":67000,"units":2409,"contractor":"","stage_date":"2023-01","notes":""},
    {"id":"banpoju12","name":"반포주공1단지(1·2·4주구)","district":"서초구","dong":"반포동","type":"재건축","stage":"이주/착공","stage_idx":4,"lat":37.5019,"lng":126.9958,"area_m2":176000,"units":3590,"contractor":"삼성물산","stage_date":"2022-11","notes":"래미안 원베일리 인접, 공사 진행 중"},
    {"id":"banpoju3","name":"반포주공1단지(3주구)","district":"서초구","dong":"반포동","type":"재건축","stage":"준공완료","stage_idx":5,"lat":37.5031,"lng":126.9969,"area_m2":58000,"units":2091,"contractor":"삼성물산","stage_date":"2023-09","notes":"래미안 원베일리 준공"},
    {"id":"gaepoju1","name":"개포주공1단지","district":"강남구","dong":"개포동","type":"재건축","stage":"준공완료","stage_idx":5,"lat":37.4806,"lng":127.0596,"area_m2":178000,"units":6700,"contractor":"현대건설","stage_date":"2021-11","notes":"디에이치 퍼스티어아이파크 준공"},
    {"id":"gaepoju4","name":"개포주공4단지","district":"강남구","dong":"개포동","type":"재건축","stage":"준공완료","stage_idx":5,"lat":37.4798,"lng":127.0667,"area_m2":53000,"units":1957,"contractor":"GS건설","stage_date":"2022-07","notes":"개포 자이 프레지던스 준공"},
    {"id":"mokdong7","name":"목동신시가지7단지","district":"양천구","dong":"목동","type":"재건축","stage":"조합설립인가","stage_idx":1,"lat":37.5301,"lng":126.8722,"area_m2":76000,"units":1850,"contractor":"","stage_date":"2023-07","notes":"목동 재건축 선도 단지"},
    {"id":"mokdong14","name":"목동신시가지14단지","district":"양천구","dong":"목동","type":"재건축","stage":"추진위/조합준비","stage_idx":1,"lat":37.5319,"lng":126.8699,"area_m2":48000,"units":1020,"contractor":"","stage_date":"2022-05","notes":""},
    {"id":"dunchi","name":"둔촌주공","district":"강동구","dong":"둔촌동","type":"재건축","stage":"이주/착공","stage_idx":4,"lat":37.5447,"lng":127.1303,"area_m2":519000,"units":12032,"contractor":"현대/대우/롯데/HDC컨소시엄","stage_date":"2019-09","notes":"올림픽파크포레온, 2024년 입주. 국내 최대 재건축"},
    {"id":"godeokju2","name":"고덕주공2단지","district":"강동구","dong":"고덕동","type":"재건축","stage":"준공완료","stage_idx":5,"lat":37.5560,"lng":127.1459,"area_m2":98000,"units":3658,"contractor":"현대건설","stage_date":"2019-12","notes":"힐스테이트 고덕강일 준공"},
    {"id":"godeokju3","name":"고덕주공3단지","district":"강동구","dong":"고덕동","type":"재건축","stage":"이주/착공","stage_idx":4,"lat":37.5580,"lng":127.1473,"area_m2":71000,"units":2947,"contractor":"삼성물산","stage_date":"2022-03","notes":"래미안 고덕 센트럴 공사 중"},
    {"id":"sanggyeju5","name":"상계주공5단지","district":"노원구","dong":"상계동","type":"재건축","stage":"추진위/조합준비","stage_idx":1,"lat":37.6587,"lng":127.0690,"area_m2":82000,"units":2640,"contractor":"","stage_date":"2021-04","notes":"노원구 재건축 핵심 단지"},
    {"id":"gildong","name":"길음1구역","district":"성북구","dong":"길음동","type":"재개발","stage":"준공완료","stage_idx":5,"lat":37.6011,"lng":127.0224,"area_m2":69000,"units":2802,"contractor":"대림산업","stage_date":"2017-06","notes":"길음뉴타운 완료"},
    {"id":"wangshipri","name":"왕십리2구역","district":"성동구","dong":"하왕십리동","type":"재개발","stage":"준공완료","stage_idx":5,"lat":37.5617,"lng":127.0299,"area_m2":112000,"units":4000,"contractor":"현대건설","stage_date":"2016-11","notes":"왕십리뉴타운 완료"},
    {"id":"heukseok2","name":"흑석2구역","district":"동작구","dong":"흑석동","type":"재개발","stage":"이주/착공","stage_idx":4,"lat":37.5099,"lng":126.9659,"area_m2":54000,"units":880,"contractor":"롯데건설","stage_date":"2021-05","notes":"아크로 리버하임 입주 완료 근접"},
    {"id":"sinjeong1","name":"신정1구역","district":"양천구","dong":"신정동","type":"재개발","stage":"조합설립인가","stage_idx":1,"lat":37.5311,"lng":126.8625,"area_m2":45000,"units":650,"contractor":"","stage_date":"2022-09","notes":"신정뉴타운"},
    {"id":"noryangjin5","name":"노량진5구역","district":"동작구","dong":"노량진동","type":"재개발","stage":"조합설립인가","stage_idx":1,"lat":37.5108,"lng":126.9451,"area_m2":29000,"units":415,"contractor":"","stage_date":"2023-02","notes":""}
  ]
}
