{
  "updated_at": "2026-07-03",
  "source": "sample",
  "note": "샘플 데이터. SEOUL_API_KEY secret 설정 시 실데이터로 전환됩니다.",
  "projects": [
    {
      "id": "hannam3",
      "name": "한남3구역",
      "district": "용산구",
      "dong": "한남동",
      "type": "재개발",
      "stage": "관리처분인가",
      "stage_idx": 3,
      "lat": 37.5354,
      "lng": 127.0019,
      "area_m2": 387000,
      "units": 5816,
      "contractor": "현대건설컨소시엄",
      "stage_date": "2024-12",
      "notes": "서울 최대 규모 재개발 사업",
      "subway": "한강진역(6호선) 도보 10분",
      "hangang": true,
      "completion_est": "2029~2030년 예상",
      "ref_note": "인근 나인원한남 전용84㎡ 60억+, 완공 시 최상급 예상"
    },
    {
      "id": "hannam4",
      "name": "한남4구역",
      "district": "용산구",
      "dong": "한남동",
      "type": "재개발",
      "stage": "사업시행인가",
      "stage_idx": 2,
      "lat": 37.5372,
      "lng": 127.0042,
      "area_m2": 122000,
      "units": 1785,
      "contractor": "",
      "stage_date": "2023-08",
      "notes": "",
      "subway": "한강진역(6호선) 도보 12분",
      "hangang": true,
      "completion_est": "2030년 예상",
      "ref_note": "한남3구역 인접, 높은 상승 기대"
    },
    {
      "id": "hannam5",
      "name": "한남5구역",
      "district": "용산구",
      "dong": "한남동",
      "type": "재개발",
      "stage": "조합설립인가",
      "stage_idx": 1,
      "lat": 37.5391,
      "lng": 127.0061,
      "area_m2": 94000,
      "units": 1320,
      "contractor": "",
      "stage_date": "2022-11",
      "notes": "",
      "subway": "한강진역(6호선) 도보 15분",
      "hangang": false,
      "completion_est": "2032년 이후 예상",
      "ref_note": ""
    },
    {
      "id": "heukseok9",
      "name": "흑석9구역",
      "district": "동작구",
      "dong": "흑석동",
      "type": "재개발",
      "stage": "관리처분인가",
      "stage_idx": 3,
      "lat": 37.5087,
      "lng": 126.9628,
      "area_m2": 86000,
      "units": 1490,
      "contractor": "대우건설",
      "stage_date": "2023-06",
      "notes": "흑석뉴타운 핵심 구역",
      "subway": "흑석역(9호선) 도보 5분",
      "hangang": true,
      "completion_est": "2027년 예상",
      "ref_note": "아크로 리버하임(흑석동) 전용84㎡ 20~23억 참고"
    },
    {
      "id": "heukseok11",
      "name": "흑석11구역",
      "district": "동작구",
      "dong": "흑석동",
      "type": "재개발",
      "stage": "사업시행인가",
      "stage_idx": 2,
      "lat": 37.5118,
      "lng": 126.9695,
      "area_m2": 47000,
      "units": 671,
      "contractor": "",
      "stage_date": "2022-04",
      "notes": "",
      "subway": "동작역(9호선) 도보 8분",
      "hangang": false,
      "completion_est": "2029년 예상",
      "ref_note": ""
    },
    {
      "id": "noryangjin1",
      "name": "노량진1구역",
      "district": "동작구",
      "dong": "노량진동",
      "type": "재개발",
      "stage": "관리처분인가",
      "stage_idx": 3,
      "lat": 37.5133,
      "lng": 126.9424,
      "area_m2": 91000,
      "units": 1536,
      "contractor": "HDC현대산업개발",
      "stage_date": "2024-03",
      "notes": "노량진뉴타운 최대 구역",
      "subway": "노량진역(1·9호선) 도보 3분",
      "hangang": false,
      "completion_est": "2028년 예상",
      "ref_note": "노량진 신축 전용84㎡ 11~13억 참고"
    },
    {
      "id": "noryangjin2",
      "name": "노량진2구역",
      "district": "동작구",
      "dong": "노량진동",
      "type": "재개발",
      "stage": "관리처분인가",
      "stage_idx": 3,
      "lat": 37.5152,
      "lng": 126.9438,
      "area_m2": 52000,
      "units": 824,
      "contractor": "GS건설",
      "stage_date": "2024-01",
      "notes": "",
      "subway": "노량진역(1·9호선) 도보 5분",
      "hangang": false,
      "completion_est": "2028년 예상",
      "ref_note": ""
    },
    {
      "id": "noryangjin3",
      "name": "노량진3구역",
      "district": "동작구",
      "dong": "노량진동",
      "type": "재개발",
      "stage": "사업시행인가",
      "stage_idx": 2,
      "lat": 37.5121,
      "lng": 126.9447,
      "area_m2": 38000,
      "units": 540,
      "contractor": "",
      "stage_date": "2023-05",
      "notes": "",
      "subway": "노량진역(1·9호선) 도보 7분",
      "hangang": false,
      "completion_est": "2030년 예상",
      "ref_note": ""
    },
    {
      "id": "shinlim1",
      "name": "신림1구역",
      "district": "관악구",
      "dong": "신림동",
      "type": "재개발",
      "stage": "관리처분인가",
      "stage_idx": 3,
      "lat": 37.4858,
      "lng": 126.9183,
      "area_m2": 64000,
      "units": 1028,
      "contractor": "롯데건설",
      "stage_date": "2024-09",
      "notes": "",
      "subway": "신림역(2호선) 도보 8분",
      "hangang": false,
      "completion_est": "2027~2028년 예상",
      "ref_note": "신림동 신축 전용84㎡ 10~12억 참고"
    },
    {
      "id": "shinlim3",
      "name": "신림3구역",
      "district": "관악구",
      "dong": "신림동",
      "type": "재개발",
      "stage": "사업시행인가",
      "stage_idx": 2,
      "lat": 37.4836,
      "lng": 126.9213,
      "area_m2": 49000,
      "units": 740,
      "contractor": "",
      "stage_date": "2022-07",
      "notes": "",
      "subway": "신림역(2호선) 도보 10분",
      "hangang": false,
      "completion_est": "2030년 예상",
      "ref_note": ""
    },
    {
      "id": "ahyun3",
      "name": "아현3구역",
      "district": "마포구",
      "dong": "아현동",
      "type": "재개발",
      "stage": "이주/착공",
      "stage_idx": 4,
      "lat": 37.5505,
      "lng": 126.9524,
      "area_m2": 73000,
      "units": 1124,
      "contractor": "GS건설",
      "stage_date": "2023-09",
      "notes": "마포래미안 아파트 건설 중",
      "subway": "아현역(2호선) 도보 5분",
      "hangang": false,
      "completion_est": "2026~2027년 예상",
      "ref_note": "마포래미안 푸르지오 전용84㎡ 16~19억 참고"
    },
    {
      "id": "mia3",
      "name": "미아3구역",
      "district": "강북구",
      "dong": "미아동",
      "type": "재개발",
      "stage": "사업시행인가",
      "stage_idx": 2,
      "lat": 37.6261,
      "lng": 127.0258,
      "area_m2": 58000,
      "units": 849,
      "contractor": "",
      "stage_date": "2023-11",
      "notes": "",
      "subway": "미아사거리역(4호선) 도보 8분",
      "hangang": false,
      "completion_est": "2030년 예상",
      "ref_note": ""
    },
    {
      "id": "jangwi4",
      "name": "장위4구역",
      "district": "성북구",
      "dong": "장위동",
      "type": "재개발",
      "stage": "사업시행인가",
      "stage_idx": 2,
      "lat": 37.6042,
      "lng": 127.0561,
      "area_m2": 67000,
      "units": 985,
      "contractor": "",
      "stage_date": "2023-03",
      "notes": "장위뉴타운",
      "subway": "우이신설선 가오리역 도보 10분",
      "hangang": false,
      "completion_est": "2029년 예상",
      "ref_note": ""
    },
    {
      "id": "jangwi9",
      "name": "장위9구역",
      "district": "성북구",
      "dong": "장위동",
      "type": "재개발",
      "stage": "관리처분인가",
      "stage_idx": 3,
      "lat": 37.6088,
      "lng": 127.0592,
      "area_m2": 45000,
      "units": 643,
      "contractor": "포스코이앤씨",
      "stage_date": "2024-06",
      "notes": "",
      "subway": "우이신설선 가오리역 도보 8분",
      "hangang": false,
      "completion_est": "2027년 예상",
      "ref_note": ""
    },
    {
      "id": "garibong1",
      "name": "가리봉1구역",
      "district": "구로구",
      "dong": "가리봉동",
      "type": "재개발",
      "stage": "사업시행인가",
      "stage_idx": 2,
      "lat": 37.4841,
      "lng": 126.8838,
      "area_m2": 39000,
      "units": 561,
      "contractor": "",
      "stage_date": "2022-12",
      "notes": "",
      "subway": "가산디지털단지역(1·7호선) 도보 10분",
      "hangang": false,
      "completion_est": "2029년 예상",
      "ref_note": ""
    },
    {
      "id": "yeongdeungpo",
      "name": "영등포1-12구역",
      "district": "영등포구",
      "dong": "영등포동",
      "type": "재개발",
      "stage": "조합설립인가",
      "stage_idx": 1,
      "lat": 37.5258,
      "lng": 126.8975,
      "area_m2": 82000,
      "units": 1210,
      "contractor": "",
      "stage_date": "2021-08",
      "notes": "영등포 뉴타운",
      "subway": "영등포역(1호선) 도보 10분",
      "hangang": false,
      "completion_est": "2032년 이후 예상",
      "ref_note": ""
    },
    {
      "id": "jamsilju5",
      "name": "잠실주공5단지",
      "district": "송파구",
      "dong": "잠실동",
      "type": "재건축",
      "stage": "사업시행인가",
      "stage_idx": 2,
      "lat": 37.5092,
      "lng": 127.0839,
      "area_m2": 183000,
      "units": 6600,
      "contractor": "",
      "stage_date": "2024-11",
      "notes": "재건축 최대 규모, 서울 랜드마크 예정",
      "subway": "잠실역(2·8호선) 도보 5분",
      "hangang": false,
      "completion_est": "2031년 예상",
      "ref_note": "인근 잠실 엘스 전용84㎡ 25~28억, 완공 시 30억+ 예상"
    },
    {
      "id": "eunma",
      "name": "은마아파트",
      "district": "강남구",
      "dong": "대치동",
      "type": "재건축",
      "stage": "조합설립인가",
      "stage_idx": 1,
      "lat": 37.5044,
      "lng": 127.0594,
      "area_m2": 116000,
      "units": 4424,
      "contractor": "",
      "stage_date": "2022-03",
      "notes": "30년 넘은 재건축 숙원 사업",
      "subway": "대치역(3호선) 도보 5분",
      "hangang": false,
      "completion_est": "2032년 이후 예상",
      "ref_note": "대치동 신축 전용84㎡ 30억+ 예상"
    },
    {
      "id": "apgujeong1",
      "name": "압구정1구역(현대1·2차)",
      "district": "강남구",
      "dong": "압구정동",
      "type": "재건축",
      "stage": "사업시행인가",
      "stage_idx": 2,
      "lat": 37.528,
      "lng": 127.0308,
      "area_m2": 49000,
      "units": 1788,
      "contractor": "",
      "stage_date": "2024-08",
      "notes": "압구정 재건축 선도 구역",
      "subway": "압구정역(3호선) 도보 8분",
      "hangang": true,
      "completion_est": "2030년 예상",
      "ref_note": "압구정 신축 전용84㎡ 40~50억 예상"
    },
    {
      "id": "apgujeong3",
      "name": "압구정3구역",
      "district": "강남구",
      "dong": "압구정동",
      "type": "재건축",
      "stage": "조합설립인가",
      "stage_idx": 1,
      "lat": 37.5262,
      "lng": 127.0285,
      "area_m2": 67000,
      "units": 2409,
      "contractor": "",
      "stage_date": "2023-01",
      "notes": "",
      "subway": "압구정역(3호선) 도보 10분",
      "hangang": true,
      "completion_est": "2032년 이후 예상",
      "ref_note": ""
    },
    {
      "id": "banpoju12",
      "name": "반포주공1단지(1·2·4주구)",
      "district": "서초구",
      "dong": "반포동",
      "type": "재건축",
      "stage": "이주/착공",
      "stage_idx": 4,
      "lat": 37.5019,
      "lng": 126.9958,
      "area_m2": 176000,
      "units": 3590,
      "contractor": "삼성물산",
      "stage_date": "2022-11",
      "notes": "래미안 원베일리 인접, 공사 진행 중",
      "subway": "고속터미널역(3·7·9호선) 도보 12분",
      "hangang": true,
      "completion_est": "2027~2028년 예상",
      "ref_note": "래미안 원베일리 전용84㎡ 45~55억 참고"
    },
    {
      "id": "banpoju3",
      "name": "반포주공1단지(3주구)",
      "district": "서초구",
      "dong": "반포동",
      "type": "재건축",
      "stage": "준공완료",
      "stage_idx": 5,
      "lat": 37.5031,
      "lng": 126.9969,
      "area_m2": 58000,
      "units": 2091,
      "contractor": "삼성물산",
      "stage_date": "2023-09",
      "notes": "래미안 원베일리 준공",
      "subway": "고속터미널역(3·7·9호선) 도보 10분",
      "hangang": true,
      "completion_est": "완료(2023)",
      "ref_note": "래미안 원베일리 전용84㎡ 45~55억"
    },
    {
      "id": "gaepoju1",
      "name": "개포주공1단지",
      "district": "강남구",
      "dong": "개포동",
      "type": "재건축",
      "stage": "준공완료",
      "stage_idx": 5,
      "lat": 37.4806,
      "lng": 127.0596,
      "area_m2": 178000,
      "units": 6700,
      "contractor": "현대건설",
      "stage_date": "2021-11",
      "notes": "디에이치 퍼스티어아이파크 준공",
      "subway": "개포동역(3호선) 도보 10분",
      "hangang": false,
      "completion_est": "완료(2021)",
      "ref_note": "전용84㎡ 27~32억"
    },
    {
      "id": "gaepoju4",
      "name": "개포주공4단지",
      "district": "강남구",
      "dong": "개포동",
      "type": "재건축",
      "stage": "준공완료",
      "stage_idx": 5,
      "lat": 37.4798,
      "lng": 127.0667,
      "area_m2": 53000,
      "units": 1957,
      "contractor": "GS건설",
      "stage_date": "2022-07",
      "notes": "개포 자이 프레지던스 준공",
      "subway": "개포동역(3호선) 도보 8분",
      "hangang": false,
      "completion_est": "완료(2022)",
      "ref_note": "전용84㎡ 25~30억"
    },
    {
      "id": "mokdong7",
      "name": "목동신시가지7단지",
      "district": "양천구",
      "dong": "목동",
      "type": "재건축",
      "stage": "조합설립인가",
      "stage_idx": 1,
      "lat": 37.5301,
      "lng": 126.8722,
      "area_m2": 76000,
      "units": 1850,
      "contractor": "",
      "stage_date": "2023-07",
      "notes": "목동 재건축 선도 단지",
      "subway": "오목교역(5호선) 도보 7분",
      "hangang": false,
      "completion_est": "2032년 이후 예상",
      "ref_note": "목동 신축 전용84㎡ 18~22억 예상"
    },
    {
      "id": "mokdong14",
      "name": "목동신시가지14단지",
      "district": "양천구",
      "dong": "목동",
      "type": "재건축",
      "stage": "조합설립인가",
      "stage_idx": 1,
      "lat": 37.5319,
      "lng": 126.8699,
      "area_m2": 48000,
      "units": 1020,
      "contractor": "",
      "stage_date": "2022-05",
      "notes": "",
      "subway": "목동역(5호선) 도보 5분",
      "hangang": false,
      "completion_est": "2033년 이후 예상",
      "ref_note": ""
    },
    {
      "id": "dunchi",
      "name": "둔촌주공(올림픽파크포레온)",
      "district": "강동구",
      "dong": "둔촌동",
      "type": "재건축",
      "stage": "이주/착공",
      "stage_idx": 4,
      "lat": 37.5447,
      "lng": 127.1303,
      "area_m2": 519000,
      "units": 12032,
      "contractor": "현대/대우/롯데/HDC컨소시엄",
      "stage_date": "2019-09",
      "notes": "국내 최대 재건축, 2024년 입주 중",
      "subway": "올림픽공원역(5·8·9호선) 도보 5분",
      "hangang": false,
      "completion_est": "2024년 입주중",
      "ref_note": "전용84㎡ 14~17억"
    },
    {
      "id": "godeokju2",
      "name": "고덕주공2단지",
      "district": "강동구",
      "dong": "고덕동",
      "type": "재건축",
      "stage": "준공완료",
      "stage_idx": 5,
      "lat": 37.556,
      "lng": 127.1459,
      "area_m2": 98000,
      "units": 3658,
      "contractor": "현대건설",
      "stage_date": "2019-12",
      "notes": "힐스테이트 고덕강일 준공",
      "subway": "고덕역(5호선) 도보 7분",
      "hangang": false,
      "completion_est": "완료(2019)",
      "ref_note": "전용84㎡ 12~14억"
    },
    {
      "id": "godeokju3",
      "name": "고덕주공3단지",
      "district": "강동구",
      "dong": "고덕동",
      "type": "재건축",
      "stage": "이주/착공",
      "stage_idx": 4,
      "lat": 37.558,
      "lng": 127.1473,
      "area_m2": 71000,
      "units": 2947,
      "contractor": "삼성물산",
      "stage_date": "2022-03",
      "notes": "래미안 고덕 센트럴 공사 중",
      "subway": "고덕역(5호선) 도보 9분",
      "hangang": false,
      "completion_est": "2026년 예상",
      "ref_note": "인근 전용84㎡ 12~15억 예상"
    },
    {
      "id": "sanggyeju5",
      "name": "상계주공5단지",
      "district": "노원구",
      "dong": "상계동",
      "type": "재건축",
      "stage": "조합설립인가",
      "stage_idx": 1,
      "lat": 37.6587,
      "lng": 127.069,
      "area_m2": 82000,
      "units": 2640,
      "contractor": "",
      "stage_date": "2021-04",
      "notes": "노원구 재건축 핵심 단지",
      "subway": "상계역(4호선) 도보 8분",
      "hangang": false,
      "completion_est": "2033년 이후 예상",
      "ref_note": ""
    },
    {
      "id": "gildong",
      "name": "길음1구역",
      "district": "성북구",
      "dong": "길음동",
      "type": "재개발",
      "stage": "준공완료",
      "stage_idx": 5,
      "lat": 37.6011,
      "lng": 127.0224,
      "area_m2": 69000,
      "units": 2802,
      "contractor": "대림산업",
      "stage_date": "2017-06",
      "notes": "길음뉴타운 완료",
      "subway": "길음역(4호선) 도보 5분",
      "hangang": false,
      "completion_est": "완료(2017)",
      "ref_note": "전용84㎡ 10~12억"
    },
    {
      "id": "wangshipri",
      "name": "왕십리2구역",
      "district": "성동구",
      "dong": "하왕십리동",
      "type": "재개발",
      "stage": "준공완료",
      "stage_idx": 5,
      "lat": 37.5617,
      "lng": 127.0299,
      "area_m2": 112000,
      "units": 4000,
      "contractor": "현대건설",
      "stage_date": "2016-11",
      "notes": "왕십리뉴타운 완료",
      "subway": "왕십리역(2·5·경의선·분당선) 도보 8분",
      "hangang": false,
      "completion_est": "완료(2016)",
      "ref_note": "전용84㎡ 14~17억"
    },
    {
      "id": "heukseok2",
      "name": "흑석2구역",
      "district": "동작구",
      "dong": "흑석동",
      "type": "재개발",
      "stage": "이주/착공",
      "stage_idx": 4,
      "lat": 37.5099,
      "lng": 126.9659,
      "area_m2": 54000,
      "units": 880,
      "contractor": "롯데건설",
      "stage_date": "2021-05",
      "notes": "",
      "subway": "흑석역(9호선) 도보 8분",
      "hangang": true,
      "completion_est": "완료 근접",
      "ref_note": ""
    },
    {
      "id": "sinjeong1",
      "name": "신정1구역",
      "district": "양천구",
      "dong": "신정동",
      "type": "재개발",
      "stage": "조합설립인가",
      "stage_idx": 1,
      "lat": 37.5311,
      "lng": 126.8625,
      "area_m2": 45000,
      "units": 650,
      "contractor": "",
      "stage_date": "2022-09",
      "notes": "신정뉴타운",
      "subway": "신정역(2호선) 도보 10분",
      "hangang": false,
      "completion_est": "2032년 이후 예상",
      "ref_note": ""
    },
    {
      "id": "noryangjin5",
      "name": "노량진5구역",
      "district": "동작구",
      "dong": "노량진동",
      "type": "재개발",
      "stage": "조합설립인가",
      "stage_idx": 1,
      "lat": 37.5108,
      "lng": 126.9451,
      "area_m2": 29000,
      "units": 415,
      "contractor": "",
      "stage_date": "2023-02",
      "notes": "",
      "subway": "노량진역(1·9호선) 도보 10분",
      "hangang": false,
      "completion_est": "2032년 이후 예상",
      "ref_note": ""
    },
    {
      "id": "jayang4",
      "name": "자양4구역",
      "district": "광진구",
      "dong": "자양동",
      "type": "재개발",
      "stage": "준공완료",
      "stage_idx": 5,
      "lat": 37.5338,
      "lng": 127.0921,
      "area_m2": 52000,
      "units": 1935,
      "contractor": "현대건설",
      "stage_date": "2020-08",
      "notes": "힐스테이트 자양 강변 준공",
      "subway": "자양역(5호선) 도보 8분",
      "hangang": true,
      "completion_est": "완료(2020)",
      "ref_note": "전용84㎡ 13~16억"
    },
    {
      "id": "jayang1",
      "name": "자양1구역",
      "district": "광진구",
      "dong": "자양동",
      "type": "재개발",
      "stage": "관리처분인가",
      "stage_idx": 3,
      "lat": 37.5352,
      "lng": 127.0947,
      "area_m2": 37000,
      "units": 612,
      "contractor": "",
      "stage_date": "2024-05",
      "notes": "",
      "subway": "자양역(5호선) 도보 5분",
      "hangang": true,
      "completion_est": "2027~2028년 예상",
      "ref_note": "인근 힐스테이트 자양강변 전용84㎡ 13~16억 참고"
    },
    {
      "id": "guui3",
      "name": "구의3구역",
      "district": "광진구",
      "dong": "구의동",
      "type": "재개발",
      "stage": "사업시행인가",
      "stage_idx": 2,
      "lat": 37.5418,
      "lng": 127.0882,
      "area_m2": 44000,
      "units": 687,
      "contractor": "",
      "stage_date": "2023-09",
      "notes": "",
      "subway": "구의역(2호선) 도보 8분",
      "hangang": true,
      "completion_est": "2029년 예상",
      "ref_note": ""
    },
    {
      "id": "hwayan",
      "name": "화양연립재개발",
      "district": "광진구",
      "dong": "화양동",
      "type": "재개발",
      "stage": "조합설립인가",
      "stage_idx": 1,
      "lat": 37.5431,
      "lng": 127.0681,
      "area_m2": 28000,
      "units": 410,
      "contractor": "",
      "stage_date": "2022-11",
      "notes": "",
      "subway": "건대입구역(2·7호선) 도보 12분",
      "hangang": false,
      "completion_est": "2032년 이후 예상",
      "ref_note": ""
    },
    {
      "id": "gwangjin_junggok1",
      "name": "중곡1동 254-15 일대",
      "district": "광진구",
      "dong": "중곡동",
      "type": "재개발",
      "stage": "구역지정",
      "stage_idx": 0,
      "lat": 37.559,
      "lng": 127.0835,
      "area_m2": 72000,
      "units": 2200,
      "contractor": "",
      "stage_date": "2025-01",
      "notes": "신통기획 확정. 최고 35층, 약 2,200세대 대단지 예정",
      "subway": "중곡역(5호선) 도보 7분",
      "hangang": false,
      "completion_est": "2033년 이후 예상",
      "ref_note": "신통기획 확정 구역, 인근 시세 추이 주목"
    },
    {
      "id": "gwangjin_jayang4a",
      "name": "자양4동 A구역",
      "district": "광진구",
      "dong": "자양동",
      "type": "재개발",
      "stage": "준비위결성",
      "stage_idx": -1,
      "lat": 37.5342,
      "lng": 127.0803,
      "area_m2": 38000,
      "units": 0,
      "contractor": "",
      "stage_date": "2024-06",
      "notes": "신통기획 1차 후보지. 자양4구역(준공) 인접 노후 저층지",
      "subway": "자양역(5호선) 도보 6분",
      "hangang": false,
      "completion_est": "미정",
      "ref_note": "신통기획 후보지 선정 단계",
      "nohuodo_pct": 61
    },
    {
      "id": "gwangjin_jayang3",
      "name": "자양3동 227-147 일대",
      "district": "광진구",
      "dong": "자양동",
      "type": "재개발",
      "stage": "구역지정",
      "stage_idx": 0,
      "lat": 37.5368,
      "lng": 127.0811,
      "area_m2": 45000,
      "units": 0,
      "contractor": "",
      "stage_date": "2024-09",
      "notes": "신통기획 진행 중. 자양동 노후 주거지 주거환경 개선 사업",
      "subway": "자양역(5호선) 도보 5분",
      "hangang": false,
      "completion_est": "2033년 이후 예상",
      "ref_note": ""
    },
    {
      "id": "gwangjin_junggok4",
      "name": "중곡4동 신향빌라",
      "district": "광진구",
      "dong": "중곡동",
      "type": "재건축",
      "stage": "구역지정",
      "stage_idx": 0,
      "lat": 37.5624,
      "lng": 127.0851,
      "area_m2": 14000,
      "units": 320,
      "contractor": "",
      "stage_date": "2025-03",
      "notes": "신통기획 재건축 방식 추진. 중곡동 소규모 재건축",
      "subway": "중곡역(5호선) 도보 5분",
      "hangang": false,
      "completion_est": "미정",
      "ref_note": ""
    },
    {
      "id": "gwangjin_gwangjang",
      "name": "광장동 극동아파트",
      "district": "광진구",
      "dong": "광장동",
      "type": "재건축",
      "stage": "구역지정",
      "stage_idx": 0,
      "lat": 37.5475,
      "lng": 127.1012,
      "area_m2": 46000,
      "units": 1050,
      "contractor": "",
      "stage_date": "2024-11",
      "notes": "신통기획 재건축 적용. 광장동 대표 노후 아파트 단지",
      "subway": "강변역(2호선) 도보 10분",
      "hangang": true,
      "completion_est": "2033년 이후 예상",
      "ref_note": "한강뷰 프리미엄 기대"
    },
    {
      "id": "gwangjin_guui46",
      "name": "구의동 46번지 일대",
      "district": "광진구",
      "dong": "구의동",
      "type": "재개발",
      "stage": "정비예정",
      "stage_idx": -2,
      "lat": 37.543,
      "lng": 127.0898,
      "area_m2": 55000,
      "units": 0,
      "contractor": "",
      "stage_date": "2026-02",
      "notes": "2026년 2월 신통기획 후보지 신규 선정 대단지 예정 구역",
      "subway": "구의역(2호선) 도보 6분",
      "hangang": true,
      "completion_est": "미정",
      "ref_note": "후보지 선정 초기, 향후 구역지정 여부 주목",
      "nohuodo_pct": 63
    },
    {
      "id": "imun1",
      "name": "이문1구역",
      "district": "동대문구",
      "dong": "이문동",
      "type": "재개발",
      "stage": "사업시행인가",
      "stage_idx": 2,
      "lat": 37.5942,
      "lng": 127.0691,
      "area_m2": 133000,
      "units": 6536,
      "contractor": "HDC현대산업개발·GS건설",
      "stage_date": "2023-07",
      "notes": "이문·휘경뉴타운 최대 구역, 서울 북부 최대 재개발 사업",
      "subway": "이문역(1호선) 도보 3분",
      "hangang": false,
      "completion_est": "2030년 예상",
      "ref_note": "인근 신축 전용84㎡ 10~13억 예상"
    },
    {
      "id": "imun3",
      "name": "이문3구역",
      "district": "동대문구",
      "dong": "이문동",
      "type": "재개발",
      "stage": "조합설립인가",
      "stage_idx": 1,
      "lat": 37.5912,
      "lng": 127.0651,
      "area_m2": 62000,
      "units": 1900,
      "contractor": "",
      "stage_date": "2022-09",
      "notes": "이문·휘경뉴타운",
      "subway": "이문역(1호선) 도보 5분",
      "hangang": false,
      "completion_est": "2031년 이후 예상",
      "ref_note": ""
    },
    {
      "id": "hwuigyeong2",
      "name": "휘경2구역",
      "district": "동대문구",
      "dong": "휘경동",
      "type": "재개발",
      "stage": "조합설립인가",
      "stage_idx": 1,
      "lat": 37.5779,
      "lng": 127.0673,
      "area_m2": 38000,
      "units": 850,
      "contractor": "",
      "stage_date": "2023-03",
      "notes": "휘경동 노후 주거지",
      "subway": "외대앞역(1호선) 도보 8분",
      "hangang": false,
      "completion_est": "2032년 이후 예상",
      "ref_note": ""
    },
    {
      "id": "bukahyun1",
      "name": "북아현1구역",
      "district": "서대문구",
      "dong": "북아현동",
      "type": "재개발",
      "stage": "사업시행인가",
      "stage_idx": 2,
      "lat": 37.5605,
      "lng": 126.9487,
      "area_m2": 72000,
      "units": 2100,
      "contractor": "",
      "stage_date": "2023-05",
      "notes": "서대문구 핵심 재개발 구역",
      "subway": "아현역(2호선) 도보 7분",
      "hangang": false,
      "completion_est": "2030년 예상",
      "ref_note": ""
    },
    {
      "id": "hongeun1",
      "name": "홍은1구역",
      "district": "서대문구",
      "dong": "홍은동",
      "type": "재개발",
      "stage": "구역지정",
      "stage_idx": 0,
      "lat": 37.5943,
      "lng": 126.9288,
      "area_m2": 45000,
      "units": 950,
      "contractor": "",
      "stage_date": "2022-08",
      "notes": "홍은동 노후 저층 주거지",
      "subway": "홍제역(3호선) 도보 12분",
      "hangang": false,
      "completion_est": "2033년 이후 예상",
      "ref_note": ""
    },
    {
      "id": "eungam1",
      "name": "응암1구역",
      "district": "은평구",
      "dong": "응암동",
      "type": "재개발",
      "stage": "사업시행인가",
      "stage_idx": 2,
      "lat": 37.5997,
      "lng": 126.9157,
      "area_m2": 68000,
      "units": 1800,
      "contractor": "",
      "stage_date": "2023-09",
      "notes": "응암·녹번 일대 노후 주거지",
      "subway": "응암역(6호선) 도보 7분",
      "hangang": false,
      "completion_est": "2030년 예상",
      "ref_note": ""
    },
    {
      "id": "bulgwang5",
      "name": "불광5구역",
      "district": "은평구",
      "dong": "불광동",
      "type": "재개발",
      "stage": "구역지정",
      "stage_idx": 0,
      "lat": 37.6086,
      "lng": 126.9213,
      "area_m2": 41000,
      "units": 820,
      "contractor": "",
      "stage_date": "2022-06",
      "notes": "불광동 노후 주거지",
      "subway": "불광역(3·6호선) 도보 8분",
      "hangang": false,
      "completion_est": "2033년 이후 예상",
      "ref_note": ""
    },
    {
      "id": "hwagok3",
      "name": "화곡3구역",
      "district": "강서구",
      "dong": "화곡동",
      "type": "재건축",
      "stage": "조합설립인가",
      "stage_idx": 1,
      "lat": 37.5476,
      "lng": 126.849,
      "area_m2": 48000,
      "units": 1400,
      "contractor": "",
      "stage_date": "2023-04",
      "notes": "화곡동 노후 아파트 재건축",
      "subway": "화곡역(5호선) 도보 8분",
      "hangang": false,
      "completion_est": "2032년 이후 예상",
      "ref_note": ""
    },
    {
      "id": "banghwa2",
      "name": "방화2구역",
      "district": "강서구",
      "dong": "방화동",
      "type": "재개발",
      "stage": "구역지정",
      "stage_idx": 0,
      "lat": 37.5647,
      "lng": 126.8071,
      "area_m2": 37000,
      "units": 680,
      "contractor": "",
      "stage_date": "2022-04",
      "notes": "강서구 방화동 노후 단독·다가구 밀집지",
      "subway": "방화역(5호선) 도보 10분",
      "hangang": false,
      "completion_est": "2033년 이후 예상",
      "ref_note": ""
    },
    {
      "id": "dobong1",
      "name": "도봉1구역",
      "district": "도봉구",
      "dong": "도봉동",
      "type": "재개발",
      "stage": "구역지정",
      "stage_idx": 0,
      "lat": 37.661,
      "lng": 127.0353,
      "area_m2": 32000,
      "units": 620,
      "contractor": "",
      "stage_date": "2022-11",
      "notes": "도봉동 노후 단독주택 밀집지",
      "subway": "도봉역(1호선) 도보 8분",
      "hangang": false,
      "completion_est": "2033년 이후 예상",
      "ref_note": ""
    },
    {
      "id": "changdong17",
      "name": "창동주공17단지",
      "district": "도봉구",
      "dong": "창동",
      "type": "재건축",
      "stage": "조합설립인가",
      "stage_idx": 1,
      "lat": 37.6504,
      "lng": 127.0468,
      "area_m2": 62000,
      "units": 1752,
      "contractor": "",
      "stage_date": "2023-01",
      "notes": "창동 재건축 선도 단지, 창동역 역세권",
      "subway": "창동역(1·4호선) 도보 8분",
      "hangang": false,
      "completion_est": "2033년 이후 예상",
      "ref_note": "창동 신축 전용84㎡ 8~10억 예상"
    },
    {
      "id": "myeongmok5",
      "name": "면목5구역",
      "district": "중랑구",
      "dong": "면목동",
      "type": "재개발",
      "stage": "조합설립인가",
      "stage_idx": 1,
      "lat": 37.5862,
      "lng": 127.0782,
      "area_m2": 43000,
      "units": 780,
      "contractor": "",
      "stage_date": "2022-07",
      "notes": "중랑구 면목뉴타운",
      "subway": "사가정역(7호선) 도보 7분",
      "hangang": false,
      "completion_est": "2032년 이후 예상",
      "ref_note": ""
    },
    {
      "id": "sinnae3",
      "name": "신내3구역",
      "district": "중랑구",
      "dong": "신내동",
      "type": "재개발",
      "stage": "구역지정",
      "stage_idx": 0,
      "lat": 37.5977,
      "lng": 127.0935,
      "area_m2": 39000,
      "units": 720,
      "contractor": "",
      "stage_date": "2023-02",
      "notes": "신내동 일대 노후 주거지",
      "subway": "신내역(경춘선) 도보 8분",
      "hangang": false,
      "completion_est": "2033년 이후 예상",
      "ref_note": ""
    },
    {
      "id": "changshin1",
      "name": "창신1구역",
      "district": "종로구",
      "dong": "창신동",
      "type": "재개발",
      "stage": "구역지정",
      "stage_idx": 0,
      "lat": 37.578,
      "lng": 127.0146,
      "area_m2": 29000,
      "units": 560,
      "contractor": "",
      "stage_date": "2023-06",
      "notes": "서울 도심 인근 노후 주거지, 낙산공원 인접",
      "subway": "동묘앞역(1·6호선) 도보 5분",
      "hangang": false,
      "completion_est": "2033년 이후 예상",
      "ref_note": ""
    },
    {
      "id": "doksan4",
      "name": "독산4구역",
      "district": "금천구",
      "dong": "독산동",
      "type": "재개발",
      "stage": "조합설립인가",
      "stage_idx": 1,
      "lat": 37.4587,
      "lng": 126.9009,
      "area_m2": 34000,
      "units": 650,
      "contractor": "",
      "stage_date": "2022-05",
      "notes": "금천구 독산동 노후 주거지",
      "subway": "독산역(1호선) 도보 6분",
      "hangang": false,
      "completion_est": "2032년 이후 예상",
      "ref_note": ""
    },
    {
      "id": "sindang8",
      "name": "신당8구역",
      "district": "중구",
      "dong": "신당동",
      "type": "재개발",
      "stage": "사업시행인가",
      "stage_idx": 2,
      "lat": 37.5604,
      "lng": 127.0102,
      "area_m2": 25000,
      "units": 520,
      "contractor": "",
      "stage_date": "2023-04",
      "notes": "신당동 도심 재개발, 도심 접근성 우수",
      "subway": "신당역(2·6호선) 도보 5분",
      "hangang": false,
      "completion_est": "2029년 예상",
      "ref_note": ""
    },
    {
      "id": "seongsan",
      "name": "성산시영아파트",
      "district": "마포구",
      "dong": "성산동",
      "type": "재건축",
      "stage": "조합설립인가",
      "stage_idx": 1,
      "lat": 37.566,
      "lng": 126.9132,
      "area_m2": 198000,
      "units": 5424,
      "contractor": "",
      "stage_date": "2022-10",
      "notes": "서울 최대 재건축 단지 중 하나 (5,424세대)",
      "subway": "월드컵경기장역(6호선) 도보 12분",
      "hangang": false,
      "completion_est": "2033년 이후 예상",
      "ref_note": "성산동 구축 전용84㎡ 12~15억"
    },
    {
      "id": "singil4",
      "name": "신길4구역",
      "district": "영등포구",
      "dong": "신길동",
      "type": "재개발",
      "stage": "사업시행인가",
      "stage_idx": 2,
      "lat": 37.5124,
      "lng": 126.9023,
      "area_m2": 44000,
      "units": 820,
      "contractor": "",
      "stage_date": "2023-03",
      "notes": "신길뉴타운",
      "subway": "신풍역(7호선) 도보 6분",
      "hangang": false,
      "completion_est": "2030년 예상",
      "ref_note": ""
    },
    {
      "id": "singil7",
      "name": "신길7구역",
      "district": "영등포구",
      "dong": "신길동",
      "type": "재개발",
      "stage": "조합설립인가",
      "stage_idx": 1,
      "lat": 37.5198,
      "lng": 126.9073,
      "area_m2": 38000,
      "units": 680,
      "contractor": "",
      "stage_date": "2022-12",
      "notes": "신길뉴타운",
      "subway": "신길역(5호선) 도보 8분",
      "hangang": false,
      "completion_est": "2032년 이후 예상",
      "ref_note": ""
    },
    {
      "id": "pre_singil6",
      "name": "신길6구역 준비위",
      "district": "영등포구",
      "dong": "신길동",
      "type": "재개발",
      "stage": "준비위결성",
      "stage_idx": -1,
      "lat": 37.5178,
      "lng": 126.9048,
      "area_m2": 43000,
      "units": 750,
      "contractor": "",
      "stage_date": "2025-04",
      "notes": "신길뉴타운 인접 지역, 주민 자율 준비위원회 활동 중",
      "subway": "신길역(5호선) 도보 6분",
      "hangang": false,
      "completion_est": "미정",
      "ref_note": "노후 빌라 3.3㎡당 약 1,400만 원 수준",
      "nohuodo_pct": 70
    },
    {
      "id": "apgujeong2",
      "name": "압구정2구역",
      "district": "강남구",
      "dong": "압구정동",
      "type": "재건축",
      "stage": "조합설립인가",
      "stage_idx": 1,
      "lat": 37.5261,
      "lng": 127.0274,
      "area_m2": 88000,
      "units": 2800,
      "contractor": "",
      "stage_date": "2023-02",
      "notes": "현대2차·현대3차·한양 통합 재건축 추진",
      "subway": "압구정역(3호선) 도보 8분",
      "hangang": true,
      "completion_est": "2033년 이후 예상",
      "ref_note": "한강뷰, 압구정 신축 40~50억+ 예상"
    },
    {
      "id": "gaepoju3",
      "name": "개포주공3단지(디에이치아너힐즈)",
      "district": "강남구",
      "dong": "개포동",
      "type": "재건축",
      "stage": "준공완료",
      "stage_idx": 5,
      "lat": 37.4798,
      "lng": 127.0631,
      "area_m2": 63000,
      "units": 1320,
      "contractor": "현대건설",
      "stage_date": "2022-09",
      "notes": "개포주공3단지 재건축 완료",
      "subway": "개포동역(3호선) 도보 7분",
      "hangang": false,
      "completion_est": "완료(2022)",
      "ref_note": "전용84㎡ 27~32억"
    },
    {
      "id": "bangbae5",
      "name": "방배5구역",
      "district": "서초구",
      "dong": "방배동",
      "type": "재개발",
      "stage": "사업시행인가",
      "stage_idx": 2,
      "lat": 37.4843,
      "lng": 126.9877,
      "area_m2": 38000,
      "units": 910,
      "contractor": "",
      "stage_date": "2023-07",
      "notes": "방배동 노후 저층 주거지",
      "subway": "이수역(4·7호선) 도보 8분",
      "hangang": false,
      "completion_est": "2030년 예상",
      "ref_note": "방배동 신축 전용84㎡ 18~22억 예상"
    },
    {
      "id": "sanggye3",
      "name": "상계3구역",
      "district": "노원구",
      "dong": "상계동",
      "type": "재건축",
      "stage": "조합설립인가",
      "stage_idx": 1,
      "lat": 37.6555,
      "lng": 127.0658,
      "area_m2": 55000,
      "units": 1980,
      "contractor": "",
      "stage_date": "2021-11",
      "notes": "노원구 상계동 재건축",
      "subway": "노원역(4·7호선) 도보 10분",
      "hangang": false,
      "completion_est": "2033년 이후 예상",
      "ref_note": ""
    },
    {
      "id": "geumho14",
      "name": "금호14구역",
      "district": "성동구",
      "dong": "금호동",
      "type": "재개발",
      "stage": "구역지정",
      "stage_idx": 0,
      "lat": 37.5541,
      "lng": 127.0168,
      "area_m2": 28000,
      "units": 480,
      "contractor": "",
      "stage_date": "2022-12",
      "notes": "금호동 노후 주거지",
      "subway": "금호역(3호선) 도보 5분",
      "hangang": false,
      "completion_est": "2033년 이후 예상",
      "ref_note": ""
    },
    {
      "id": "garak",
      "name": "가락미륭·시영·한양",
      "district": "송파구",
      "dong": "가락동",
      "type": "재건축",
      "stage": "사업시행인가",
      "stage_idx": 2,
      "lat": 37.4942,
      "lng": 127.1218,
      "area_m2": 156000,
      "units": 3500,
      "contractor": "",
      "stage_date": "2024-03",
      "notes": "가락동 대단지 재건축, 가락시장역 역세권",
      "subway": "가락시장역(8호선) 도보 5분",
      "hangang": false,
      "completion_est": "2031년 예상",
      "ref_note": "가락동 구축 전용84㎡ 12~15억"
    },
    {
      "id": "mia8",
      "name": "미아8구역",
      "district": "강북구",
      "dong": "미아동",
      "type": "재개발",
      "stage": "조합설립인가",
      "stage_idx": 1,
      "lat": 37.6301,
      "lng": 127.0277,
      "area_m2": 47000,
      "units": 850,
      "contractor": "",
      "stage_date": "2022-04",
      "notes": "미아뉴타운",
      "subway": "미아역(4호선) 도보 8분",
      "hangang": false,
      "completion_est": "2032년 이후 예상",
      "ref_note": ""
    },
    {
      "id": "guro3",
      "name": "구로3구역",
      "district": "구로구",
      "dong": "구로동",
      "type": "재개발",
      "stage": "조합설립인가",
      "stage_idx": 1,
      "lat": 37.4929,
      "lng": 126.8839,
      "area_m2": 35000,
      "units": 640,
      "contractor": "",
      "stage_date": "2023-01",
      "notes": "구로동 노후 주거지",
      "subway": "구로역(1호선) 도보 9분",
      "hangang": false,
      "completion_est": "2032년 이후 예상",
      "ref_note": ""
    },
    {
      "id": "pre_mia6",
      "name": "미아6구역 준비위",
      "district": "강북구",
      "dong": "미아동",
      "type": "재개발",
      "stage": "준비위결성",
      "stage_idx": -1,
      "lat": 37.6385,
      "lng": 127.0318,
      "area_m2": 58000,
      "units": 1050,
      "contractor": "",
      "stage_date": "2024-11",
      "notes": "강북구 미아동 노후 저층 주거지, 준비위원회 주민 동의 수집 중",
      "subway": "미아삼거리역(4호선) 도보 5분",
      "hangang": false,
      "completion_est": "미정",
      "ref_note": "3.3㎡당 약 1,200만 원 수준",
      "nohuodo_pct": 74
    },
    {
      "id": "pre_bongcheon",
      "name": "봉천5구역 인근 정비예정",
      "district": "관악구",
      "dong": "봉천동",
      "type": "재개발",
      "stage": "정비예정",
      "stage_idx": -2,
      "lat": 37.4793,
      "lng": 126.9318,
      "area_m2": 38000,
      "units": 0,
      "contractor": "",
      "stage_date": "",
      "notes": "봉천뉴타운 해제구역 인근, 재신청 논의 중. 관악구청 도시정비과 확인 필요",
      "subway": "봉천역(2호선) 도보 7분",
      "hangang": false,
      "completion_est": "미정",
      "ref_note": "정비예정구역 지정 시 사업성 검토 필요",
      "nohuodo_pct": 67
    },
    {
      "id": "pre_suyu",
      "name": "수유1·2동 정비예정",
      "district": "강북구",
      "dong": "수유동",
      "type": "재개발",
      "stage": "정비예정",
      "stage_idx": -2,
      "lat": 37.6489,
      "lng": 127.0241,
      "area_m2": 52000,
      "units": 0,
      "contractor": "",
      "stage_date": "",
      "notes": "40년+ 노후 단독·다가구 밀집 지역, 서울시 정비예정구역 검토 대상",
      "subway": "수유역(4호선) 도보 8분",
      "hangang": false,
      "completion_est": "미정",
      "ref_note": "",
      "nohuodo_pct": 66
    },
    {
      "id": "pre_yeomri4",
      "name": "염리4구역 준비위",
      "district": "마포구",
      "dong": "염리동",
      "type": "재개발",
      "stage": "준비위결성",
      "stage_idx": -1,
      "lat": 37.5501,
      "lng": 126.9503,
      "area_m2": 31000,
      "units": 560,
      "contractor": "",
      "stage_date": "2025-02",
      "notes": "아현3구역(착공중) 인접, 마포구 내 마지막 정비 대상 구역 중 하나",
      "subway": "아현역(2호선) 도보 6분",
      "hangang": false,
      "completion_est": "미정",
      "ref_note": "인근 마포래미안 푸르지오 시세 참고 (전용84㎡ 16~19억)",
      "nohuodo_pct": 69
    },
    {
      "id": "changshin2",
      "name": "창신2구역",
      "district": "종로구",
      "dong": "창신동",
      "type": "재개발",
      "stage": "구역지정",
      "stage_idx": 0,
      "lat": 37.5766,
      "lng": 127.0177,
      "area_m2": 32000,
      "units": 590,
      "contractor": "",
      "stage_date": "2023-09",
      "notes": "신통기획 선도 후보지, 낙산성곽 인접 도심 재개발",
      "subway": "동묘앞역(1·6호선) 도보 6분",
      "hangang": false,
      "completion_est": "2033년 이후 예상",
      "ref_note": ""
    },
    {
      "id": "seun31",
      "name": "세운재정비 3-1구역",
      "district": "종로구",
      "dong": "청계천로",
      "type": "재개발",
      "stage": "사업시행인가",
      "stage_idx": 2,
      "lat": 37.5659,
      "lng": 126.9954,
      "area_m2": 22000,
      "units": 480,
      "contractor": "",
      "stage_date": "2022-11",
      "notes": "세운재정비촉진지구, 도심 소규모 정비",
      "subway": "을지로3가역(2·3호선) 도보 5분",
      "hangang": false,
      "completion_est": "2029년 예상",
      "ref_note": ""
    },
    {
      "id": "siheung3",
      "name": "시흥3구역",
      "district": "금천구",
      "dong": "시흥동",
      "type": "재개발",
      "stage": "조합설립인가",
      "stage_idx": 1,
      "lat": 37.4567,
      "lng": 126.8952,
      "area_m2": 41000,
      "units": 760,
      "contractor": "",
      "stage_date": "2022-08",
      "notes": "금천구 시흥동 노후 저층 주거지",
      "subway": "시흥역(1호선) 도보 8분",
      "hangang": false,
      "completion_est": "2032년 이후 예상",
      "ref_note": ""
    },
    {
      "id": "doksan1",
      "name": "독산1구역",
      "district": "금천구",
      "dong": "독산동",
      "type": "재개발",
      "stage": "구역지정",
      "stage_idx": 0,
      "lat": 37.4671,
      "lng": 126.8989,
      "area_m2": 37000,
      "units": 680,
      "contractor": "",
      "stage_date": "2023-03",
      "notes": "독산동 노후 단독·다가구 밀집지",
      "subway": "독산역(1호선) 도보 5분",
      "hangang": false,
      "completion_est": "2033년 이후 예상",
      "ref_note": ""
    },
    {
      "id": "sindang9",
      "name": "신당9구역",
      "district": "중구",
      "dong": "신당동",
      "type": "재개발",
      "stage": "조합설립인가",
      "stage_idx": 1,
      "lat": 37.563,
      "lng": 127.0172,
      "area_m2": 27000,
      "units": 530,
      "contractor": "",
      "stage_date": "2023-01",
      "notes": "신당뉴타운, 신당역 역세권",
      "subway": "신당역(2·6호선) 도보 7분",
      "hangang": false,
      "completion_est": "2032년 이후 예상",
      "ref_note": ""
    },
    {
      "id": "hwanghak",
      "name": "황학동 재개발 준비위",
      "district": "중구",
      "dong": "황학동",
      "type": "재개발",
      "stage": "준비위결성",
      "stage_idx": -1,
      "lat": 37.568,
      "lng": 127.0119,
      "area_m2": 24000,
      "units": 440,
      "contractor": "",
      "stage_date": "2025-01",
      "notes": "황학동 벼룩시장 인근 노후 주거지, 준비위 자율 결성",
      "subway": "동묘앞역(1·6호선) 도보 5분",
      "hangang": false,
      "completion_est": "미정",
      "ref_note": ""
    },
    {
      "id": "amsa1",
      "name": "암사1구역",
      "district": "강동구",
      "dong": "암사동",
      "type": "재개발",
      "stage": "사업시행인가",
      "stage_idx": 2,
      "lat": 37.5516,
      "lng": 127.136,
      "area_m2": 46000,
      "units": 890,
      "contractor": "",
      "stage_date": "2023-05",
      "notes": "암사동 노후 저층 주거지, 한강 인접",
      "subway": "암사역(8호선) 도보 10분",
      "hangang": true,
      "completion_est": "2030년 예상",
      "ref_note": ""
    },
    {
      "id": "cheonho2",
      "name": "천호2구역",
      "district": "강동구",
      "dong": "천호동",
      "type": "재개발",
      "stage": "조합설립인가",
      "stage_idx": 1,
      "lat": 37.5378,
      "lng": 127.1298,
      "area_m2": 39000,
      "units": 720,
      "contractor": "",
      "stage_date": "2022-10",
      "notes": "천호뉴타운",
      "subway": "강동역(5·8호선) 도보 7분",
      "hangang": false,
      "completion_est": "2032년 이후 예상",
      "ref_note": ""
    },
    {
      "id": "myeongil1",
      "name": "명일1구역",
      "district": "강동구",
      "dong": "명일동",
      "type": "재개발",
      "stage": "구역지정",
      "stage_idx": 0,
      "lat": 37.5495,
      "lng": 127.1408,
      "area_m2": 35000,
      "units": 640,
      "contractor": "",
      "stage_date": "2023-06",
      "notes": "명일동 노후 저층 주거지",
      "subway": "명일역(5호선) 도보 8분",
      "hangang": false,
      "completion_est": "2033년 이후 예상",
      "ref_note": ""
    },
    {
      "id": "geumho23",
      "name": "금호23구역",
      "district": "성동구",
      "dong": "금호동",
      "type": "재개발",
      "stage": "구역지정",
      "stage_idx": 0,
      "lat": 37.5558,
      "lng": 127.0222,
      "area_m2": 31000,
      "units": 570,
      "contractor": "",
      "stage_date": "2023-04",
      "notes": "금호동 노후 주거지, 금호역 역세권",
      "subway": "금호역(3호선) 도보 6분",
      "hangang": false,
      "completion_est": "2033년 이후 예상",
      "ref_note": ""
    },
    {
      "id": "haengdang5",
      "name": "행당5구역",
      "district": "성동구",
      "dong": "행당동",
      "type": "재개발",
      "stage": "사업시행인가",
      "stage_idx": 2,
      "lat": 37.5603,
      "lng": 127.0315,
      "area_m2": 28000,
      "units": 510,
      "contractor": "",
      "stage_date": "2022-12",
      "notes": "행당뉴타운",
      "subway": "행당역(5호선) 도보 6분",
      "hangang": false,
      "completion_est": "2029년 예상",
      "ref_note": ""
    },
    {
      "id": "guro4",
      "name": "구로4구역",
      "district": "구로구",
      "dong": "구로동",
      "type": "재개발",
      "stage": "구역지정",
      "stage_idx": 0,
      "lat": 37.4966,
      "lng": 126.8753,
      "area_m2": 36000,
      "units": 660,
      "contractor": "",
      "stage_date": "2023-05",
      "notes": "구로뉴타운",
      "subway": "구로역(1호선) 도보 11분",
      "hangang": false,
      "completion_est": "2033년 이후 예상",
      "ref_note": ""
    },
    {
      "id": "gaebong2",
      "name": "개봉2구역",
      "district": "구로구",
      "dong": "개봉동",
      "type": "재개발",
      "stage": "조합설립인가",
      "stage_idx": 1,
      "lat": 37.4971,
      "lng": 126.8528,
      "area_m2": 42000,
      "units": 770,
      "contractor": "",
      "stage_date": "2022-06",
      "notes": "개봉동 노후 저층 주거지",
      "subway": "개봉역(1호선) 도보 7분",
      "hangang": false,
      "completion_est": "2032년 이후 예상",
      "ref_note": ""
    },
    {
      "id": "sanggye6",
      "name": "상계주공6단지",
      "district": "노원구",
      "dong": "상계동",
      "type": "재건축",
      "stage": "조합설립인가",
      "stage_idx": 1,
      "lat": 37.6549,
      "lng": 127.0688,
      "area_m2": 78000,
      "units": 2340,
      "contractor": "",
      "stage_date": "2023-03",
      "notes": "노원구 상계주공 대단지 재건축",
      "subway": "노원역(4·7호선) 도보 8분",
      "hangang": false,
      "completion_est": "2033년 이후 예상",
      "ref_note": ""
    },
    {
      "id": "gongreung1",
      "name": "공릉1구역",
      "district": "노원구",
      "dong": "공릉동",
      "type": "재개발",
      "stage": "구역지정",
      "stage_idx": 0,
      "lat": 37.6254,
      "lng": 127.0814,
      "area_m2": 44000,
      "units": 800,
      "contractor": "",
      "stage_date": "2023-02",
      "notes": "공릉동 노후 단독주택 밀집지",
      "subway": "태릉입구역(6·7호선) 도보 9분",
      "hangang": false,
      "completion_est": "2033년 이후 예상",
      "ref_note": ""
    },
    {
      "id": "hwagok6",
      "name": "화곡6구역",
      "district": "강서구",
      "dong": "화곡동",
      "type": "재개발",
      "stage": "조합설립인가",
      "stage_idx": 1,
      "lat": 37.5462,
      "lng": 126.852,
      "area_m2": 48000,
      "units": 870,
      "contractor": "",
      "stage_date": "2022-09",
      "notes": "화곡뉴타운",
      "subway": "화곡역(5호선) 도보 6분",
      "hangang": false,
      "completion_est": "2032년 이후 예상",
      "ref_note": ""
    },
    {
      "id": "deungchon2",
      "name": "등촌2구역",
      "district": "강서구",
      "dong": "등촌동",
      "type": "재개발",
      "stage": "구역지정",
      "stage_idx": 0,
      "lat": 37.553,
      "lng": 126.8566,
      "area_m2": 37000,
      "units": 680,
      "contractor": "",
      "stage_date": "2023-07",
      "notes": "등촌동 노후 저층 주거지, 염창역 역세권",
      "subway": "염창역(9호선) 도보 9분",
      "hangang": false,
      "completion_est": "2033년 이후 예상",
      "ref_note": ""
    },
    {
      "id": "banghak1",
      "name": "방학1구역",
      "district": "도봉구",
      "dong": "방학동",
      "type": "재개발",
      "stage": "구역지정",
      "stage_idx": 0,
      "lat": 37.6628,
      "lng": 127.0397,
      "area_m2": 38000,
      "units": 700,
      "contractor": "",
      "stage_date": "2023-01",
      "notes": "방학동 노후 저층 주거지",
      "subway": "방학역(1호선) 도보 7분",
      "hangang": false,
      "completion_est": "2033년 이후 예상",
      "ref_note": ""
    },
    {
      "id": "ssangmun1",
      "name": "쌍문1구역 준비위",
      "district": "도봉구",
      "dong": "쌍문동",
      "type": "재개발",
      "stage": "준비위결성",
      "stage_idx": -1,
      "lat": 37.6519,
      "lng": 127.0361,
      "area_m2": 31000,
      "units": 560,
      "contractor": "",
      "stage_date": "2024-08",
      "notes": "쌍문동 주민 자율 준비위 결성, 신통기획 후보지 신청 검토 중",
      "subway": "쌍문역(1호선) 도보 6분",
      "hangang": false,
      "completion_est": "미정",
      "ref_note": ""
    },
    {
      "id": "junghwa1",
      "name": "중화1구역",
      "district": "중랑구",
      "dong": "중화동",
      "type": "재개발",
      "stage": "조합설립인가",
      "stage_idx": 1,
      "lat": 37.5985,
      "lng": 127.0831,
      "area_m2": 40000,
      "units": 730,
      "contractor": "",
      "stage_date": "2022-05",
      "notes": "중랑구 중화뉴타운",
      "subway": "중화역(7호선) 도보 7분",
      "hangang": false,
      "completion_est": "2032년 이후 예상",
      "ref_note": ""
    },
    {
      "id": "muk1",
      "name": "묵1구역",
      "district": "중랑구",
      "dong": "묵동",
      "type": "재개발",
      "stage": "구역지정",
      "stage_idx": 0,
      "lat": 37.611,
      "lng": 127.0763,
      "area_m2": 35000,
      "units": 640,
      "contractor": "",
      "stage_date": "2023-04",
      "notes": "묵동 노후 저층 주거지",
      "subway": "먹골역(7호선) 도보 8분",
      "hangang": false,
      "completion_est": "2033년 이후 예상",
      "ref_note": ""
    },
    {
      "id": "susaek4",
      "name": "수색4구역",
      "district": "은평구",
      "dong": "수색동",
      "type": "재개발",
      "stage": "조합설립인가",
      "stage_idx": 1,
      "lat": 37.5798,
      "lng": 126.9026,
      "area_m2": 52000,
      "units": 950,
      "contractor": "",
      "stage_date": "2022-11",
      "notes": "수색증산뉴타운, DMC역 역세권",
      "subway": "수색역(경의중앙선) 도보 8분",
      "hangang": false,
      "completion_est": "2032년 이후 예상",
      "ref_note": ""
    },
    {
      "id": "eungam2",
      "name": "응암2구역",
      "district": "은평구",
      "dong": "응암동",
      "type": "재개발",
      "stage": "구역지정",
      "stage_idx": 0,
      "lat": 37.5985,
      "lng": 126.9193,
      "area_m2": 43000,
      "units": 790,
      "contractor": "",
      "stage_date": "2023-05",
      "notes": "응암동 노후 주거지",
      "subway": "응암역(6호선) 도보 6분",
      "hangang": false,
      "completion_est": "2033년 이후 예상",
      "ref_note": ""
    },
    {
      "id": "bugahyeon2",
      "name": "북아현2구역",
      "district": "서대문구",
      "dong": "북아현동",
      "type": "재개발",
      "stage": "조합설립인가",
      "stage_idx": 1,
      "lat": 37.5545,
      "lng": 126.9447,
      "area_m2": 45000,
      "units": 820,
      "contractor": "",
      "stage_date": "2022-07",
      "notes": "북아현뉴타운, 아현역 역세권",
      "subway": "아현역(2호선) 도보 5분",
      "hangang": false,
      "completion_est": "2032년 이후 예상",
      "ref_note": ""
    },
    {
      "id": "hongje2",
      "name": "홍제2구역",
      "district": "서대문구",
      "dong": "홍제동",
      "type": "재개발",
      "stage": "조합설립인가",
      "stage_idx": 1,
      "lat": 37.5904,
      "lng": 126.9382,
      "area_m2": 39000,
      "units": 710,
      "contractor": "",
      "stage_date": "2023-02",
      "notes": "홍제동 노후 저층 주거지, 홍제역 역세권",
      "subway": "홍제역(3호선) 도보 7분",
      "hangang": false,
      "completion_est": "2032년 이후 예상",
      "ref_note": ""
    },
    {
      "id": "macheon1",
      "name": "마천1구역",
      "district": "송파구",
      "dong": "마천동",
      "type": "재개발",
      "stage": "구역지정",
      "stage_idx": 0,
      "lat": 37.4925,
      "lng": 127.1248,
      "area_m2": 38000,
      "units": 700,
      "contractor": "",
      "stage_date": "2023-03",
      "notes": "마천동 노후 저층 주거지",
      "subway": "마천역(5호선) 도보 6분",
      "hangang": false,
      "completion_est": "2033년 이후 예상",
      "ref_note": ""
    },
    {
      "id": "bangi_hanyang",
      "name": "방이한양 재건축",
      "district": "송파구",
      "dong": "방이동",
      "type": "재건축",
      "stage": "조합설립인가",
      "stage_idx": 1,
      "lat": 37.5094,
      "lng": 127.1152,
      "area_m2": 47000,
      "units": 1580,
      "contractor": "",
      "stage_date": "2023-01",
      "notes": "방이동 구축 아파트 재건축",
      "subway": "올림픽공원역(5·9호선) 도보 9분",
      "hangang": false,
      "completion_est": "2033년 이후 예상",
      "ref_note": ""
    },
    {
      "id": "hannam1",
      "name": "한남1구역",
      "district": "용산구",
      "dong": "한남동",
      "type": "재개발",
      "stage": "구역지정",
      "stage_idx": 0,
      "lat": 37.5319,
      "lng": 127.0015,
      "area_m2": 34000,
      "units": 680,
      "contractor": "",
      "stage_date": "2022-09",
      "notes": "한남뉴타운 1구역",
      "subway": "한강진역(6호선) 도보 9분",
      "hangang": true,
      "completion_est": "2033년 이후 예상",
      "ref_note": ""
    },
    {
      "id": "hannam2",
      "name": "한남2구역",
      "district": "용산구",
      "dong": "한남동",
      "type": "재개발",
      "stage": "사업시행인가",
      "stage_idx": 2,
      "lat": 37.5335,
      "lng": 127.0028,
      "area_m2": 43000,
      "units": 850,
      "contractor": "",
      "stage_date": "2023-08",
      "notes": "한남뉴타운 2구역, 한강뷰",
      "subway": "한강진역(6호선) 도보 7분",
      "hangang": true,
      "completion_est": "2030년 예상",
      "ref_note": ""
    },
    {
      "id": "hannam3",
      "name": "한남3구역",
      "district": "용산구",
      "dong": "한남동",
      "type": "재개발",
      "stage": "관리처분인가",
      "stage_idx": 3,
      "lat": 37.5355,
      "lng": 127.0048,
      "area_m2": 89000,
      "units": 5816,
      "contractor": "현대건설 컨소시엄",
      "stage_date": "2024-01",
      "notes": "한남뉴타운 핵심 구역, 국내 최대 정비사업 중 하나",
      "subway": "한강진역(6호선) 도보 5분",
      "hangang": true,
      "completion_est": "2029년 예상",
      "ref_note": "한남3구역 구축 3.3㎡당 2억+"
    },
    {
      "id": "hannam4",
      "name": "한남4구역",
      "district": "용산구",
      "dong": "한남동",
      "type": "재개발",
      "stage": "조합설립인가",
      "stage_idx": 1,
      "lat": 37.5372,
      "lng": 127.0062,
      "area_m2": 57000,
      "units": 1320,
      "contractor": "",
      "stage_date": "2023-02",
      "notes": "한남뉴타운 4구역",
      "subway": "이태원역(6호선) 도보 8분",
      "hangang": true,
      "completion_est": "2032년 이후 예상",
      "ref_note": ""
    },
    {
      "id": "hannam5",
      "name": "한남5구역",
      "district": "용산구",
      "dong": "한남동",
      "type": "재개발",
      "stage": "조합설립인가",
      "stage_idx": 1,
      "lat": 37.5389,
      "lng": 127.0079,
      "area_m2": 48000,
      "units": 1050,
      "contractor": "",
      "stage_date": "2022-11",
      "notes": "한남뉴타운 5구역",
      "subway": "이태원역(6호선) 도보 6분",
      "hangang": true,
      "completion_est": "2033년 이후 예상",
      "ref_note": ""
    },
    {
      "id": "heukseok2",
      "name": "흑석2구역",
      "district": "동작구",
      "dong": "흑석동",
      "type": "재개발",
      "stage": "사업시행인가",
      "stage_idx": 2,
      "lat": 37.5117,
      "lng": 126.9643,
      "area_m2": 42000,
      "units": 780,
      "contractor": "",
      "stage_date": "2023-06",
      "notes": "흑석뉴타운",
      "subway": "흑석역(9호선) 도보 8분",
      "hangang": false,
      "completion_est": "2030년 예상",
      "ref_note": ""
    },
    {
      "id": "heukseok3",
      "name": "흑석3구역",
      "district": "동작구",
      "dong": "흑석동",
      "type": "재개발",
      "stage": "관리처분인가",
      "stage_idx": 3,
      "lat": 37.5106,
      "lng": 126.9659,
      "area_m2": 51000,
      "units": 1320,
      "contractor": "GS건설",
      "stage_date": "2023-11",
      "notes": "흑석뉴타운, 이주 준비 중",
      "subway": "흑석역(9호선) 도보 5분",
      "hangang": false,
      "completion_est": "2028년 예상",
      "ref_note": ""
    },
    {
      "id": "heukseok4",
      "name": "흑석4구역",
      "district": "동작구",
      "dong": "흑석동",
      "type": "재개발",
      "stage": "이주/착공",
      "stage_idx": 4,
      "lat": 37.5098,
      "lng": 126.9671,
      "area_m2": 38000,
      "units": 890,
      "contractor": "대림산업",
      "stage_date": "2024-03",
      "notes": "흑석뉴타운",
      "subway": "흑석역(9호선) 도보 6분",
      "hangang": false,
      "completion_est": "2027년 예상",
      "ref_note": ""
    },
    {
      "id": "heukseok7",
      "name": "흑석7구역",
      "district": "동작구",
      "dong": "흑석동",
      "type": "재개발",
      "stage": "조합설립인가",
      "stage_idx": 1,
      "lat": 37.5088,
      "lng": 126.9687,
      "area_m2": 33000,
      "units": 640,
      "contractor": "",
      "stage_date": "2022-07",
      "notes": "흑석뉴타운",
      "subway": "흑석역(9호선) 도보 9분",
      "hangang": false,
      "completion_est": "2032년 이후 예상",
      "ref_note": ""
    },
    {
      "id": "heukseok9",
      "name": "흑석9구역",
      "district": "동작구",
      "dong": "흑석동",
      "type": "재개발",
      "stage": "구역지정",
      "stage_idx": 0,
      "lat": 37.5072,
      "lng": 126.9703,
      "area_m2": 28000,
      "units": 530,
      "contractor": "",
      "stage_date": "2023-04",
      "notes": "흑석뉴타운",
      "subway": "노량진역(1·9호선) 도보 11분",
      "hangang": false,
      "completion_est": "2033년 이후 예상",
      "ref_note": ""
    },
    {
      "id": "noryang1",
      "name": "노량진1구역",
      "district": "동작구",
      "dong": "노량진동",
      "type": "재개발",
      "stage": "관리처분인가",
      "stage_idx": 3,
      "lat": 37.5143,
      "lng": 126.9452,
      "area_m2": 48000,
      "units": 1536,
      "contractor": "롯데건설",
      "stage_date": "2024-02",
      "notes": "노량진뉴타운 1구역",
      "subway": "노량진역(1·9호선) 도보 5분",
      "hangang": false,
      "completion_est": "2028년 예상",
      "ref_note": ""
    },
    {
      "id": "noryang2",
      "name": "노량진2구역",
      "district": "동작구",
      "dong": "노량진동",
      "type": "재개발",
      "stage": "사업시행인가",
      "stage_idx": 2,
      "lat": 37.5129,
      "lng": 126.9436,
      "area_m2": 39000,
      "units": 980,
      "contractor": "",
      "stage_date": "2023-09",
      "notes": "노량진뉴타운",
      "subway": "노량진역(1·9호선) 도보 7분",
      "hangang": false,
      "completion_est": "2030년 예상",
      "ref_note": ""
    },
    {
      "id": "noryang3",
      "name": "노량진3구역",
      "district": "동작구",
      "dong": "노량진동",
      "type": "재개발",
      "stage": "사업시행인가",
      "stage_idx": 2,
      "lat": 37.5118,
      "lng": 126.9418,
      "area_m2": 34000,
      "units": 820,
      "contractor": "",
      "stage_date": "2023-05",
      "notes": "노량진뉴타운",
      "subway": "노량진역(1·9호선) 도보 9분",
      "hangang": false,
      "completion_est": "2030년 예상",
      "ref_note": ""
    },
    {
      "id": "noryang4",
      "name": "노량진4구역",
      "district": "동작구",
      "dong": "노량진동",
      "type": "재개발",
      "stage": "조합설립인가",
      "stage_idx": 1,
      "lat": 37.5108,
      "lng": 126.9401,
      "area_m2": 29000,
      "units": 650,
      "contractor": "",
      "stage_date": "2022-12",
      "notes": "노량진뉴타운",
      "subway": "대방역(1호선) 도보 8분",
      "hangang": false,
      "completion_est": "2032년 이후 예상",
      "ref_note": ""
    },
    {
      "id": "noryang5",
      "name": "노량진5구역",
      "district": "동작구",
      "dong": "노량진동",
      "type": "재개발",
      "stage": "조합설립인가",
      "stage_idx": 1,
      "lat": 37.5098,
      "lng": 126.9385,
      "area_m2": 26000,
      "units": 580,
      "contractor": "",
      "stage_date": "2022-09",
      "notes": "노량진뉴타운",
      "subway": "대방역(1호선) 도보 9분",
      "hangang": false,
      "completion_est": "2032년 이후 예상",
      "ref_note": ""
    },
    {
      "id": "ahyeon1",
      "name": "아현1구역(마포래미안푸르지오)",
      "district": "마포구",
      "dong": "아현동",
      "type": "재개발",
      "stage": "준공완료",
      "stage_idx": 5,
      "lat": 37.5591,
      "lng": 126.9579,
      "area_m2": 84000,
      "units": 3885,
      "contractor": "삼성물산·대우건설",
      "stage_date": "2014-12",
      "notes": "아현뉴타운 완료 — 마포래미안푸르지오",
      "subway": "공덕역(5·6호선) 도보 7분",
      "hangang": false,
      "completion_est": "완료(2014)",
      "ref_note": "전용84㎡ 15~18억"
    },
    {
      "id": "ahyeon2",
      "name": "아현2구역(마포더클래시)",
      "district": "마포구",
      "dong": "아현동",
      "type": "재개발",
      "stage": "준공완료",
      "stage_idx": 5,
      "lat": 37.5573,
      "lng": 126.9561,
      "area_m2": 47000,
      "units": 1280,
      "contractor": "현대건설",
      "stage_date": "2019-08",
      "notes": "아현뉴타운 완료",
      "subway": "아현역(2호선) 도보 4분",
      "hangang": false,
      "completion_est": "완료(2019)",
      "ref_note": "전용84㎡ 14~16억"
    },
    {
      "id": "ahyeon3",
      "name": "아현3구역",
      "district": "마포구",
      "dong": "아현동",
      "type": "재개발",
      "stage": "이주/착공",
      "stage_idx": 4,
      "lat": 37.5562,
      "lng": 126.9541,
      "area_m2": 59000,
      "units": 1419,
      "contractor": "GS건설·SK에코플랜트",
      "stage_date": "2024-06",
      "notes": "아현뉴타운 마지막 대형 구역, 착공 진행 중",
      "subway": "아현역(2호선) 도보 5분",
      "hangang": false,
      "completion_est": "2027년 예상",
      "ref_note": ""
    },
    {
      "id": "jangwi1",
      "name": "장위1구역",
      "district": "성북구",
      "dong": "장위동",
      "type": "재개발",
      "stage": "이주/착공",
      "stage_idx": 4,
      "lat": 37.6101,
      "lng": 127.0531,
      "area_m2": 68000,
      "units": 2840,
      "contractor": "GS건설",
      "stage_date": "2023-09",
      "notes": "장위뉴타운 최대 구역",
      "subway": "석계역(5·6호선) 도보 8분",
      "hangang": false,
      "completion_est": "2027년 예상",
      "ref_note": ""
    },
    {
      "id": "jangwi2",
      "name": "장위2구역",
      "district": "성북구",
      "dong": "장위동",
      "type": "재개발",
      "stage": "조합설립인가",
      "stage_idx": 1,
      "lat": 37.6089,
      "lng": 127.0506,
      "area_m2": 52000,
      "units": 1180,
      "contractor": "",
      "stage_date": "2022-08",
      "notes": "장위뉴타운",
      "subway": "장위역(경전철) 예정",
      "hangang": false,
      "completion_est": "2033년 이후 예상",
      "ref_note": ""
    },
    {
      "id": "jangwi3",
      "name": "장위3구역",
      "district": "성북구",
      "dong": "장위동",
      "type": "재개발",
      "stage": "사업시행인가",
      "stage_idx": 2,
      "lat": 37.6082,
      "lng": 127.0484,
      "area_m2": 44000,
      "units": 1020,
      "contractor": "",
      "stage_date": "2023-04",
      "notes": "장위뉴타운",
      "subway": "석계역(5·6호선) 도보 10분",
      "hangang": false,
      "completion_est": "2030년 예상",
      "ref_note": ""
    },
    {
      "id": "jangwi4",
      "name": "장위4구역",
      "district": "성북구",
      "dong": "장위동",
      "type": "재개발",
      "stage": "관리처분인가",
      "stage_idx": 3,
      "lat": 37.6068,
      "lng": 127.0462,
      "area_m2": 58000,
      "units": 1563,
      "contractor": "현대건설",
      "stage_date": "2024-03",
      "notes": "장위뉴타운",
      "subway": "석계역(5·6호선) 도보 9분",
      "hangang": false,
      "completion_est": "2028년 예상",
      "ref_note": ""
    },
    {
      "id": "jangwi5",
      "name": "장위5구역",
      "district": "성북구",
      "dong": "장위동",
      "type": "재개발",
      "stage": "조합설립인가",
      "stage_idx": 1,
      "lat": 37.606,
      "lng": 127.0499,
      "area_m2": 39000,
      "units": 870,
      "contractor": "",
      "stage_date": "2022-05",
      "notes": "장위뉴타운",
      "subway": "장위역(경전철) 예정",
      "hangang": false,
      "completion_est": "2033년 이후 예상",
      "ref_note": ""
    },
    {
      "id": "jangwi6",
      "name": "장위6구역",
      "district": "성북구",
      "dong": "장위동",
      "type": "재개발",
      "stage": "구역지정",
      "stage_idx": 0,
      "lat": 37.6053,
      "lng": 127.0516,
      "area_m2": 32000,
      "units": 690,
      "contractor": "",
      "stage_date": "2023-01",
      "notes": "장위뉴타운",
      "subway": "장위역(경전철) 예정",
      "hangang": false,
      "completion_est": "2033년 이후 예상",
      "ref_note": ""
    },
    {
      "id": "jangwi7",
      "name": "장위7구역",
      "district": "성북구",
      "dong": "장위동",
      "type": "재개발",
      "stage": "구역지정",
      "stage_idx": 0,
      "lat": 37.6045,
      "lng": 127.0512,
      "area_m2": 28000,
      "units": 580,
      "contractor": "",
      "stage_date": "2023-03",
      "notes": "장위뉴타운",
      "subway": "장위역(경전철) 예정",
      "hangang": false,
      "completion_est": "2033년 이후 예상",
      "ref_note": ""
    },
    {
      "id": "jangwi8",
      "name": "장위8구역",
      "district": "성북구",
      "dong": "장위동",
      "type": "재개발",
      "stage": "사업시행인가",
      "stage_idx": 2,
      "lat": 37.6073,
      "lng": 127.0455,
      "area_m2": 48000,
      "units": 1090,
      "contractor": "",
      "stage_date": "2023-07",
      "notes": "장위뉴타운",
      "subway": "석계역(5·6호선) 도보 11분",
      "hangang": false,
      "completion_est": "2030년 예상",
      "ref_note": ""
    },
    {
      "id": "mia1",
      "name": "미아1구역(꿈의숲아이파크)",
      "district": "강북구",
      "dong": "미아동",
      "type": "재개발",
      "stage": "준공완료",
      "stage_idx": 5,
      "lat": 37.6351,
      "lng": 127.0301,
      "area_m2": 52000,
      "units": 1900,
      "contractor": "HDC현대산업개발",
      "stage_date": "2020-07",
      "notes": "미아뉴타운 완료 — 꿈의숲아이파크",
      "subway": "미아삼거리역(4호선) 도보 5분",
      "hangang": false,
      "completion_est": "완료(2020)",
      "ref_note": "전용84㎡ 9~11억"
    },
    {
      "id": "mia2",
      "name": "미아2구역(SK북한산시티)",
      "district": "강북구",
      "dong": "미아동",
      "type": "재개발",
      "stage": "준공완료",
      "stage_idx": 5,
      "lat": 37.6368,
      "lng": 127.0285,
      "area_m2": 44000,
      "units": 1681,
      "contractor": "SK건설",
      "stage_date": "2012-08",
      "notes": "미아뉴타운 완료",
      "subway": "미아삼거리역(4호선) 도보 8분",
      "hangang": false,
      "completion_est": "완료(2012)",
      "ref_note": ""
    },
    {
      "id": "mia3",
      "name": "미아3구역",
      "district": "강북구",
      "dong": "미아동",
      "type": "재개발",
      "stage": "이주/착공",
      "stage_idx": 4,
      "lat": 37.6384,
      "lng": 127.0269,
      "area_m2": 49000,
      "units": 1540,
      "contractor": "DL이앤씨",
      "stage_date": "2024-05",
      "notes": "미아뉴타운",
      "subway": "미아삼거리역(4호선) 도보 9분",
      "hangang": false,
      "completion_est": "2027년 예상",
      "ref_note": ""
    },
    {
      "id": "mia4",
      "name": "미아4구역",
      "district": "강북구",
      "dong": "미아동",
      "type": "재개발",
      "stage": "관리처분인가",
      "stage_idx": 3,
      "lat": 37.6398,
      "lng": 127.0254,
      "area_m2": 41000,
      "units": 1240,
      "contractor": "",
      "stage_date": "2024-01",
      "notes": "미아뉴타운",
      "subway": "미아역(4호선) 도보 7분",
      "hangang": false,
      "completion_est": "2029년 예상",
      "ref_note": ""
    },
    {
      "id": "mia5",
      "name": "미아5구역",
      "district": "강북구",
      "dong": "미아동",
      "type": "재개발",
      "stage": "사업시행인가",
      "stage_idx": 2,
      "lat": 37.6412,
      "lng": 127.0238,
      "area_m2": 36000,
      "units": 1010,
      "contractor": "",
      "stage_date": "2023-10",
      "notes": "미아뉴타운",
      "subway": "미아역(4호선) 도보 9분",
      "hangang": false,
      "completion_est": "2030년 예상",
      "ref_note": ""
    },
    {
      "id": "singil1",
      "name": "신길1구역(보라매SK뷰)",
      "district": "영등포구",
      "dong": "신길동",
      "type": "재개발",
      "stage": "준공완료",
      "stage_idx": 5,
      "lat": 37.5192,
      "lng": 126.9138,
      "area_m2": 64000,
      "units": 2679,
      "contractor": "SK건설",
      "stage_date": "2018-03",
      "notes": "신길뉴타운 완료",
      "subway": "보라매역(7호선) 도보 6분",
      "hangang": false,
      "completion_est": "완료(2018)",
      "ref_note": "전용84㎡ 13~15억"
    },
    {
      "id": "singil2",
      "name": "신길2구역",
      "district": "영등포구",
      "dong": "신길동",
      "type": "재개발",
      "stage": "이주/착공",
      "stage_idx": 4,
      "lat": 37.518,
      "lng": 126.9119,
      "area_m2": 51000,
      "units": 1380,
      "contractor": "현대건설",
      "stage_date": "2024-04",
      "notes": "신길뉴타운",
      "subway": "신풍역(7호선) 도보 7분",
      "hangang": false,
      "completion_est": "2027년 예상",
      "ref_note": ""
    },
    {
      "id": "singil3",
      "name": "신길3구역",
      "district": "영등포구",
      "dong": "신길동",
      "type": "재개발",
      "stage": "사업시행인가",
      "stage_idx": 2,
      "lat": 37.5165,
      "lng": 126.9107,
      "area_m2": 43000,
      "units": 980,
      "contractor": "",
      "stage_date": "2023-06",
      "notes": "신길뉴타운",
      "subway": "신풍역(7호선) 도보 5분",
      "hangang": false,
      "completion_est": "2030년 예상",
      "ref_note": ""
    },
    {
      "id": "singil5",
      "name": "신길5구역",
      "district": "영등포구",
      "dong": "신길동",
      "type": "재개발",
      "stage": "조합설립인가",
      "stage_idx": 1,
      "lat": 37.5144,
      "lng": 126.9089,
      "area_m2": 37000,
      "units": 840,
      "contractor": "",
      "stage_date": "2022-08",
      "notes": "신길뉴타운",
      "subway": "신풍역(7호선) 도보 9분",
      "hangang": false,
      "completion_est": "2032년 이후 예상",
      "ref_note": ""
    },
    {
      "id": "singil8",
      "name": "신길8구역",
      "district": "영등포구",
      "dong": "신길동",
      "type": "재개발",
      "stage": "구역지정",
      "stage_idx": 0,
      "lat": 37.513,
      "lng": 126.9068,
      "area_m2": 29000,
      "units": 620,
      "contractor": "",
      "stage_date": "2023-08",
      "notes": "신길뉴타운",
      "subway": "신길역(5호선) 도보 10분",
      "hangang": false,
      "completion_est": "2033년 이후 예상",
      "ref_note": ""
    },
    {
      "id": "bongcheon2",
      "name": "봉천2구역(관악드림타운)",
      "district": "관악구",
      "dong": "봉천동",
      "type": "재개발",
      "stage": "준공완료",
      "stage_idx": 5,
      "lat": 37.4851,
      "lng": 126.9398,
      "area_m2": 72000,
      "units": 2678,
      "contractor": "현대건설",
      "stage_date": "2015-12",
      "notes": "봉천뉴타운 완료",
      "subway": "봉천역(2호선) 도보 6분",
      "hangang": false,
      "completion_est": "완료(2015)",
      "ref_note": ""
    },
    {
      "id": "bongcheon3",
      "name": "봉천3구역",
      "district": "관악구",
      "dong": "봉천동",
      "type": "재개발",
      "stage": "이주/착공",
      "stage_idx": 4,
      "lat": 37.4837,
      "lng": 126.9378,
      "area_m2": 58000,
      "units": 1845,
      "contractor": "GS건설",
      "stage_date": "2024-01",
      "notes": "봉천뉴타운",
      "subway": "봉천역(2호선) 도보 7분",
      "hangang": false,
      "completion_est": "2027년 예상",
      "ref_note": ""
    },
    {
      "id": "bongcheon4",
      "name": "봉천4구역",
      "district": "관악구",
      "dong": "봉천동",
      "type": "재개발",
      "stage": "관리처분인가",
      "stage_idx": 3,
      "lat": 37.4822,
      "lng": 126.9362,
      "area_m2": 44000,
      "units": 1280,
      "contractor": "",
      "stage_date": "2024-04",
      "notes": "봉천뉴타운",
      "subway": "봉천역(2호선) 도보 9분",
      "hangang": false,
      "completion_est": "2029년 예상",
      "ref_note": ""
    },
    {
      "id": "bongcheon5",
      "name": "봉천5구역",
      "district": "관악구",
      "dong": "봉천동",
      "type": "재개발",
      "stage": "사업시행인가",
      "stage_idx": 2,
      "lat": 37.4807,
      "lng": 126.9346,
      "area_m2": 38000,
      "units": 980,
      "contractor": "",
      "stage_date": "2023-10",
      "notes": "봉천뉴타운",
      "subway": "서울대입구역(2호선) 도보 8분",
      "hangang": false,
      "completion_est": "2030년 예상",
      "ref_note": ""
    },
    {
      "id": "sillim1",
      "name": "신림1구역",
      "district": "관악구",
      "dong": "신림동",
      "type": "재개발",
      "stage": "사업시행인가",
      "stage_idx": 2,
      "lat": 37.4818,
      "lng": 126.9311,
      "area_m2": 41000,
      "units": 1120,
      "contractor": "",
      "stage_date": "2023-07",
      "notes": "신림뉴타운",
      "subway": "신림역(2호선) 도보 8분",
      "hangang": false,
      "completion_est": "2030년 예상",
      "ref_note": ""
    },
    {
      "id": "sillim2",
      "name": "신림2구역",
      "district": "관악구",
      "dong": "신림동",
      "type": "재개발",
      "stage": "조합설립인가",
      "stage_idx": 1,
      "lat": 37.4801,
      "lng": 126.9294,
      "area_m2": 35000,
      "units": 890,
      "contractor": "",
      "stage_date": "2022-11",
      "notes": "신림뉴타운",
      "subway": "신림역(2호선) 도보 10분",
      "hangang": false,
      "completion_est": "2032년 이후 예상",
      "ref_note": ""
    },
    {
      "id": "sillim3",
      "name": "신림3구역",
      "district": "관악구",
      "dong": "신림동",
      "type": "재개발",
      "stage": "구역지정",
      "stage_idx": 0,
      "lat": 37.4784,
      "lng": 126.9278,
      "area_m2": 28000,
      "units": 620,
      "contractor": "",
      "stage_date": "2023-06",
      "notes": "신림뉴타운",
      "subway": "난곡역(경전철) 예정",
      "hangang": false,
      "completion_est": "2033년 이후 예상",
      "ref_note": ""
    },
    {
      "id": "susaek1",
      "name": "수색1구역(DMC아트포레)",
      "district": "은평구",
      "dong": "수색동",
      "type": "재개발",
      "stage": "준공완료",
      "stage_idx": 5,
      "lat": 37.5818,
      "lng": 126.9048,
      "area_m2": 56000,
      "units": 1986,
      "contractor": "포스코건설",
      "stage_date": "2017-12",
      "notes": "수색증산뉴타운 완료",
      "subway": "수색역(경의중앙선) 도보 5분",
      "hangang": false,
      "completion_est": "완료(2017)",
      "ref_note": ""
    },
    {
      "id": "susaek2",
      "name": "수색2구역",
      "district": "은평구",
      "dong": "수색동",
      "type": "재개발",
      "stage": "이주/착공",
      "stage_idx": 4,
      "lat": 37.5806,
      "lng": 126.9031,
      "area_m2": 48000,
      "units": 1580,
      "contractor": "롯데건설",
      "stage_date": "2024-03",
      "notes": "수색증산뉴타운",
      "subway": "수색역(경의중앙선) 도보 6분",
      "hangang": false,
      "completion_est": "2027년 예상",
      "ref_note": ""
    },
    {
      "id": "susaek3",
      "name": "수색3구역",
      "district": "은평구",
      "dong": "수색동",
      "type": "재개발",
      "stage": "관리처분인가",
      "stage_idx": 3,
      "lat": 37.579,
      "lng": 126.9013,
      "area_m2": 42000,
      "units": 1340,
      "contractor": "",
      "stage_date": "2024-02",
      "notes": "수색증산뉴타운",
      "subway": "수색역(경의중앙선) 도보 8분",
      "hangang": false,
      "completion_est": "2029년 예상",
      "ref_note": ""
    },
    {
      "id": "jeungsan2",
      "name": "증산2구역",
      "district": "은평구",
      "dong": "증산동",
      "type": "재개발",
      "stage": "조합설립인가",
      "stage_idx": 1,
      "lat": 37.5852,
      "lng": 126.9099,
      "area_m2": 36000,
      "units": 890,
      "contractor": "",
      "stage_date": "2022-10",
      "notes": "수색증산뉴타운",
      "subway": "증산역(6호선) 도보 7분",
      "hangang": false,
      "completion_est": "2032년 이후 예상",
      "ref_note": ""
    },
    {
      "id": "jeungsan5",
      "name": "증산5구역",
      "district": "은평구",
      "dong": "증산동",
      "type": "재개발",
      "stage": "구역지정",
      "stage_idx": 0,
      "lat": 37.5865,
      "lng": 126.9122,
      "area_m2": 29000,
      "units": 640,
      "contractor": "",
      "stage_date": "2023-05",
      "notes": "수색증산뉴타운",
      "subway": "새절역(6호선) 도보 8분",
      "hangang": false,
      "completion_est": "2033년 이후 예상",
      "ref_note": ""
    },
    {
      "id": "wangsimni1",
      "name": "왕십리1구역(텐즈힐)",
      "district": "성동구",
      "dong": "하왕십리동",
      "type": "재개발",
      "stage": "준공완료",
      "stage_idx": 5,
      "lat": 37.5606,
      "lng": 127.0278,
      "area_m2": 78000,
      "units": 2678,
      "contractor": "GS건설",
      "stage_date": "2015-11",
      "notes": "왕십리뉴타운 완료 — 텐즈힐",
      "subway": "왕십리역(2·5호선) 도보 6분",
      "hangang": false,
      "completion_est": "완료(2015)",
      "ref_note": "전용84㎡ 14~17억"
    },
    {
      "id": "wangsimni3",
      "name": "왕십리3구역",
      "district": "성동구",
      "dong": "하왕십리동",
      "type": "재개발",
      "stage": "이주/착공",
      "stage_idx": 4,
      "lat": 37.5619,
      "lng": 127.0303,
      "area_m2": 52000,
      "units": 1660,
      "contractor": "현대건설",
      "stage_date": "2024-07",
      "notes": "왕십리뉴타운",
      "subway": "왕십리역(2·5호선) 도보 8분",
      "hangang": false,
      "completion_est": "2027년 예상",
      "ref_note": ""
    },
    {
      "id": "imun1",
      "name": "이문1구역",
      "district": "동대문구",
      "dong": "이문동",
      "type": "재개발",
      "stage": "사업시행인가",
      "stage_idx": 2,
      "lat": 37.5942,
      "lng": 127.0691,
      "area_m2": 148000,
      "units": 6536,
      "contractor": "HDC현대산업개발·GS건설",
      "stage_date": "2023-09",
      "notes": "이문·휘경뉴타운 최대 구역, 서울 단일 최대 재개발 중 하나",
      "subway": "외대앞역(1호선) 도보 8분",
      "hangang": false,
      "completion_est": "2030년 예상",
      "ref_note": "이문동 신축 전용84㎡ 12~14억 예상"
    },
    {
      "id": "imun3",
      "name": "이문3구역",
      "district": "동대문구",
      "dong": "이문동",
      "type": "재개발",
      "stage": "조합설립인가",
      "stage_idx": 1,
      "lat": 37.5961,
      "lng": 127.0712,
      "area_m2": 52000,
      "units": 1680,
      "contractor": "",
      "stage_date": "2022-06",
      "notes": "이문·휘경뉴타운",
      "subway": "외대앞역(1호선) 도보 10분",
      "hangang": false,
      "completion_est": "2032년 이후 예상",
      "ref_note": ""
    },
    {
      "id": "hwigyeong2",
      "name": "휘경2구역",
      "district": "동대문구",
      "dong": "휘경동",
      "type": "재개발",
      "stage": "조합설립인가",
      "stage_idx": 1,
      "lat": 37.5898,
      "lng": 127.0632,
      "area_m2": 44000,
      "units": 1280,
      "contractor": "",
      "stage_date": "2022-09",
      "notes": "이문·휘경뉴타운",
      "subway": "회기역(1·중앙선) 도보 6분",
      "hangang": false,
      "completion_est": "2032년 이후 예상",
      "ref_note": ""
    },
    {
      "id": "jeonong1",
      "name": "전농1구역(e편한세상청계)",
      "district": "동대문구",
      "dong": "전농동",
      "type": "재개발",
      "stage": "준공완료",
      "stage_idx": 5,
      "lat": 37.5728,
      "lng": 127.0589,
      "area_m2": 68000,
      "units": 2401,
      "contractor": "대우건설",
      "stage_date": "2019-06",
      "notes": "전농·답십리뉴타운 완료",
      "subway": "답십리역(5호선) 도보 7분",
      "hangang": false,
      "completion_est": "완료(2019)",
      "ref_note": "전용84㎡ 12~14억"
    },
    {
      "id": "dapsimni4",
      "name": "답십리4구역",
      "district": "동대문구",
      "dong": "답십리동",
      "type": "재개발",
      "stage": "이주/착공",
      "stage_idx": 4,
      "lat": 37.5711,
      "lng": 127.0601,
      "area_m2": 41000,
      "units": 1380,
      "contractor": "현대엔지니어링",
      "stage_date": "2024-02",
      "notes": "전농·답십리뉴타운",
      "subway": "답십리역(5호선) 도보 5분",
      "hangang": false,
      "completion_est": "2027년 예상",
      "ref_note": ""
    },
    {
      "id": "gileum2",
      "name": "길음2구역(두산위브)",
      "district": "성북구",
      "dong": "길음동",
      "type": "재개발",
      "stage": "준공완료",
      "stage_idx": 5,
      "lat": 37.6048,
      "lng": 127.0283,
      "area_m2": 62000,
      "units": 2352,
      "contractor": "두산건설",
      "stage_date": "2007-09",
      "notes": "길음뉴타운 완료",
      "subway": "길음역(4호선) 도보 8분",
      "hangang": false,
      "completion_est": "완료(2007)",
      "ref_note": "전용84㎡ 10~12억"
    },
    {
      "id": "gileum4",
      "name": "길음4구역(래미안길음센터피스)",
      "district": "성북구",
      "dong": "길음동",
      "type": "재개발",
      "stage": "준공완료",
      "stage_idx": 5,
      "lat": 37.6029,
      "lng": 127.0248,
      "area_m2": 74000,
      "units": 2352,
      "contractor": "삼성물산",
      "stage_date": "2007-05",
      "notes": "길음뉴타운 완료",
      "subway": "길음역(4호선) 도보 5분",
      "hangang": false,
      "completion_est": "완료(2007)",
      "ref_note": "전용84㎡ 11~13억"
    },
    {
      "id": "gileum8",
      "name": "길음8구역",
      "district": "성북구",
      "dong": "길음동",
      "type": "재개발",
      "stage": "조합설립인가",
      "stage_idx": 1,
      "lat": 37.6018,
      "lng": 127.0231,
      "area_m2": 38000,
      "units": 870,
      "contractor": "",
      "stage_date": "2023-03",
      "notes": "길음뉴타운 미완료 구역",
      "subway": "길음역(4호선) 도보 9분",
      "hangang": false,
      "completion_est": "2032년 이후 예상",
      "ref_note": ""
    },
    {
      "id": "eunma",
      "name": "은마아파트",
      "district": "강남구",
      "dong": "대치동",
      "type": "재건축",
      "stage": "조합설립인가",
      "stage_idx": 1,
      "lat": 37.5025,
      "lng": 127.0618,
      "area_m2": 113000,
      "units": 4424,
      "contractor": "",
      "stage_date": "2023-11",
      "notes": "강남 재건축 최대 관심 단지, 최고 35층 재건축 추진",
      "subway": "대치역(3호선) 도보 5분",
      "hangang": false,
      "completion_est": "2033년 이후 예상",
      "ref_note": "현 전용84㎡ 26~31억"
    },
    {
      "id": "cheongdam_samik",
      "name": "청담삼익",
      "district": "강남구",
      "dong": "청담동",
      "type": "재건축",
      "stage": "사업시행인가",
      "stage_idx": 2,
      "lat": 37.5218,
      "lng": 127.0481,
      "area_m2": 48000,
      "units": 1260,
      "contractor": "",
      "stage_date": "2023-07",
      "notes": "청담동 재건축",
      "subway": "청담역(7호선) 도보 7분",
      "hangang": true,
      "completion_est": "2030년 예상",
      "ref_note": "청담동 신축 전용84㎡ 40억+ 예상"
    },
    {
      "id": "daechi_ssamyong",
      "name": "대치쌍용1차",
      "district": "강남구",
      "dong": "대치동",
      "type": "재건축",
      "stage": "조합설립인가",
      "stage_idx": 1,
      "lat": 37.5038,
      "lng": 127.0567,
      "area_m2": 42000,
      "units": 1072,
      "contractor": "",
      "stage_date": "2022-12",
      "notes": "대치동 중형 재건축",
      "subway": "학여울역(3호선) 도보 8분",
      "hangang": false,
      "completion_est": "2033년 이후 예상",
      "ref_note": "대치동 전용84㎡ 28~33억"
    },
    {
      "id": "apgujeong3",
      "name": "압구정3구역",
      "district": "강남구",
      "dong": "압구정동",
      "type": "재건축",
      "stage": "조합설립인가",
      "stage_idx": 1,
      "lat": 37.5283,
      "lng": 127.0316,
      "area_m2": 97000,
      "units": 2690,
      "contractor": "",
      "stage_date": "2024-01",
      "notes": "현대아파트 일대 통합 재건축 추진",
      "subway": "압구정역(3호선) 도보 6분",
      "hangang": true,
      "completion_est": "2033년 이후 예상",
      "ref_note": "압구정 신축 전용84㎡ 50억+ 예상"
    },
    {
      "id": "apgujeong4",
      "name": "압구정4구역",
      "district": "강남구",
      "dong": "압구정동",
      "type": "재건축",
      "stage": "구역지정",
      "stage_idx": 0,
      "lat": 37.5296,
      "lng": 127.0336,
      "area_m2": 82000,
      "units": 1842,
      "contractor": "",
      "stage_date": "2023-09",
      "notes": "현대7~14차 재건축 추진",
      "subway": "압구정역(3호선) 도보 8분",
      "hangang": true,
      "completion_est": "2033년 이후 예상",
      "ref_note": ""
    },
    {
      "id": "jamsilju5",
      "name": "잠실주공5단지",
      "district": "송파구",
      "dong": "잠실동",
      "type": "재건축",
      "stage": "사업시행인가",
      "stage_idx": 2,
      "lat": 37.5133,
      "lng": 127.099,
      "area_m2": 143000,
      "units": 6864,
      "contractor": "",
      "stage_date": "2024-05",
      "notes": "잠실 재건축 최대 관심 단지, 50층 최고층 재건축 추진",
      "subway": "잠실역(2·8호선) 도보 6분",
      "hangang": true,
      "completion_est": "2033년 이후 예상",
      "ref_note": "현 전용76㎡ 22~26억"
    },
    {
      "id": "jamsil2",
      "name": "잠실2단지",
      "district": "송파구",
      "dong": "잠실동",
      "type": "재건축",
      "stage": "조합설립인가",
      "stage_idx": 1,
      "lat": 37.5152,
      "lng": 127.1008,
      "area_m2": 89000,
      "units": 2678,
      "contractor": "",
      "stage_date": "2023-03",
      "notes": "잠실 2단지 재건축",
      "subway": "잠실역(2·8호선) 도보 8분",
      "hangang": false,
      "completion_est": "2033년 이후 예상",
      "ref_note": ""
    },
    {
      "id": "macheon3",
      "name": "마천3구역",
      "district": "송파구",
      "dong": "마천동",
      "type": "재개발",
      "stage": "조합설립인가",
      "stage_idx": 1,
      "lat": 37.4937,
      "lng": 127.1262,
      "area_m2": 32000,
      "units": 680,
      "contractor": "",
      "stage_date": "2022-09",
      "notes": "마천동 노후 주거지",
      "subway": "마천역(5호선) 도보 8분",
      "hangang": false,
      "completion_est": "2032년 이후 예상",
      "ref_note": ""
    },
    {
      "id": "banpo",
      "name": "반포주공1단지(래미안원베일리)",
      "district": "서초구",
      "dong": "반포동",
      "type": "재건축",
      "stage": "준공완료",
      "stage_idx": 5,
      "lat": 37.5135,
      "lng": 126.997,
      "area_m2": 136000,
      "units": 2990,
      "contractor": "삼성물산",
      "stage_date": "2023-06",
      "notes": "반포 재건축 완료 — 래미안원베일리, 한강뷰 최고 단지",
      "subway": "고속터미널역(3·7·9호선) 도보 8분",
      "hangang": true,
      "completion_est": "완료(2023)",
      "ref_note": "전용84㎡ 50~60억"
    },
    {
      "id": "raemianprescur",
      "name": "반포래미안아이파크",
      "district": "서초구",
      "dong": "반포동",
      "type": "재건축",
      "stage": "준공완료",
      "stage_idx": 5,
      "lat": 37.5097,
      "lng": 126.9984,
      "area_m2": 84000,
      "units": 2444,
      "contractor": "삼성물산·HDC",
      "stage_date": "2020-11",
      "notes": "반포3주구 재건축 완료",
      "subway": "고속터미널역(3·7·9호선) 도보 5분",
      "hangang": true,
      "completion_est": "완료(2020)",
      "ref_note": "전용84㎡ 40~50억"
    },
    {
      "id": "bangbae6",
      "name": "방배6구역",
      "district": "서초구",
      "dong": "방배동",
      "type": "재개발",
      "stage": "조합설립인가",
      "stage_idx": 1,
      "lat": 37.4829,
      "lng": 126.9891,
      "area_m2": 32000,
      "units": 760,
      "contractor": "",
      "stage_date": "2022-08",
      "notes": "방배동 노후 저층 주거지",
      "subway": "이수역(4·7호선) 도보 9분",
      "hangang": false,
      "completion_est": "2032년 이후 예상",
      "ref_note": ""
    },
    {
      "id": "seocho",
      "name": "서초무지개아파트",
      "district": "서초구",
      "dong": "서초동",
      "type": "재건축",
      "stage": "조합설립인가",
      "stage_idx": 1,
      "lat": 37.4858,
      "lng": 127.0147,
      "area_m2": 52000,
      "units": 1200,
      "contractor": "",
      "stage_date": "2023-05",
      "notes": "서초동 재건축",
      "subway": "양재역(3호선) 도보 9분",
      "hangang": false,
      "completion_est": "2033년 이후 예상",
      "ref_note": ""
    },
    {
      "id": "mokdong1",
      "name": "목동신시가지1단지",
      "district": "양천구",
      "dong": "목동",
      "type": "재건축",
      "stage": "조합설립인가",
      "stage_idx": 1,
      "lat": 37.5291,
      "lng": 126.8759,
      "area_m2": 82000,
      "units": 2040,
      "contractor": "",
      "stage_date": "2023-09",
      "notes": "목동 신시가지 재건축 선도 단지",
      "subway": "목동역(5호선) 도보 7분",
      "hangang": false,
      "completion_est": "2033년 이후 예상",
      "ref_note": "목동 전용84㎡ 18~22억"
    },
    {
      "id": "mokdong6",
      "name": "목동신시가지6단지",
      "district": "양천구",
      "dong": "목동",
      "type": "재건축",
      "stage": "구역지정",
      "stage_idx": 0,
      "lat": 37.5271,
      "lng": 126.8768,
      "area_m2": 91000,
      "units": 2550,
      "contractor": "",
      "stage_date": "2023-11",
      "notes": "목동 대단지 재건축",
      "subway": "오목교역(5호선) 도보 8분",
      "hangang": false,
      "completion_est": "2033년 이후 예상",
      "ref_note": ""
    },
    {
      "id": "mokdong7",
      "name": "목동신시가지7단지",
      "district": "양천구",
      "dong": "목동",
      "type": "재건축",
      "stage": "구역지정",
      "stage_idx": 0,
      "lat": 37.5248,
      "lng": 126.8752,
      "area_m2": 96000,
      "units": 2550,
      "contractor": "",
      "stage_date": "2024-01",
      "notes": "목동 최대 단지 재건축",
      "subway": "오목교역(5호선) 도보 5분",
      "hangang": false,
      "completion_est": "2033년 이후 예상",
      "ref_note": ""
    },
    {
      "id": "hwagok1",
      "name": "화곡1구역",
      "district": "강서구",
      "dong": "화곡동",
      "type": "재개발",
      "stage": "사업시행인가",
      "stage_idx": 2,
      "lat": 37.5478,
      "lng": 126.8558,
      "area_m2": 52000,
      "units": 1380,
      "contractor": "",
      "stage_date": "2023-04",
      "notes": "화곡뉴타운",
      "subway": "화곡역(5호선) 도보 5분",
      "hangang": false,
      "completion_est": "2030년 예상",
      "ref_note": ""
    },
    {
      "id": "hwagok2",
      "name": "화곡2구역",
      "district": "강서구",
      "dong": "화곡동",
      "type": "재개발",
      "stage": "조합설립인가",
      "stage_idx": 1,
      "lat": 37.5491,
      "lng": 126.8538,
      "area_m2": 44000,
      "units": 1080,
      "contractor": "",
      "stage_date": "2022-06",
      "notes": "화곡뉴타운",
      "subway": "화곡역(5호선) 도보 7분",
      "hangang": false,
      "completion_est": "2032년 이후 예상",
      "ref_note": ""
    },
    {
      "id": "bugahyeon1",
      "name": "북아현1구역",
      "district": "서대문구",
      "dong": "북아현동",
      "type": "재개발",
      "stage": "사업시행인가",
      "stage_idx": 2,
      "lat": 37.5562,
      "lng": 126.9471,
      "area_m2": 56000,
      "units": 2100,
      "contractor": "롯데건설",
      "stage_date": "2023-02",
      "notes": "북아현뉴타운 핵심 구역",
      "subway": "충정로역(2·5호선) 도보 8분",
      "hangang": false,
      "completion_est": "2030년 예상",
      "ref_note": ""
    },
    {
      "id": "namgajwa1",
      "name": "남가좌1구역",
      "district": "서대문구",
      "dong": "남가좌동",
      "type": "재개발",
      "stage": "사업시행인가",
      "stage_idx": 2,
      "lat": 37.5762,
      "lng": 126.9292,
      "area_m2": 47000,
      "units": 1290,
      "contractor": "",
      "stage_date": "2023-06",
      "notes": "가좌뉴타운",
      "subway": "가좌역(경의중앙선) 도보 7분",
      "hangang": false,
      "completion_est": "2030년 예상",
      "ref_note": ""
    },
    {
      "id": "namgajwa2",
      "name": "남가좌2구역",
      "district": "서대문구",
      "dong": "남가좌동",
      "type": "재개발",
      "stage": "조합설립인가",
      "stage_idx": 1,
      "lat": 37.5776,
      "lng": 126.9308,
      "area_m2": 38000,
      "units": 920,
      "contractor": "",
      "stage_date": "2022-09",
      "notes": "가좌뉴타운",
      "subway": "가좌역(경의중앙선) 도보 9분",
      "hangang": false,
      "completion_est": "2032년 이후 예상",
      "ref_note": ""
    },
    {
      "id": "dobong2",
      "name": "도봉2구역",
      "district": "도봉구",
      "dong": "도봉동",
      "type": "재개발",
      "stage": "조합설립인가",
      "stage_idx": 1,
      "lat": 37.6619,
      "lng": 127.0371,
      "area_m2": 38000,
      "units": 790,
      "contractor": "",
      "stage_date": "2022-10",
      "notes": "도봉동 노후 주거지 재개발",
      "subway": "도봉역(1호선) 도보 6분",
      "hangang": false,
      "completion_est": "2032년 이후 예상",
      "ref_note": ""
    },
    {
      "id": "changdong14",
      "name": "창동주공14단지",
      "district": "도봉구",
      "dong": "창동",
      "type": "재건축",
      "stage": "조합설립인가",
      "stage_idx": 1,
      "lat": 37.6541,
      "lng": 127.0479,
      "area_m2": 68000,
      "units": 1750,
      "contractor": "",
      "stage_date": "2023-04",
      "notes": "창동 재건축",
      "subway": "창동역(1·4호선) 도보 6분",
      "hangang": false,
      "completion_est": "2033년 이후 예상",
      "ref_note": ""
    },
    {
      "id": "junghwa2",
      "name": "중화2구역",
      "district": "중랑구",
      "dong": "중화동",
      "type": "재개발",
      "stage": "구역지정",
      "stage_idx": 0,
      "lat": 37.5972,
      "lng": 127.0849,
      "area_m2": 34000,
      "units": 620,
      "contractor": "",
      "stage_date": "2023-07",
      "notes": "중화뉴타운",
      "subway": "중화역(7호선) 도보 8분",
      "hangang": false,
      "completion_est": "2033년 이후 예상",
      "ref_note": ""
    },
    {
      "id": "myeongmok3",
      "name": "면목3구역",
      "district": "중랑구",
      "dong": "면목동",
      "type": "재개발",
      "stage": "구역지정",
      "stage_idx": 0,
      "lat": 37.5879,
      "lng": 127.0798,
      "area_m2": 29000,
      "units": 540,
      "contractor": "",
      "stage_date": "2023-04",
      "notes": "면목뉴타운",
      "subway": "사가정역(7호선) 도보 8분",
      "hangang": false,
      "completion_est": "2033년 이후 예상",
      "ref_note": ""
    },
    {
      "id": "sindang10",
      "name": "신당10구역",
      "district": "중구",
      "dong": "신당동",
      "type": "재개발",
      "stage": "구역지정",
      "stage_idx": 0,
      "lat": 37.5641,
      "lng": 127.0183,
      "area_m2": 22000,
      "units": 420,
      "contractor": "",
      "stage_date": "2023-08",
      "notes": "신당동 노후 주거지",
      "subway": "신당역(2·6호선) 도보 8분",
      "hangang": false,
      "completion_est": "2033년 이후 예상",
      "ref_note": ""
    },
    {
      "id": "changshin3",
      "name": "창신3구역",
      "district": "종로구",
      "dong": "창신동",
      "type": "재개발",
      "stage": "준비위결성",
      "stage_idx": -1,
      "lat": 37.5795,
      "lng": 127.0162,
      "area_m2": 27000,
      "units": 510,
      "contractor": "",
      "stage_date": "2025-03",
      "notes": "창신·숭인 재개발, 신통기획 추진 중",
      "subway": "창신역(6호선) 도보 5분",
      "hangang": false,
      "completion_est": "미정",
      "ref_note": ""
    },
    {
      "id": "sanggye1",
      "name": "상계1구역",
      "district": "노원구",
      "dong": "상계동",
      "type": "재개발",
      "stage": "구역지정",
      "stage_idx": 0,
      "lat": 37.6548,
      "lng": 127.0572,
      "area_m2": 28000,
      "units": 580,
      "contractor": "",
      "stage_date": "2023-04",
      "notes": "상계뉴타운",
      "subway": "노원역(4·7호선) 도보 12분",
      "hangang": false,
      "completion_est": "2033년 이후 예상",
      "ref_note": ""
    },
    {
      "id": "sanggye2",
      "name": "상계2구역",
      "district": "노원구",
      "dong": "상계동",
      "type": "재개발",
      "stage": "조합설립인가",
      "stage_idx": 1,
      "lat": 37.6561,
      "lng": 127.0582,
      "area_m2": 39000,
      "units": 820,
      "contractor": "",
      "stage_date": "2022-06",
      "notes": "상계뉴타운",
      "subway": "노원역(4·7호선) 도보 10분",
      "hangang": false,
      "completion_est": "2032년 이후 예상",
      "ref_note": ""
    },
    {
      "id": "sanggye4",
      "name": "상계4구역",
      "district": "노원구",
      "dong": "상계동",
      "type": "재개발",
      "stage": "사업시행인가",
      "stage_idx": 2,
      "lat": 37.6574,
      "lng": 127.0595,
      "area_m2": 46000,
      "units": 1080,
      "contractor": "",
      "stage_date": "2023-07",
      "notes": "상계뉴타운",
      "subway": "상계역(4호선) 도보 8분",
      "hangang": false,
      "completion_est": "2030년 예상",
      "ref_note": ""
    },
    {
      "id": "sanggye5",
      "name": "상계5구역",
      "district": "노원구",
      "dong": "상계동",
      "type": "재개발",
      "stage": "관리처분인가",
      "stage_idx": 3,
      "lat": 37.6588,
      "lng": 127.0607,
      "area_m2": 52000,
      "units": 1320,
      "contractor": "대림산업",
      "stage_date": "2024-01",
      "notes": "상계뉴타운",
      "subway": "상계역(4호선) 도보 6분",
      "hangang": false,
      "completion_est": "2028년 예상",
      "ref_note": ""
    },
    {
      "id": "sanggye7",
      "name": "상계7구역",
      "district": "노원구",
      "dong": "상계동",
      "type": "재개발",
      "stage": "조합설립인가",
      "stage_idx": 1,
      "lat": 37.6601,
      "lng": 127.0621,
      "area_m2": 34000,
      "units": 720,
      "contractor": "",
      "stage_date": "2022-10",
      "notes": "상계뉴타운",
      "subway": "상계역(4호선) 도보 9분",
      "hangang": false,
      "completion_est": "2032년 이후 예상",
      "ref_note": ""
    },
    {
      "id": "sanggye8",
      "name": "상계8구역",
      "district": "노원구",
      "dong": "상계동",
      "type": "재개발",
      "stage": "구역지정",
      "stage_idx": 0,
      "lat": 37.6615,
      "lng": 127.0635,
      "area_m2": 29000,
      "units": 610,
      "contractor": "",
      "stage_date": "2023-09",
      "notes": "상계뉴타운",
      "subway": "마들역(7호선) 도보 8분",
      "hangang": false,
      "completion_est": "2033년 이후 예상",
      "ref_note": ""
    },
    {
      "id": "junggye",
      "name": "중계본동재개발",
      "district": "노원구",
      "dong": "중계동",
      "type": "재개발",
      "stage": "구역지정",
      "stage_idx": 0,
      "lat": 37.6429,
      "lng": 127.0749,
      "area_m2": 41000,
      "units": 890,
      "contractor": "",
      "stage_date": "2023-06",
      "notes": "중계뉴타운 후보지",
      "subway": "하계역(7호선) 도보 9분",
      "hangang": false,
      "completion_est": "2033년 이후 예상",
      "ref_note": ""
    },
    {
      "id": "beon1",
      "name": "번동1구역",
      "district": "강북구",
      "dong": "번동",
      "type": "재개발",
      "stage": "조합설립인가",
      "stage_idx": 1,
      "lat": 37.6449,
      "lng": 127.0318,
      "area_m2": 38000,
      "units": 820,
      "contractor": "",
      "stage_date": "2022-08",
      "notes": "번동뉴타운",
      "subway": "수유역(4호선) 도보 9분",
      "hangang": false,
      "completion_est": "2032년 이후 예상",
      "ref_note": ""
    },
    {
      "id": "beon2",
      "name": "번동2구역",
      "district": "강북구",
      "dong": "번동",
      "type": "재개발",
      "stage": "구역지정",
      "stage_idx": 0,
      "lat": 37.6462,
      "lng": 127.0334,
      "area_m2": 31000,
      "units": 660,
      "contractor": "",
      "stage_date": "2023-05",
      "notes": "번동뉴타운",
      "subway": "수유역(4호선) 도보 11분",
      "hangang": false,
      "completion_est": "2033년 이후 예상",
      "ref_note": ""
    },
    {
      "id": "suyu3",
      "name": "수유3구역",
      "district": "강북구",
      "dong": "수유동",
      "type": "재개발",
      "stage": "사업시행인가",
      "stage_idx": 2,
      "lat": 37.6501,
      "lng": 127.0259,
      "area_m2": 44000,
      "units": 1080,
      "contractor": "",
      "stage_date": "2023-03",
      "notes": "수유뉴타운",
      "subway": "수유역(4호선) 도보 7분",
      "hangang": false,
      "completion_est": "2030년 예상",
      "ref_note": ""
    },
    {
      "id": "gajwa1",
      "name": "가좌1구역",
      "district": "서대문구",
      "dong": "남가좌동",
      "type": "재개발",
      "stage": "관리처분인가",
      "stage_idx": 3,
      "lat": 37.5748,
      "lng": 126.9274,
      "area_m2": 51000,
      "units": 1351,
      "contractor": "현대건설",
      "stage_date": "2023-10",
      "notes": "가좌뉴타운",
      "subway": "가좌역(경의중앙선) 도보 5분",
      "hangang": false,
      "completion_est": "2028년 예상",
      "ref_note": ""
    },
    {
      "id": "gajwa2",
      "name": "가좌2구역",
      "district": "서대문구",
      "dong": "남가좌동",
      "type": "재개발",
      "stage": "사업시행인가",
      "stage_idx": 2,
      "lat": 37.5761,
      "lng": 126.9258,
      "area_m2": 43000,
      "units": 1090,
      "contractor": "",
      "stage_date": "2023-07",
      "notes": "가좌뉴타운",
      "subway": "가좌역(경의중앙선) 도보 7분",
      "hangang": false,
      "completion_est": "2030년 예상",
      "ref_note": ""
    },
    {
      "id": "mokdong2",
      "name": "목동신시가지2단지",
      "district": "양천구",
      "dong": "목동",
      "type": "재건축",
      "stage": "구역지정",
      "stage_idx": 0,
      "lat": 37.5311,
      "lng": 126.8778,
      "area_m2": 88000,
      "units": 2400,
      "contractor": "",
      "stage_date": "2024-02",
      "notes": "목동 신시가지 재건축",
      "subway": "오목교역(5호선) 도보 9분",
      "hangang": false,
      "completion_est": "2033년 이후 예상",
      "ref_note": "목동 전용84㎡ 18~22억"
    },
    {
      "id": "mokdong3",
      "name": "목동신시가지3단지",
      "district": "양천구",
      "dong": "목동",
      "type": "재건축",
      "stage": "구역지정",
      "stage_idx": 0,
      "lat": 37.5328,
      "lng": 126.8791,
      "area_m2": 79000,
      "units": 2160,
      "contractor": "",
      "stage_date": "2024-02",
      "notes": "목동 신시가지 재건축",
      "subway": "오목교역(5호선) 도보 7분",
      "hangang": false,
      "completion_est": "2033년 이후 예상",
      "ref_note": ""
    },
    {
      "id": "mokdong4",
      "name": "목동신시가지4단지",
      "district": "양천구",
      "dong": "목동",
      "type": "재건축",
      "stage": "구역지정",
      "stage_idx": 0,
      "lat": 37.5341,
      "lng": 126.8805,
      "area_m2": 85000,
      "units": 2280,
      "contractor": "",
      "stage_date": "2024-03",
      "notes": "목동 신시가지 재건축",
      "subway": "목동역(5호선) 도보 6분",
      "hangang": false,
      "completion_est": "2033년 이후 예상",
      "ref_note": ""
    },
    {
      "id": "mokdong5",
      "name": "목동신시가지5단지",
      "district": "양천구",
      "dong": "목동",
      "type": "재건축",
      "stage": "구역지정",
      "stage_idx": 0,
      "lat": 37.5318,
      "lng": 126.8818,
      "area_m2": 92000,
      "units": 2640,
      "contractor": "",
      "stage_date": "2024-03",
      "notes": "목동 신시가지 최대 단지",
      "subway": "목동역(5호선) 도보 5분",
      "hangang": false,
      "completion_est": "2033년 이후 예상",
      "ref_note": ""
    },
    {
      "id": "sinjeong2",
      "name": "신정2구역",
      "district": "양천구",
      "dong": "신정동",
      "type": "재개발",
      "stage": "조합설립인가",
      "stage_idx": 1,
      "lat": 37.5328,
      "lng": 126.8658,
      "area_m2": 38000,
      "units": 780,
      "contractor": "",
      "stage_date": "2022-11",
      "notes": "신정뉴타운",
      "subway": "신정네거리역(2호선) 도보 8분",
      "hangang": false,
      "completion_est": "2032년 이후 예상",
      "ref_note": ""
    },
    {
      "id": "hwayangpre",
      "name": "화양동 신통기획",
      "district": "광진구",
      "dong": "화양동",
      "type": "재개발",
      "stage": "준비위결성",
      "stage_idx": -1,
      "lat": 37.5438,
      "lng": 127.0698,
      "area_m2": 36000,
      "units": 720,
      "contractor": "",
      "stage_date": "2025-04",
      "notes": "광진구 신통기획 후보지",
      "subway": "건대입구역(2·7호선) 도보 6분",
      "hangang": false,
      "completion_est": "미정",
      "ref_note": ""
    },
    {
      "id": "neungdong",
      "name": "능동 재개발",
      "district": "광진구",
      "dong": "능동",
      "type": "재개발",
      "stage": "구역지정",
      "stage_idx": 0,
      "lat": 37.5481,
      "lng": 127.0872,
      "area_m2": 32000,
      "units": 620,
      "contractor": "",
      "stage_date": "2023-08",
      "notes": "광진구 능동 노후 주거지",
      "subway": "능동역(5호선 예정)",
      "hangang": false,
      "completion_est": "2033년 이후 예상",
      "ref_note": ""
    },
    {
      "id": "imun2",
      "name": "이문2구역",
      "district": "동대문구",
      "dong": "이문동",
      "type": "재개발",
      "stage": "사업시행인가",
      "stage_idx": 2,
      "lat": 37.5952,
      "lng": 127.0701,
      "area_m2": 38000,
      "units": 980,
      "contractor": "",
      "stage_date": "2023-05",
      "notes": "이문·휘경뉴타운",
      "subway": "외대앞역(1호선) 도보 9분",
      "hangang": false,
      "completion_est": "2030년 예상",
      "ref_note": ""
    },
    {
      "id": "hwigyeong1",
      "name": "휘경1구역",
      "district": "동대문구",
      "dong": "휘경동",
      "type": "재개발",
      "stage": "관리처분인가",
      "stage_idx": 3,
      "lat": 37.5887,
      "lng": 127.0619,
      "area_m2": 42000,
      "units": 1240,
      "contractor": "GS건설",
      "stage_date": "2024-02",
      "notes": "이문·휘경뉴타운",
      "subway": "회기역(1·중앙선) 도보 4분",
      "hangang": false,
      "completion_est": "2028년 예상",
      "ref_note": ""
    },
    {
      "id": "jeonong2",
      "name": "전농2구역",
      "district": "동대문구",
      "dong": "전농동",
      "type": "재개발",
      "stage": "이주/착공",
      "stage_idx": 4,
      "lat": 37.5739,
      "lng": 127.0601,
      "area_m2": 35000,
      "units": 1020,
      "contractor": "롯데건설",
      "stage_date": "2024-01",
      "notes": "전농·답십리뉴타운",
      "subway": "답십리역(5호선) 도보 9분",
      "hangang": false,
      "completion_est": "2027년 예상",
      "ref_note": ""
    },