{
  "updated_at": "2026-07-04",
  "source": "seoul_open_api",
  "note": "서울시 열린데이터광장 실데이터 — 756개 구역 (2026-07-04 갱신)",
  "projects": [
    {
      "id": "api_24",
      "name": "전농7재정비촉진구역 ",
      "district": "동대문구",
      "dong": "",
      "type": "재개발",
      "stage": "의제처리구역",
      "stage_idx": 0,
      "lat": 37.57333851850455,
      "lng": 127.03121065783573,
      "area_m2": 151792,
      "units": 0,
      "contractor": "",
      "stage_date": "",
      "notes": "",
      "subway": "",
      "hangang": false,
      "completion_est": "",
      "ref_note": ""
    },
    {
      "id": "api_25",
      "name": "공덕 제6주택재개발정비사업",
      "district": "마포구",
      "dong": "",
      "type": "재개발",
      "stage": "의제처리구역",
      "stage_idx": 0,
      "lat": 37.5594474308395,
      "lng": 126.91276482428249,
      "area_m2": 11326,
      "units": 0,
      "contractor": "",
      "stage_date": "",
      "notes": "",
      "subway": "",
      "hangang": false,
      "completion_est": "",
      "ref_note": ""
    },
    {
      "id": "api_26",
      "name": "사당3재건축정비사업",
      "district": "동작구",
      "dong": "",
      "type": "재개발",
      "stage": "의제처리구역",
      "stage_idx": 0,
      "lat": 37.51907709149834,
      "lng": 126.94315048822912,
      "area_m2": 30221,
      "units": 0,
      "contractor": "",
      "stage_date": "",
      "notes": "",
      "subway": "",
      "hangang": false,
      "completion_est": "",
      "ref_note": ""
    },
    {
      "id": "api_27",
      "name": "긴등마을 재정비촉진구역",
      "district": "강서구",
      "dong": "",
      "type": "재개발",
      "stage": "의제처리구역",
      "stage_idx": 0,
      "lat": 37.5494156347767,
      "lng": 126.84039832262657,
      "area_m2": 31668,
      "units": 0,
      "contractor": "",
      "stage_date": "",
      "notes": "",
      "subway": "",
      "hangang": false,
      "completion_est": "",
      "ref_note": ""
    },
    {
      "id": "api_29",
      "name": "신용산역 북측 제1구역 도시정비형 재개발구역",
      "district": "용산구",
      "dong": "",
      "type": "재개발",
      "stage": "의제처리구역",
      "stage_idx": 0,
      "lat": 37.531382382698304,
      "lng": 126.97611602390558,
      "area_m2": 14057,
      "units": 0,
      "contractor": "",
      "stage_date": "",
      "notes": "",
      "subway": "",
      "hangang": false,
      "completion_est": "",
      "ref_note": ""
    },
    {
      "id": "api_30",
      "name": "신설 제1 주택정비형 공공재개발사업 ",
      "district": "동대문구",
      "dong": "",
      "type": "재개발",
      "stage": "의제처리구역",
      "stage_idx": 0,
      "lat": 37.56686107520275,
      "lng": 127.04546084957433,
      "area_m2": 11204,
      "units": 0,
      "contractor": "",
      "stage_date": "",
      "notes": "",
      "subway": "",
      "hangang": false,
      "completion_est": "",
      "ref_note": ""
    },
    {
      "id": "api_31",
      "name": "양동구역 제11.12지구",
      "district": "중구",
      "dong": "",
      "type": "재개발",
      "stage": "의제처리구역",
      "stage_idx": 0,
      "lat": 37.57151926682078,
      "lng": 127.00375093939238,
      "area_m2": 3565,
      "units": 0,
      "contractor": "",
      "stage_date": "",
      "notes": "",
      "subway": "",
      "hangang": false,
      "completion_est": "",
      "ref_note": ""
    },
    {
      "id": "api_32",
      "name": "신당 제8구역 주택재개발정비사업",
      "district": "중구",
      "dong": "",
      "type": "재개발",
      "stage": "의제처리구역",
      "stage_idx": 0,
      "lat": 37.55630253236718,
      "lng": 126.98964777210263,
      "area_m2": 58439,
      "units": 0,
      "contractor": "",
      "stage_date": "",
      "notes": "",
      "subway": "",
      "hangang": false,
      "completion_est": "",
      "ref_note": ""
    },
    {
      "id": "api_33",
      "name": "장위6구역 ",
      "district": "성북구",
      "dong": "",
      "type": "재개발",
      "stage": "의제처리구역",
      "stage_idx": 0,
      "lat": 37.59641075751169,
      "lng": 127.01931227710683,
      "area_m2": 105163,
      "units": 0,
      "contractor": "",
      "stage_date": "",
      "notes": "",
      "subway": "",
      "hangang": false,
      "completion_est": "",
      "ref_note": ""
    },
    {
      "id": "api_34",
      "name": "한남4 재정비촉진구역 ",
      "district": "용산구",
      "dong": "",
      "type": "재개발",
      "stage": "의제처리구역",
      "stage_idx": 0,
      "lat": 37.52301412777012,
      "lng": 126.97472339979711,
      "area_m2": 162163,
      "units": 0,
      "contractor": "",
      "stage_date": "",
      "notes": "",
      "subway": "",
      "hangang": false,
      "completion_est": "",
      "ref_note": ""
    },
    {
      "id": "api_35",
      "name": "마포로5 도시정비형 재개발구역",
      "district": "중구",
      "dong": "",
      "type": "재개발",
      "stage": "의제처리구역",
      "stage_idx": 0,
      "lat": 37.55434344519059,
      "lng": 126.99867409447305,
      "area_m2": 61730,
      "units": 0,
      "contractor": "",
      "stage_date": "",
      "notes": "",
      "subway": "",
      "hangang": false,
      "completion_est": "",
      "ref_note": ""
    },
    {
      "id": "api_36",
      "name": "마포로5 도시정비형 재개발구역 제9-1지구",
      "district": "중구",
      "dong": "",
      "type": "재개발",
      "stage": "의제처리구역",
      "stage_idx": 0,
      "lat": 37.56181256663189,
      "lng": 126.99372457931587,
      "area_m2": 1938,
      "units": 0,
      "contractor": "",
      "stage_date": "",
      "notes": "",
      "subway": "",
      "hangang": false,
      "completion_est": "",
      "ref_note": ""
    },
    {
      "id": "api_37",
      "name": "금호 제14-1 주택재개발 정비사업",
      "district": "성동구",
      "dong": "",
      "type": "재개발",
      "stage": "의제처리구역",
      "stage_idx": 0,
      "lat": 37.557423201803225,
      "lng": 127.04513578945594,
      "area_m2": 5127,
      "units": 0,
      "contractor": "",
      "stage_date": "",
      "notes": "",
      "subway": "",
      "hangang": false,
      "completion_est": "",
      "ref_note": ""
    },
    {
      "id": "api_38",
      "name": "은마아파트 재건축 정비구역 ",
      "district": "강남구",
      "dong": "",
      "type": "재개발",
      "stage": "의제처리구역",
      "stage_idx": 0,
      "lat": 37.511592213591406,
      "lng": 127.05490834742429,
      "area_m2": 0,
      "units": 0,
      "contractor": "",
      "stage_date": "",
      "notes": "",
      "subway": "",
      "hangang": false,
      "completion_est": "",
      "ref_note": ""
    },
    {
      "id": "api_39",
      "name": "양평제12 도시환경정비구역",
      "district": "영등포구",
      "dong": "",
      "type": "재개발",
      "stage": "의제처리구역",
      "stage_idx": 0,
      "lat": 37.51863291801305,
      "lng": 126.89059065924182,
      "area_m2": 37561,
      "units": 0,
      "contractor": "",
      "stage_date": "",
      "notes": "",
      "subway": "",
      "hangang": false,
      "completion_est": "",
      "ref_note": ""
    },
    {
      "id": "api_42",
      "name": "면목4 주택재건축정비구역",
      "district": "중랑구",
      "dong": "",
      "type": "재개발",
      "stage": "의제처리구역",
      "stage_idx": 0,
      "lat": 37.61624235950943,
      "lng": 127.08950593675581,
      "area_m2": 14918,
      "units": 0,
      "contractor": "",
      "stage_date": "",
      "notes": "",
      "subway": "",
      "hangang": false,
      "completion_est": "",
      "ref_note": ""
    },
    {
      "id": "api_43",
      "name": "개포주공4단지 주택재건축정비사업",
      "district": "강남구",
      "dong": "",
      "type": "재개발",
      "stage": "의제처리구역",
      "stage_idx": 0,
      "lat": 37.51589582833678,
      "lng": 127.05460528089398,
      "area_m2": 179794,
      "units": 0,
      "contractor": "",
      "stage_date": "",
      "notes": "",
      "subway": "",
      "hangang": false,
      "completion_est": "",
      "ref_note": ""
    },
    {
      "id": "api_44",
      "name": "잠실우성4차아파트 주택재건축 정비구역",
      "district": "송파구",
      "dong": "",
      "type": "재개발",
      "stage": "의제처리구역",
      "stage_idx": 0,
      "lat": 37.51833027080246,
      "lng": 127.10518274417615,
      "area_m2": 31961,
      "units": 0,
      "contractor": "",
      "stage_date": "",
      "notes": "",
      "subway": "",
      "hangang": false,
      "completion_est": "",
      "ref_note": ""
    },
    {
      "id": "api_45",
      "name": "홍은제1 주택재건축 정비사업",
      "district": "서대문구",
      "dong": "",
      "type": "재개발",
      "stage": "의제처리구역",
      "stage_idx": 0,
      "lat": 37.5891136334024,
      "lng": 126.93108827940337,
      "area_m2": 19070,
      "units": 0,
      "contractor": "",
      "stage_date": "",
      "notes": "",
      "subway": "",
      "hangang": false,
      "completion_est": "",
      "ref_note": ""
    },
    {
      "id": "api_47",
      "name": "홍은 제2주택재건축 정비구역",
      "district": "서대문구",
      "dong": "",
      "type": "재개발",
      "stage": "의제처리구역",
      "stage_idx": 0,
      "lat": 37.57803119517054,
      "lng": 126.92841578732803,
      "area_m2": 33199,
      "units": 0,
      "contractor": "",
      "stage_date": "",
      "notes": "",
      "subway": "",
      "hangang": false,
      "completion_est": "",
      "ref_note": ""
    },
    {
      "id": "api_48",
      "name": "용두제6구역 주택재개발정비사업",
      "district": "동대문구",
      "dong": "",
      "type": "재개발",
      "stage": "의제처리구역",
      "stage_idx": 0,
      "lat": 37.58025558816176,
      "lng": 127.0458080764013,
      "area_m2": 53370,
      "units": 0,
      "contractor": "",
      "stage_date": "",
      "notes": "",
      "subway": "",
      "hangang": false,
      "completion_est": "",
      "ref_note": ""
    },
    {
      "id": "api_49",
      "name": "중화동 우성타운 재건축정비구역 ",
      "district": "중랑구",
      "dong": "",
      "type": "재개발",
      "stage": "의제처리구역",
      "stage_idx": 0,
      "lat": 37.600748380768515,
      "lng": 127.09166634504467,
      "area_m2": 0,
      "units": 0,
      "contractor": "",
      "stage_date": "",
      "notes": "",
      "subway": "",
      "hangang": false,
      "completion_est": "",
      "ref_note": ""
    },
    {
      "id": "api_50",
      "name": "사당3 재건축정비사업",
      "district": "동작구",
      "dong": "",
      "type": "재개발",
      "stage": "의제처리구역",
      "stage_idx": 0,
      "lat": 37.521297563560964,
      "lng": 126.93484839338413,
      "area_m2": 30061,
      "units": 0,
      "contractor": "",
      "stage_date": "",
      "notes": "",
      "subway": "",
      "hangang": false,
      "completion_est": "",
      "ref_note": ""
    },
    {
      "id": "api_51",
      "name": "증산2재정비촉진구역",
      "district": "은평구",
      "dong": "",
      "type": "재개발",
      "stage": "의제처리구역",
      "stage_idx": 0,
      "lat": 37.612042208541844,
      "lng": 126.92011195502253,
      "area_m2": 78755,
      "units": 0,
      "contractor": "",
      "stage_date": "",
      "notes": "",
      "subway": "",
      "hangang": false,
      "completion_est": "",
      "ref_note": ""
    },
    {
      "id": "api_52",
      "name": "수색7재정비촉진구역 ",
      "district": "은평구",
      "dong": "",
      "type": "재개발",
      "stage": "의제처리구역",
      "stage_idx": 0,
      "lat": 37.59281447411336,
      "lng": 126.92165189939313,
      "area_m2": 31402,
      "units": 0,
      "contractor": "",
      "stage_date": "",
      "notes": "",
      "subway": "",
      "hangang": false,
      "completion_est": "",
      "ref_note": ""
    },
    {
      "id": "api_53",
      "name": "수색13 주택재개발사업 ",
      "district": "은평구",
      "dong": "",
      "type": "재개발",
      "stage": "의제처리구역",
      "stage_idx": 0,
      "lat": 37.609114112813955,
      "lng": 126.92445780362202,
      "area_m2": 69681,
      "units": 0,
      "contractor": "",
      "stage_date": "",
      "notes": "",
      "subway": "",
      "hangang": false,
      "completion_est": "",
      "ref_note": ""
    },
    {
      "id": "api_54",
      "name": "역삼동 758번지일대 주택재건축정비사업",
      "district": "강남구",
      "dong": "",
      "type": "재개발",
      "stage": "의제처리구역",
      "stage_idx": 0,
      "lat": 37.52221664720257,
      "lng": 127.05662744372428,
      "area_m2": 12263,
      "units": 0,
      "contractor": "",
      "stage_date": "",
      "notes": "",
      "subway": "",
      "hangang": false,
      "completion_est": "",
      "ref_note": ""
    },
    {
      "id": "api_55",
      "name": "수색9 재정비촉진구역 주택재개발사업 ",
      "district": "은평구",
      "dong": "",
      "type": "재개발",
      "stage": "의제처리구역",
      "stage_idx": 0,
      "lat": 37.60518746763969,
      "lng": 126.93814802238256,
      "area_m2": 36348,
      "units": 0,
      "contractor": "",
      "stage_date": "",
      "notes": "",
      "subway": "",
      "hangang": false,
      "completion_est": "",
      "ref_note": ""
    },
    {
      "id": "api_56",
      "name": "제기1주거환경개선지구",
      "district": "동대문구",
      "dong": "",
      "type": "재개발",
      "stage": "의제처리구역",
      "stage_idx": 0,
      "lat": 37.56553161888621,
      "lng": 127.0486422701035,
      "area_m2": 9945,
      "units": 0,
      "contractor": "",
      "stage_date": "",
      "notes": "",
      "subway": "",
      "hangang": false,
      "completion_est": "",
      "ref_note": ""
    },
    {
      "id": "api_60",
      "name": "1-1구역",
      "district": "용산구",
      "dong": "",
      "type": "재개발",
      "stage": "의제처리구역",
      "stage_idx": 0,
      "lat": 37.53541163861421,
      "lng": 126.97908204622568,
      "area_m2": 2749,
      "units": 0,
      "contractor": "",
      "stage_date": "",
      "notes": "",
      "subway": "",
      "hangang": false,
      "completion_est": "",
      "ref_note": ""
    },
    {
      "id": "api_61",
      "name": "1-2구역",
      "district": "용산구",
      "dong": "",
      "type": "재개발",
      "stage": "의제처리구역",
      "stage_idx": 0,
      "lat": 37.53602635380138,
      "lng": 126.98673446981455,
      "area_m2": 8527,
      "units": 0,
      "contractor": "",
      "stage_date": "",
      "notes": "",
      "subway": "",
      "hangang": false,
      "completion_est": "",
      "ref_note": ""
    },
    {
      "id": "api_62",
      "name": "2구역",
      "district": "용산구",
      "dong": "",
      "type": "재개발",
      "stage": "의제처리구역",
      "stage_idx": 0,
      "lat": 37.52117115209854,
      "lng": 126.98803472184058,
      "area_m2": 8705,
      "units": 0,
      "contractor": "",
      "stage_date": "",
      "notes": "",
      "subway": "",
      "hangang": false,
      "completion_est": "",
      "ref_note": ""
    },
    {
      "id": "api_64",
      "name": "강북3 재정비촉진구역",
      "district": "강북구",
      "dong": "",
      "type": "재개발",
      "stage": "의제처리구역",
      "stage_idx": 0,
      "lat": 37.64916460848715,
      "lng": 127.01800005047305,
      "area_m2": 0,
      "units": 0,
      "contractor": "",
      "stage_date": "",
      "notes": "",
      "subway": "",
      "hangang": false,
      "completion_est": "",
      "ref_note": ""
    },
    {
      "id": "api_65",
      "name": "가락프라자아파트 주택재건축사업",
      "district": "송파구",
      "dong": "",
      "type": "재개발",
      "stage": "의제처리구역",
      "stage_idx": 0,
      "lat": 37.506683794407806,
      "lng": 127.10858013860282,
      "area_m2": 45808,
      "units": 0,
      "contractor": "",
      "stage_date": "",
      "notes": "",
      "subway": "",
      "hangang": false,
      "completion_est": "",
      "ref_note": ""
    },
    {
      "id": "api_66",
      "name": "길음5재정비촉진구역(주택정비형재개발사업)",
      "district": "성북구",
      "dong": "",
      "type": "재개발",
      "stage": "의제처리구역",
      "stage_idx": 0,
      "lat": 37.58475320517813,
      "lng": 127.02321815464393,
      "area_m2": 35388,
      "units": 0,
      "contractor": "",
      "stage_date": "",
      "notes": "",
      "subway": "",
      "hangang": false,
      "completion_est": "",
      "ref_note": ""
    },
    {
      "id": "api_67",
      "name": "홍은 제2주택재건축 정비구역",
      "district": "서대문구",
      "dong": "",
      "type": "재개발",
      "stage": "의제처리구역",
      "stage_idx": 0,
      "lat": 37.58005940864794,
      "lng": 126.93734411141757,
      "area_m2": 34387,
      "units": 0,
      "contractor": "",
      "stage_date": "",
      "notes": "",
      "subway": "",
      "hangang": false,
      "completion_est": "",
      "ref_note": ""
    },
    {
      "id": "api_69",
      "name": "고척동 한효아파트 재건축정비구역 ",
      "district": "구로구",
      "dong": "",
      "type": "재개발",
      "stage": "의제처리구역",
      "stage_idx": 0,
      "lat": 37.499552247242775,
      "lng": 126.88224716666731,
      "area_m2": 0,
      "units": 0,
      "contractor": "",
      "stage_date": "",
      "notes": "",
      "subway": "",
      "hangang": false,
      "completion_est": "",
      "ref_note": ""
    },
    {
      "id": "api_71",
      "name": "3구역",
      "district": "용산구",
      "dong": "",
      "type": "재개발",
      "stage": "의제처리구역",
      "stage_idx": 0,
      "lat": 37.52433784979397,
      "lng": 126.98135717210245,
      "area_m2": 11961,
      "units": 0,
      "contractor": "",
      "stage_date": "",
      "notes": "",
      "subway": "",
      "hangang": false,
      "completion_est": "",
      "ref_note": ""
    },
    {
      "id": "api_72",
      "name": "노량진5재정비촉진구역",
      "district": "동작구",
      "dong": "",
      "type": "재개발",
      "stage": "의제처리구역",
      "stage_idx": 0,
      "lat": 37.50952013917894,
      "lng": 126.93667990772286,
      "area_m2": 38017,
      "units": 0,
      "contractor": "",
      "stage_date": "",
      "notes": "",
      "subway": "",
      "hangang": false,
      "completion_est": "",
      "ref_note": ""
    },
    {
      "id": "api_73",
      "name": "노량진8재정비촉진구역",
      "district": "동작구",
      "dong": "",
      "type": "재개발",
      "stage": "의제처리구역",
      "stage_idx": 0,
      "lat": 37.51158653116341,
      "lng": 126.93596926740429,
      "area_m2": 55742,
      "units": 0,
      "contractor": "",
      "stage_date": "",
      "notes": "",
      "subway": "",
      "hangang": false,
      "completion_est": "",
      "ref_note": ""
    },
    {
      "id": "api_75",
      "name": "문래동2가A 도시정비형  재개발구역 4지구",
      "district": "영등포구",
      "dong": "",
      "type": "재개발",
      "stage": "의제처리구역",
      "stage_idx": 0,
      "lat": 37.52013960731711,
      "lng": 126.90202516382651,
      "area_m2": 3214,
      "units": 0,
      "contractor": "",
      "stage_date": "",
      "notes": "",
      "subway": "",
      "hangang": false,
      "completion_est": "",
      "ref_note": ""
    },
    {
      "id": "api_78",
      "name": "마포로3구역",
      "district": "마포구",
      "dong": "",
      "type": "재개발",
      "stage": "의제처리구역",
      "stage_idx": 0,
      "lat": 37.5687523646431,
      "lng": 126.91754089110559,
      "area_m2": 40044,
      "units": 0,
      "contractor": "",
      "stage_date": "",
      "notes": "",
      "subway": "",
      "hangang": false,
      "completion_est": "",
      "ref_note": ""
    },
    {
      "id": "api_79",
      "name": "4-2지구",
      "district": "마포구",
      "dong": "",
      "type": "재개발",
      "stage": "의제처리구역",
      "stage_idx": 0,
      "lat": 37.56384813624138,
      "lng": 126.90330231606497,
      "area_m2": 1192,
      "units": 0,
      "contractor": "",
      "stage_date": "",
      "notes": "",
      "subway": "",
      "hangang": false,
      "completion_est": "",
      "ref_note": ""
    },
    {
      "id": "api_80",
      "name": "흑석9재정비촉진구역",
      "district": "동작구",
      "dong": "",
      "type": "재개발",
      "stage": "의제처리구역",
      "stage_idx": 0,
      "lat": 37.51852162220256,
      "lng": 126.94398975617015,
      "area_m2": 94577,
      "units": 0,
      "contractor": "",
      "stage_date": "",
      "notes": "",
      "subway": "",
      "hangang": false,
      "completion_est": "",
      "ref_note": ""
    },
    {
      "id": "api_81",
      "name": "문래동1가A 도시정비형 재개발구역",
      "district": "영등포구",
      "dong": "",
      "type": "재개발",
      "stage": "의제처리구역",
      "stage_idx": 0,
      "lat": 37.529756828199474,
      "lng": 126.89378466112824,
      "area_m2": 45884,
      "units": 0,
      "contractor": "",
      "stage_date": "",
      "notes": "",
      "subway": "",
      "hangang": false,
      "completion_est": "",
      "ref_note": ""
    },
    {
      "id": "api_82",
      "name": "문래동1가B 도시정비형 재개발구역",
      "district": "영등포구",
      "dong": "",
      "type": "재개발",
      "stage": "의제처리구역",
      "stage_idx": 0,
      "lat": 37.53060179182355,
      "lng": 126.89828161502251,
      "area_m2": 27878,
      "units": 0,
      "contractor": "",
      "stage_date": "",
      "notes": "",
      "subway": "",
      "hangang": false,
      "completion_est": "",
      "ref_note": ""
    },
    {
      "id": "api_83",
      "name": "신촌지역 마포4  도시정비형 재개발구역",
      "district": "마포구",
      "dong": "",
      "type": "재개발",
      "stage": "의제처리구역",
      "stage_idx": 0,
      "lat": 37.554488610421565,
      "lng": 126.90871444833252,
      "area_m2": 50515,
      "units": 0,
      "contractor": "",
      "stage_date": "",
      "notes": "",
      "subway": "",
      "hangang": false,
      "completion_est": "",
      "ref_note": ""
    },
    {
      "id": "api_84",
      "name": "상봉10재정비촉진구역",
      "district": "중랑구",
      "dong": "",
      "type": "재개발",
      "stage": "의제처리구역",
      "stage_idx": 0,
      "lat": 37.61583183043423,
      "lng": 127.09908786763687,
      "area_m2": 0,
      "units": 0,
      "contractor": "",
      "stage_date": "",
      "notes": "",
      "subway": "",
      "hangang": false,
      "completion_est": "",
      "ref_note": ""
    },
    {
      "id": "api_85",
      "name": "무교다동 11지구",
      "district": "중구",
      "dong": "",
      "type": "재개발",
      "stage": "의제처리구역",
      "stage_idx": 0,
      "lat": 37.572401982552776,
      "lng": 126.99418605237757,
      "area_m2": 1370,
      "units": 0,
      "contractor": "",
      "stage_date": "",
      "notes": "",
      "subway": "",
      "hangang": false,
      "completion_est": "",
      "ref_note": ""
    },
    {
      "id": "api_86",
      "name": "무교다동 23-1지구",
      "district": "중구",
      "dong": "",
      "type": "재개발",
      "stage": "의제처리구역",
      "stage_idx": 0,
      "lat": 37.57283765787001,
      "lng": 127.00785716393759,
      "area_m2": 1330,
      "units": 0,
      "contractor": "",
      "stage_date": "",
      "notes": "",
      "subway": "",
      "hangang": false,
      "completion_est": "",
      "ref_note": ""
    },
    {
      "id": "api_87",
      "name": "무교다동 23-9지구 ",
      "district": "중구",
      "dong": "",
      "type": "재개발",
      "stage": "의제처리구역",
      "stage_idx": 0,
      "lat": 37.55413732458567,
      "lng": 127.00193958392087,
      "area_m2": 1330,
      "units": 0,
      "contractor": "",
      "stage_date": "",
      "notes": "",
      "subway": "",
      "hangang": false,
      "completion_est": "",
      "ref_note": ""
    },
    {
      "id": "api_88",
      "name": "무교다동 24-6지구 ",
      "district": "중구",
      "dong": "",
      "type": "재개발",
      "stage": "의제처리구역",
      "stage_idx": 0,
      "lat": 37.55446764077356,
      "lng": 126.99783041940135,
      "area_m2": 1353,
      "units": 0,
      "contractor": "",
      "stage_date": "",
      "notes": "",
      "subway": "",
      "hangang": false,
      "completion_est": "",
      "ref_note": ""
    },
    {
      "id": "api_89",
      "name": "무교다동 24-4지구 ",
      "district": "중구",
      "dong": "",
      "type": "재개발",
      "stage": "의제처리구역",
      "stage_idx": 0,
      "lat": 37.5580088971322,
      "lng": 127.00154300224646,
      "area_m2": 1353,
      "units": 0,
      "contractor": "",
      "stage_date": "",
      "notes": "",
      "subway": "",
      "hangang": false,
      "completion_est": "",
      "ref_note": ""
    },
    {
      "id": "api_90",
      "name": "무교다동구역 제16지구",
      "district": "중구",
      "dong": "",
      "type": "재개발",
      "stage": "의제처리구역",
      "stage_idx": 0,
      "lat": 37.56781038485172,
      "lng": 127.00076664401583,
      "area_m2": 2812,
      "units": 0,
      "contractor": "",
      "stage_date": "",
      "notes": "",
      "subway": "",
      "hangang": false,
      "completion_est": "",
      "ref_note": ""
    },
    {
      "id": "api_92",
      "name": "무교다동 24-2지구 ",
      "district": "중구",
      "dong": "",
      "type": "재개발",
      "stage": "의제처리구역",
      "stage_idx": 0,
      "lat": 37.55424496097415,
      "lng": 126.99655357111843,
      "area_m2": 1353,
      "units": 0,
      "contractor": "",
      "stage_date": "",
      "notes": "",
      "subway": "",
      "hangang": false,
      "completion_est": "",
      "ref_note": ""
    },
    {
      "id": "api_93",
      "name": "무교다동 23-12지구 ",
      "district": "중구",
      "dong": "",
      "type": "재개발",
      "stage": "의제처리구역",
      "stage_idx": 0,
      "lat": 37.565657722063136,
      "lng": 126.99154381271939,
      "area_m2": 1330,
      "units": 0,
      "contractor": "",
      "stage_date": "",
      "notes": "",
      "subway": "",
      "hangang": false,
      "completion_est": "",
      "ref_note": ""
    },
    {
      "id": "api_94",
      "name": "무교다동 22-3지구 ",
      "district": "중구",
      "dong": "",
      "type": "재개발",
      "stage": "의제처리구역",
      "stage_idx": 0,
      "lat": 37.57149966962382,
      "lng": 127.00614200415446,
      "area_m2": 1057,
      "units": 0,
      "contractor": "",
      "stage_date": "",
      "notes": "",
      "subway": "",
      "hangang": false,
      "completion_est": "",
      "ref_note": ""
    },
    {
      "id": "api_95",
      "name": "무교다동 23-8지구 ",
      "district": "중구",
      "dong": "",
      "type": "재개발",
      "stage": "의제처리구역",
      "stage_idx": 0,
      "lat": 37.5546601315283,
      "lng": 126.99508552758618,
      "area_m2": 1330,
      "units": 0,
      "contractor": "",
      "stage_date": "",
      "notes": "",
      "subway": "",
      "hangang": false,
      "completion_est": "",
      "ref_note": ""
    },
    {
      "id": "api_98",
      "name": "신정2재정비촉진구역",
      "district": "양천구",
      "dong": "",
      "type": "재개발",
      "stage": "의제처리구역",
      "stage_idx": 0,
      "lat": 37.51669564936543,
      "lng": 126.8763055381894,
      "area_m2": 105685,
      "units": 0,
      "contractor": "",
      "stage_date": "",
      "notes": "",
      "subway": "",
      "hangang": false,
      "completion_est": "",
      "ref_note": ""
    },
    {
      "id": "api_509",
      "name": "유원제일2차아파트 재건축정비사업",
      "district": "영등포구",
      "dong": "",
      "type": "재개발",
      "stage": "의제처리구역",
      "stage_idx": 0,
      "lat": 37.52635431167856,
      "lng": 126.89190689773028,
      "area_m2": 28654,
      "units": 0,
      "contractor": "",
      "stage_date": "",
      "notes": "",
      "subway": "",
      "hangang": false,
      "completion_est": "",
      "ref_note": ""
    },
    {
      "id": "api_510",
      "name": "마포로1구역 제48지구 도시정비형 재개발사업 ",
      "district": "마포구",
      "dong": "",
      "type": "재개발",
      "stage": "의제처리구역",
      "stage_idx": 0,
      "lat": 37.573230606911274,
      "lng": 126.90411122901791,
      "area_m2": 3802,
      "units": 0,
      "contractor": "",
      "stage_date": "",
      "notes": "",
      "subway": "",
      "hangang": false,
      "completion_est": "",
      "ref_note": ""
    },
    {
      "id": "api_511",
      "name": "흑석4재정비촉진구역",
      "district": "동작구",
      "dong": "",
      "type": "재개발",
      "stage": "의제처리구역",
      "stage_idx": 0,
      "lat": 37.510449533005904,
      "lng": 126.94191892914795,
      "area_m2": 56622,
      "units": 0,
      "contractor": "",
      "stage_date": "",
      "notes": "",
      "subway": "",
      "hangang": false,
      "completion_est": "",
      "ref_note": ""
    },
    {
      "id": "api_512",
      "name": "주택재건축정비구역",
      "district": "강동구",
      "dong": "",
      "type": "재개발",
      "stage": "의제처리구역",
      "stage_idx": 0,
      "lat": 37.53492750042697,
      "lng": 127.11421538489813,
      "area_m2": 12181,
      "units": 0,
      "contractor": "",
      "stage_date": "",
      "notes": "",
      "subway": "",
      "hangang": false,
      "completion_est": "",
      "ref_note": ""
    },
    {
      "id": "api_565",
      "name": "무교다동 8지구",
      "district": "중구",
      "dong": "",
      "type": "재개발",
      "stage": "의제처리구역",
      "stage_idx": 0,
      "lat": 37.56439844338406,
      "lng": 126.99961492830596,
      "area_m2": 1386,
      "units": 0,
      "contractor": "",
      "stage_date": "",
      "notes": "",
      "subway": "",
      "hangang": false,
      "completion_est": "",
      "ref_note": ""
    },
    {
      "id": "api_566",
      "name": "무교다동 23-11지구 ",
      "district": "중구",
      "dong": "",
      "type": "재개발",
      "stage": "의제처리구역",
      "stage_idx": 0,
      "lat": 37.56206129968726,
      "lng": 126.99902038919743,
      "area_m2": 1330,
      "units": 0,
      "contractor": "",
      "stage_date": "",
      "notes": "",
      "subway": "",
      "hangang": false,
      "completion_est": "",
      "ref_note": ""
    },
    {
      "id": "api_567",
      "name": "마포지역 도시환경 정비사업구역",
      "district": "서대문구",
      "dong": "",
      "type": "재개발",
      "stage": "의제처리구역",
      "stage_idx": 0,
      "lat": 37.581047959720465,
      "lng": 126.9341153120682,
      "area_m2": 6244,
      "units": 0,
      "contractor": "",
      "stage_date": "",
      "notes": "",
      "subway": "",
      "hangang": false,
      "completion_est": "",
      "ref_note": ""
    },
    {
      "id": "api_568",
      "name": "신촌지역(마포)1-2지구 도시정비형 재개발구역",
      "district": "마포구",
      "dong": "",
      "type": "재개발",
      "stage": "의제처리구역",
      "stage_idx": 0,
      "lat": 37.55589264472873,
      "lng": 126.91630380413102,
      "area_m2": 1427,
      "units": 0,
      "contractor": "",
      "stage_date": "",
      "notes": "",
      "subway": "",
      "hangang": false,
      "completion_est": "",
      "ref_note": ""
    },
    {
      "id": "api_569",
      "name": "사당3 재건축정비사업",
      "district": "동작구",
      "dong": "",
      "type": "재개발",
      "stage": "의제처리구역",
      "stage_idx": 0,
      "lat": 37.50805665170744,
      "lng": 126.94268941337185,
      "area_m2": 30100,
      "units": 0,
      "contractor": "",
      "stage_date": "",
      "notes": "",
      "subway": "",
      "hangang": false,
      "completion_est": "",
      "ref_note": ""
    },
    {
      "id": "api_570",
      "name": "마포로5구역",
      "district": "서대문구",
      "dong": "",
      "type": "재개발",
      "stage": "의제처리구역",
      "stage_idx": 0,
      "lat": 37.57689530893749,
      "lng": 126.93445019335734,
      "area_m2": 61194,
      "units": 0,
      "contractor": "",
      "stage_date": "",
      "notes": "",
      "subway": "",
      "hangang": false,
      "completion_est": "",
      "ref_note": ""
    },
    {
      "id": "api_571",
      "name": "마포로5-2",
      "district": "서대문구",
      "dong": "",
      "type": "재개발",
      "stage": "의제처리구역",
      "stage_idx": 0,
      "lat": 37.5767018248296,
      "lng": 126.93847909283744,
      "area_m2": 4565,
      "units": 0,
      "contractor": "",
      "stage_date": "",
      "notes": "",
      "subway": "",
      "hangang": false,
      "completion_est": "",
      "ref_note": ""
    },
    {
      "id": "api_572",
      "name": "마포로5-3",
      "district": "서대문구",
      "dong": "",
      "type": "재개발",
      "stage": "의제처리구역",
      "stage_idx": 0,
      "lat": 37.58456571549099,
      "lng": 126.93278337200725,
      "area_m2": 0,
      "units": 0,
      "contractor": "",
      "stage_date": "",
      "notes": "",
      "subway": "",
      "hangang": false,
      "completion_est": "",
      "ref_note": ""
    },
    {
      "id": "api_573",
      "name": "마포로5-3-1",
      "district": "서대문구",
      "dong": "",
      "type": "재개발",
      "stage": "의제처리구역",
      "stage_idx": 0,
      "lat": 37.573701137003724,
      "lng": 126.93958437337521,
      "area_m2": 0,
      "units": 0,
      "contractor": "",
      "stage_date": "",
      "notes": "",
      "subway": "",
      "hangang": false,
      "completion_est": "",
      "ref_note": ""
    },
    {
      "id": "api_574",
      "name": "마포로5-4",
      "district": "서대문구",
      "dong": "",
      "type": "재개발",
      "stage": "의제처리구역",
      "stage_idx": 0,
      "lat": 37.58263636082262,
      "lng": 126.92969514106994,
      "area_m2": 0,
      "units": 0,
      "contractor": "",
      "stage_date": "",
      "notes": "",
      "subway": "",
      "hangang": false,
      "completion_est": "",
      "ref_note": ""
    },
    {
      "id": "api_575",
      "name": "마포로5-8",
      "district": "서대문구",
      "dong": "",
      "type": "재개발",
      "stage": "의제처리구역",
      "stage_idx": 0,
      "lat": 37.58498317944851,
      "lng": 126.94510337290887,
      "area_m2": 0,
      "units": 0,
      "contractor": "",
      "stage_date": "",
      "notes": "",
      "subway": "",
      "hangang": false,
      "completion_est": "",
      "ref_note": ""
    },
    {
      "id": "api_576",
      "name": "효창제6구역 주택재개발정비사업",
      "district": "용산구",
      "dong": "",
      "type": "재개발",
      "stage": "의제처리구역",
      "stage_idx": 0,
      "lat": 37.52148760934695,
      "lng": 126.98633514065223,
      "area_m2": 18397,
      "units": 0,
      "contractor": "",
      "stage_date": "",
      "notes": "",
      "subway": "",
      "hangang": false,
      "completion_est": "",
      "ref_note": ""
    },
    {
      "id": "api_577",
      "name": "연신내구역 도시정비형 재개발사업",
      "district": "은평구",
      "dong": "",
      "type": "재개발",
      "stage": "의제처리구역",
      "stage_idx": 0,
      "lat": 37.60665722461103,
      "lng": 126.92886408764166,
      "area_m2": 8699,
      "units": 0,
      "contractor": "",
      "stage_date": "",
      "notes": "",
      "subway": "",
      "hangang": false,
      "completion_est": "",
      "ref_note": ""
    },
    {
      "id": "api_578",
      "name": "잠실주공5단지아파트 재건축사업 정비구역",
      "district": "송파구",
      "dong": "",
      "type": "재개발",
      "stage": "의제처리구역",
      "stage_idx": 0,
      "lat": 37.51399213436266,
      "lng": 127.10821921814538,
      "area_m2": 353987,
      "units": 0,
      "contractor": "",
      "stage_date": "",
      "notes": "",
      "subway": "",
      "hangang": false,
      "completion_est": "",
      "ref_note": ""
    },
    {
      "id": "api_579",
      "name": "잠실우성4차아파트주택재건축정비구역",
      "district": "송파구",
      "dong": "",
      "type": "재개발",
      "stage": "의제처리구역",
      "stage_idx": 0,
      "lat": 37.50789394285931,
      "lng": 127.11482184560121,
      "area_m2": 31630,
      "units": 0,
      "contractor": "",
      "stage_date": "",
      "notes": "",
      "subway": "",
      "hangang": false,
      "completion_est": "",
      "ref_note": ""
    },
    {
      "id": "api_580",
      "name": "신촌지역(마포) 4-9지구 도시정비형 재개발구역 ",
      "district": "마포구",
      "dong": "",
      "type": "재개발",
      "stage": "의제처리구역",
      "stage_idx": 0,
      "lat": 37.56772206530501,
      "lng": 126.90139982421397,
      "area_m2": 4827,
      "units": 0,
      "contractor": "",
      "stage_date": "",
      "notes": "",
      "subway": "",
      "hangang": false,
      "completion_est": "",
      "ref_note": ""
    },
    {
      "id": "api_581",
      "name": "미장세림아파트 주택재건축사업",
      "district": "성동구",
      "dong": "",
      "type": "재개발",
      "stage": "의제처리구역",
      "stage_idx": 0,
      "lat": 37.5551682136501,
      "lng": 127.02877107814993,
      "area_m2": 0,
      "units": 0,
      "contractor": "",
      "stage_date": "",
      "notes": "",
      "subway": "",
      "hangang": false,
      "completion_est": "",
      "ref_note": ""
    },
    {
      "id": "api_582",
      "name": "청담삼익아파트 재건축사업",
      "district": "강남구",
      "dong": "",
      "type": "재개발",
      "stage": "의제처리구역",
      "stage_idx": 0,
      "lat": 37.51173601886169,
      "lng": 127.05535718607169,
      "area_m2": 0,
      "units": 0,
      "contractor": "",
      "stage_date": "",
      "notes": "",
      "subway": "",
      "hangang": false,
      "completion_est": "",
      "ref_note": ""
    },
    {
      "id": "api_583",
      "name": "합정7재정비촉진구역",
      "district": "마포구",
      "dong": "",
      "type": "재개발",
      "stage": "의제처리구역",
      "stage_idx": 0,
      "lat": 37.55789640052593,
      "lng": 126.90241391737261,
      "area_m2": 0,
      "units": 0,
      "contractor": "",
      "stage_date": "",
      "notes": "",
      "subway": "",
      "hangang": false,
      "completion_est": "",
      "ref_note": ""
    },
    {
      "id": "api_584",
      "name": "강동역 역세권 활성화 도시정비형 재개발 정비구역",
      "district": "강동구",
      "dong": "",
      "type": "재개발",
      "stage": "의제처리구역",
      "stage_idx": 0,
      "lat": 37.53449701246986,
      "lng": 127.12244325013454,
      "area_m2": 0,
      "units": 0,
      "contractor": "",
      "stage_date": "",
      "notes": "",
      "subway": "",
      "hangang": false,
      "completion_est": "",
      "ref_note": ""
    },
    {
      "id": "api_585",
      "name": "여의도 공작아파트 재건축정비사업 ",
      "district": "영등포구",
      "dong": "",
      "type": "재개발",
      "stage": "의제처리구역",
      "stage_idx": 0,
      "lat": 37.52816134164452,
      "lng": 126.9025725504602,
      "area_m2": 0,
      "units": 0,
      "contractor": "",
      "stage_date": "",
      "notes": "",
      "subway": "",
      "hangang": false,
      "completion_est": "",
      "ref_note": ""
    },
    {
      "id": "api_586",
      "name": "제기 제6구역 주택재개발정비구역",
      "district": "동대문구",
      "dong": "",
      "type": "재개발",
      "stage": "의제처리구역",
      "stage_idx": 0,
      "lat": 37.58232956516232,
      "lng": 127.04031572674653,
      "area_m2": 24320,
      "units": 0,
      "contractor": "",
      "stage_date": "",
      "notes": "",
      "subway": "",
      "hangang": false,
      "completion_est": "",
      "ref_note": ""
    },
    {
      "id": "api_590",
      "name": "봉천제12-2 주택재개발정비사업",
      "district": "관악구",
      "dong": "",
      "type": "재개발",
      "stage": "의제처리구역",
      "stage_idx": 0,
      "lat": 37.485661564007124,
      "lng": 126.9524770939376,
      "area_m2": 80917,
      "units": 0,
      "contractor": "",
      "stage_date": "",
      "notes": "",
      "subway": "",
      "hangang": false,
      "completion_est": "",
      "ref_note": ""
    },
    {
      "id": "api_599",
      "name": "공평구역",
      "district": "종로구",
      "dong": "",
      "type": "재개발",
      "stage": "의제처리구역",
      "stage_idx": 0,
      "lat": 37.59052040872071,
      "lng": 126.97983017249418,
      "area_m2": 95028,
      "units": 0,
      "contractor": "",
      "stage_date": "",
      "notes": "",
      "subway": "",
      "hangang": false,
      "completion_est": "",
      "ref_note": ""
    },
    {
      "id": "api_600",
      "name": "공평구역<15.16지구>",
      "district": "종로구",
      "dong": "",
      "type": "재개발",
      "stage": "의제처리구역",
      "stage_idx": 0,
      "lat": 37.585999142728966,
      "lng": 126.98168845882496,
      "area_m2": 12854,
      "units": 0,
      "contractor": "",
      "stage_date": "",
      "notes": "",
      "subway": "",
      "hangang": false,
      "completion_est": "",
      "ref_note": ""
    },
    {
      "id": "api_601",
      "name": "돈의문3재정비촉진구역",
      "district": "종로구",
      "dong": "",
      "type": "재개발",
      "stage": "의제처리구역",
      "stage_idx": 0,
      "lat": 37.583315519784726,
      "lng": 126.97736565519267,
      "area_m2": 8844,
      "units": 0,
      "contractor": "",
      "stage_date": "",
      "notes": "",
      "subway": "",
      "hangang": false,
      "completion_est": "",
      "ref_note": ""
    },
    {
      "id": "api_618",
      "name": "영등포1-3재정비촉진구역",
      "district": "영등포구",
      "dong": "",
      "type": "재개발",
      "stage": "의제처리구역",
      "stage_idx": 0,
      "lat": 37.521274143821245,
      "lng": 126.90313082362024,
      "area_m2": 8407,
      "units": 0,
      "contractor": "",
      "stage_date": "",
      "notes": "",
      "subway": "",
      "hangang": false,
      "completion_est": "",
      "ref_note": ""
    },
    {
      "id": "api_630",
      "name": "삼선제5구역 주택재개발 정비사업",
      "district": "성북구",
      "dong": "",
      "type": "재개발",
      "stage": "의제처리구역",
      "stage_idx": 0,
      "lat": 37.58100821802911,
      "lng": 127.01398696966807,
      "area_m2": 63780,
      "units": 0,
      "contractor": "",
      "stage_date": "",
      "notes": "",
      "subway": "",
      "hangang": false,
      "completion_est": "",
      "ref_note": ""
    },
    {
      "id": "api_631",
      "name": "영천구역 주택재개발정비구역",
      "district": "서대문구",
      "dong": "",
      "type": "재개발",
      "stage": "의제처리구역",
      "stage_idx": 0,
      "lat": 37.56994530899853,
      "lng": 126.93011019996263,
      "area_m2": 11154,
      "units": 0,
      "contractor": "",
      "stage_date": "",
      "notes": "",
      "subway": "",
      "hangang": false,
      "completion_est": "",
      "ref_note": ""
    },
    {
      "id": "api_632",
      "name": "마포로5 도시정비형 재개발구역 9-1지구",
      "district": "중구",
      "dong": "",
      "type": "재개발",
      "stage": "의제처리구역",
      "stage_idx": 0,
      "lat": 37.558629674297016,
      "lng": 126.98982161570524,
      "area_m2": 1936,
      "units": 0,
      "contractor": "",
      "stage_date": "",
      "notes": "",
      "subway": "",
      "hangang": false,
      "completion_est": "",
      "ref_note": ""
    },
    {
      "id": "api_633",
      "name": "수색4재정비촉진구역",
      "district": "은평구",
      "dong": "",
      "type": "재개발",
      "stage": "의제처리구역",
      "stage_idx": 0,
      "lat": 37.605079659904476,
      "lng": 126.93557456487619,
      "area_m2": 61898,
      "units": 0,
      "contractor": "",
      "stage_date": "",
      "notes": "",
      "subway": "",
      "hangang": false,
      "completion_est": "",
      "ref_note": ""
    },
    {
      "id": "api_634",
      "name": "가락상아1차 아파트 재건축 정비사업",
      "district": "송파구",
      "dong": "",
      "type": "재개발",
      "stage": "의제처리구역",
      "stage_idx": 0,
      "lat": 37.52365575675969,
      "lng": 127.10507048769594,
      "area_m2": 13580,
      "units": 0,
      "contractor": "",
      "stage_date": "",
      "notes": "",
      "subway": "",
      "hangang": false,
      "completion_est": "",
      "ref_note": ""
    },
    {
      "id": "api_635",
      "name": "오류동 현대연립 재건축 정비사업",
      "district": "구로구",
      "dong": "",
      "type": "재개발",
      "stage": "의제처리구역",
      "stage_idx": 0,
      "lat": 37.496434157401175,
      "lng": 126.89545460482152,
      "area_m2": 23223,
      "units": 0,
      "contractor": "",
      "stage_date": "",
      "notes": "",
      "subway": "",
      "hangang": false,
      "completion_est": "",
      "ref_note": ""
    },
    {
      "id": "api_639",
      "name": "미아3 재정비촉진구역 ",
      "district": "강북구",
      "dong": "",
      "type": "재개발",
      "stage": "의제처리구역",
      "stage_idx": 0,
      "lat": 37.64705683571566,
      "lng": 127.03473929941623,
      "area_m2": 57558,
      "units": 0,
      "contractor": "",
      "stage_date": "",
      "notes": "",
      "subway": "",
      "hangang": false,
      "completion_est": "",
      "ref_note": ""
    },
    {
      "id": "api_640",
      "name": "미아9-2 주택재건축정비사업",
      "district": "강북구",
      "dong": "",
      "type": "재개발",
      "stage": "의제처리구역",
      "stage_idx": 0,
      "lat": 37.63273409343122,
      "lng": 127.03340185484106,
      "area_m2": 102518,
      "units": 0,
      "contractor": "",
      "stage_date": "",
      "notes": "",
      "subway": "",
      "hangang": false,
      "completion_est": "",
      "ref_note": ""
    },
    {
      "id": "api_641",
      "name": "거여2재정비촉진구역 (주택재개발사업)",
      "district": "송파구",
      "dong": "",
      "type": "재개발",
      "stage": "의제처리구역",
      "stage_idx": 0,
      "lat": 37.51355013736799,
      "lng": 127.11445354183468,
      "area_m2": 160288,
      "units": 0,
      "contractor": "",
      "stage_date": "",
      "notes": "",
      "subway": "",
      "hangang": false,
      "completion_est": "",
      "ref_note": ""
    },
    {
      "id": "api_642",
      "name": "개봉5 주택재건축 정비구역",
      "district": "구로구",
      "dong": "",
      "type": "재개발",
      "stage": "의제처리구역",
      "stage_idx": 0,
      "lat": 37.487144514787545,
      "lng": 126.88279771972454,
      "area_m2": 13099,
      "units": 0,
      "contractor": "",
      "stage_date": "",
      "notes": "",
      "subway": "",
      "hangang": false,
      "completion_est": "",
      "ref_note": ""
    },
    {
      "id": "api_643",
      "name": "대흥제2구역 주택재개발사업",
      "district": "마포구",
      "dong": "",
      "type": "재개발",
      "stage": "의제처리구역",
      "stage_idx": 0,
      "lat": 37.565737441337504,
      "lng": 126.91361178769387,
      "area_m2": 61077,
      "units": 0,
      "contractor": "",
      "stage_date": "",
      "notes": "",
      "subway": "",
      "hangang": false,
      "completion_est": "",
      "ref_note": ""
    },
    {
      "id": "api_644",
      "name": "중앙동 새싹마을 관리형 주거환경개선사업",
      "district": "관악구",
      "dong": "",
      "type": "재개발",
      "stage": "의제처리구역",
      "stage_idx": 0,
      "lat": 37.48307596504081,
      "lng": 126.96003839310103,
      "area_m2": 0,
      "units": 0,
      "contractor": "",
      "stage_date": "",
      "notes": "",
      "subway": "",
      "hangang": false,
      "completion_est": "",
      "ref_note": ""
    },
    {
      "id": "api_645",
      "name": "신수2 주택재건축 정비구역",
      "district": "마포구",
      "dong": "",
      "type": "재개발",
      "stage": "의제처리구역",
      "stage_idx": 0,
      "lat": 37.560062588574965,
      "lng": 126.89924678837009,
      "area_m2": 17264,
      "units": 0,
      "contractor": "",
      "stage_date": "",
      "notes": "",
      "subway": "",
      "hangang": false,
      "completion_est": "",
      "ref_note": ""
    },
    {
      "id": "api_646",
      "name": "영등포1-13재정비촉진구역",
      "district": "영등포구",
      "dong": "",
      "type": "재개발",
      "stage": "의제처리구역",
      "stage_idx": 0,
      "lat": 37.52354697586292,
      "lng": 126.89599577860794,
      "area_m2": 27049,
      "units": 0,
      "contractor": "",
      "stage_date": "",
      "notes": "",
      "subway": "",
      "hangang": false,
      "completion_est": "",
      "ref_note": ""
    },
    {
      "id": "api_647",
      "name": "서울역-서대문 1.2 도시정비형 재개발구역",
      "district": "중구",
      "dong": "",
      "type": "재개발",
      "stage": "의제처리구역",
      "stage_idx": 0,
      "lat": 37.56257942183522,
      "lng": 127.00530570971765,
      "area_m2": 80719,
      "units": 0,
      "contractor": "",
      "stage_date": "",
      "notes": "",
      "subway": "",
      "hangang": false,
      "completion_est": "",
      "ref_note": ""
    },
    {
      "id": "api_648",
      "name": "서울역-서대문 1,2 ",
      "district": "중구",
      "dong": "",
      "type": "재개발",
      "stage": "의제처리구역",
      "stage_idx": 0,
      "lat": 37.55977822690051,
      "lng": 127.00581964161421,
      "area_m2": 22029,
      "units": 0,
      "contractor": "",
      "stage_date": "",
      "notes": "",
      "subway": "",
      "hangang": false,
      "completion_est": "",
      "ref_note": ""
    },
    {
      "id": "api_649",
      "name": "서울역-서대문 1.2",
      "district": "중구",
      "dong": "",
      "type": "재개발",
      "stage": "의제처리구역",
      "stage_idx": 0,
      "lat": 37.56203293662819,
      "lng": 126.98873888421218,
      "area_m2": 1109,
      "units": 0,
      "contractor": "",
      "stage_date": "",
      "notes": "",
      "subway": "",
      "hangang": false,
      "completion_est": "",
      "ref_note": ""
    },
    {
      "id": "api_650",
      "name": "서울역-서대문 1.2",
      "district": "중구",
      "dong": "",
      "type": "재개발",
      "stage": "의제처리구역",
      "stage_idx": 0,
      "lat": 37.57010446853719,
      "lng": 126.99082072507572,
      "area_m2": 1109,
      "units": 0,
      "contractor": "",
      "stage_date": "",
      "notes": "",
      "subway": "",
      "hangang": false,
      "completion_est": "",
      "ref_note": ""
    },
    {
      "id": "api_651",
      "name": "서울역-서대문 1.2",
      "district": "중구",
      "dong": "",
      "type": "재개발",
      "stage": "의제처리구역",
      "stage_idx": 0,
      "lat": 37.558114422547625,
      "lng": 127.00114530541471,
      "area_m2": 1109,
      "units": 0,
      "contractor": "",
      "stage_date": "",
      "notes": "",
      "subway": "",
      "hangang": false,
      "completion_est": "",
      "ref_note": ""
    },
    {
      "id": "api_716",
      "name": "서울역-서대문 1.2",
      "district": "중구",
      "dong": "",
      "type": "재개발",
      "stage": "의제처리구역",
      "stage_idx": 0,
      "lat": 37.56030279987857,
      "lng": 126.99667377173525,
      "area_m2": 6588,
      "units": 0,
      "contractor": "",
      "stage_date": "",
      "notes": "",
      "subway": "",
      "hangang": false,
      "completion_est": "",
      "ref_note": ""
    },
    {
      "id": "api_717",
      "name": "서울역-서대문 1.2구역 제1지구",
      "district": "중구",
      "dong": "",
      "type": "재개발",
      "stage": "의제처리구역",
      "stage_idx": 0,
      "lat": 37.5635452650082,
      "lng": 127.00253303495106,
      "area_m2": 16316,
      "units": 0,
      "contractor": "",
      "stage_date": "",
      "notes": "",
      "subway": "",
      "hangang": false,
      "completion_est": "",
      "ref_note": ""
    },
    {
      "id": "api_718",
      "name": "영천구역 주택재개발정비구역",
      "district": "서대문구",
      "dong": "",
      "type": "재개발",
      "stage": "의제처리구역",
      "stage_idx": 0,
      "lat": 37.575927720701266,
      "lng": 126.93068111320315,
      "area_m2": 10948,
      "units": 0,
      "contractor": "",
      "stage_date": "",
      "notes": "",
      "subway": "",
      "hangang": false,
      "completion_est": "",
      "ref_note": ""
    },
    {
      "id": "api_719",
      "name": "을지로2가 1.3.6.18",
      "district": "중구",
      "dong": "",
      "type": "재개발",
      "stage": "의제처리구역",
      "stage_idx": 0,
      "lat": 37.55846442688507,
      "lng": 126.99727599299896,
      "area_m2": 0,
      "units": 0,
      "contractor": "",
      "stage_date": "",
      "notes": "",
      "subway": "",
      "hangang": false,
      "completion_est": "",
      "ref_note": ""
    },
    {
      "id": "api_720",
      "name": "을지로2가 2",
      "district": "중구",
      "dong": "",
      "type": "재개발",
      "stage": "의제처리구역",
      "stage_idx": 0,
      "lat": 37.56736543306998,
      "lng": 126.99641717886318,
      "area_m2": 3473,
      "units": 0,
      "contractor": "",
      "stage_date": "",
      "notes": "",
      "subway": "",
      "hangang": false,
      "completion_est": "",
      "ref_note": ""
    },
    {
      "id": "api_721",
      "name": "을지로2가 18-1",
      "district": "중구",
      "dong": "",
      "type": "재개발",
      "stage": "의제처리구역",
      "stage_idx": 0,
      "lat": 37.572804314638276,
      "lng": 126.98869791672854,
      "area_m2": 1477,
      "units": 0,
      "contractor": "",
      "stage_date": "",
      "notes": "",
      "subway": "",
      "hangang": false,
      "completion_est": "",
      "ref_note": ""
    },
    {
      "id": "api_722",
      "name": "을지로2가 18-2",
      "district": "중구",
      "dong": "",
      "type": "재개발",
      "stage": "의제처리구역",
      "stage_idx": 0,
      "lat": 37.56312202507627,
      "lng": 127.00617264682093,
      "area_m2": 1477,
      "units": 0,
      "contractor": "",
      "stage_date": "",
      "notes": "",
      "subway": "",
      "hangang": false,
      "completion_est": "",
      "ref_note": ""
    },
    {
      "id": "api_857",
      "name": "주택재개발사업",
      "district": "동작구",
      "dong": "",
      "type": "재개발",
      "stage": "의제처리구역",
      "stage_idx": 0,
      "lat": 37.502851268249835,
      "lng": 126.94758926092244,
      "area_m2": 35303,
      "units": 0,
      "contractor": "",
      "stage_date": "",
      "notes": "",
      "subway": "",
      "hangang": false,
      "completion_est": "",
      "ref_note": ""
    },
    {
      "id": "api_864",
      "name": "상아.현대아파트 주택재건축사업",
      "district": "영등포구",
      "dong": "",
      "type": "재개발",
      "stage": "의제처리구역",
      "stage_idx": 0,
      "lat": 37.52607444536499,
      "lng": 126.89348753795198,
      "area_m2": 29428,
      "units": 0,
      "contractor": "",
      "stage_date": "",
      "notes": "",
      "subway": "",
      "hangang": false,
      "completion_est": "",
      "ref_note": ""
    },
    {
      "id": "api_865",
      "name": "남구로역세권 공공임대주택 도시정비형 재개발정비구역",
      "district": "구로구",
      "dong": "",
      "type": "재개발",
      "stage": "의제처리구역",
      "stage_idx": 0,
      "lat": 37.4942180693106,
      "lng": 126.89276824923243,
      "area_m2": 0,
      "units": 0,
      "contractor": "",
      "stage_date": "",
      "notes": "",
      "subway": "",
      "hangang": false,
      "completion_est": "",
      "ref_note": ""
    },
    {
      "id": "api_867",
      "name": "국화아파트 재건축정비구역",
      "district": "영등포구",
      "dong": "",
      "type": "재개발",
      "stage": "의제처리구역",
      "stage_idx": 0,
      "lat": 37.516929843948446,
      "lng": 126.89560107084628,
      "area_m2": 0,
      "units": 0,
      "contractor": "",
      "stage_date": "",
      "notes": "",
      "subway": "",
      "hangang": false,
      "completion_est": "",
      "ref_note": ""
    },
    {
      "id": "api_869",
      "name": "서울역-서대문 1.2",
      "district": "중구",
      "dong": "",
      "type": "재개발",
      "stage": "의제처리구역",
      "stage_idx": 0,
      "lat": 37.56098647778955,
      "lng": 126.99379097589679,
      "area_m2": 1109,
      "units": 0,
      "contractor": "",
      "stage_date": "",
      "notes": "",
      "subway": "",
      "hangang": false,
      "completion_est": "",
      "ref_note": ""
    },
    {
      "id": "api_870",
      "name": "문래동2·3가B 도시정비형 재개발구역 ",
      "district": "영등포구",
      "dong": "",
      "type": "재개발",
      "stage": "의제처리구역",
      "stage_idx": 0,
      "lat": 37.52046438843685,
      "lng": 126.90566904825852,
      "area_m2": 0,
      "units": 0,
      "contractor": "",
      "stage_date": "",
      "notes": "",
      "subway": "",
      "hangang": false,
      "completion_est": "",
      "ref_note": ""
    },
    {
      "id": "api_874",
      "name": "서소문5",
      "district": "중구",
      "dong": "",
      "type": "재개발",
      "stage": "의제처리구역",
      "stage_idx": 0,
      "lat": 37.557547916346,
      "lng": 126.9906451252479,
      "area_m2": 2917,
      "units": 0,
      "contractor": "",
      "stage_date": "",
      "notes": "",
      "subway": "",
      "hangang": false,
      "completion_est": "",
      "ref_note": ""
    },
    {
      "id": "api_875",
      "name": "서소문6",
      "district": "중구",
      "dong": "",
      "type": "재개발",
      "stage": "의제처리구역",
      "stage_idx": 0,
      "lat": 37.56008332468039,
      "lng": 127.00130377275033,
      "area_m2": 2594,
      "units": 0,
      "contractor": "",
      "stage_date": "",
      "notes": "",
      "subway": "",
      "hangang": false,
      "completion_est": "",
      "ref_note": ""
    },
    {
      "id": "api_876",
      "name": "서소문8-1",
      "district": "중구",
      "dong": "",
      "type": "재개발",
      "stage": "의제처리구역",
      "stage_idx": 0,
      "lat": 37.56946614928078,
      "lng": 126.99520325745672,
      "area_m2": 694,
      "units": 0,
      "contractor": "",
      "stage_date": "",
      "notes": "",
      "subway": "",
      "hangang": false,
      "completion_est": "",
      "ref_note": ""
    },
    {
      "id": "api_877",
      "name": "서소문8-2",
      "district": "중구",
      "dong": "",
      "type": "재개발",
      "stage": "의제처리구역",
      "stage_idx": 0,
      "lat": 37.5615363536293,
      "lng": 126.99409233441624,
      "area_m2": 1208,
      "units": 0,
      "contractor": "",
      "stage_date": "",
      "notes": "",
      "subway": "",
      "hangang": false,
      "completion_est": "",
      "ref_note": ""
    },
    {
      "id": "api_878",
      "name": "서소문9",
      "district": "중구",
      "dong": "",
      "type": "재개발",
      "stage": "의제처리구역",
      "stage_idx": 0,
      "lat": 37.57223181631712,
      "lng": 126.99855863176465,
      "area_m2": 4253,
      "units": 0,
      "contractor": "",
      "stage_date": "",
      "notes": "",
      "subway": "",
      "hangang": false,
      "completion_est": "",
      "ref_note": ""
    },
    {
      "id": "api_895",
      "name": "신길우성2차·우창아파트 재건축 정비사업",
      "district": "영등포구",
      "dong": "",
      "type": "재개발",
      "stage": "의제처리구역",
      "stage_idx": 0,
      "lat": 37.53312364388056,
      "lng": 126.89923496623649,
      "area_m2": 0,
      "units": 0,
      "contractor": "",
      "stage_date": "",
      "notes": "",
      "subway": "",
      "hangang": false,
      "completion_est": "",
      "ref_note": ""
    },
    {
      "id": "api_896",
      "name": "제기 도시정비형 재개발구역",
      "district": "동대문구",
      "dong": "",
      "type": "재개발",
      "stage": "의제처리구역",
      "stage_idx": 0,
      "lat": 37.583784243330655,
      "lng": 127.03546517179639,
      "area_m2": 124640,
      "units": 0,
      "contractor": "",
      "stage_date": "",
      "notes": "",
      "subway": "",
      "hangang": false,
      "completion_est": "",
      "ref_note": ""
    },
    {
      "id": "api_898",
      "name": "신정1재정비촉진구역",
      "district": "양천구",
      "dong": "",
      "type": "재개발",
      "stage": "의제처리구역",
      "stage_idx": 0,
      "lat": 37.50931254727695,
      "lng": 126.8651142663895,
      "area_m2": 254260,
      "units": 0,
      "contractor": "",
      "stage_date": "",
      "notes": "",
      "subway": "",
      "hangang": false,
      "completion_est": "",
      "ref_note": ""
    },
    {
      "id": "api_899",
      "name": "천왕역세권 공공임대주택 건립관련 도시환경정비사업",
      "district": "구로구",
      "dong": "",
      "type": "재개발",
      "stage": "의제처리구역",
      "stage_idx": 0,
      "lat": 37.494347010076886,
      "lng": 126.8808592895329,
      "area_m2": 10451,
      "units": 0,
      "contractor": "",
      "stage_date": "",
      "notes": "",
      "subway": "",
      "hangang": false,
      "completion_est": "",
      "ref_note": ""
    },
    {
      "id": "api_900",
      "name": "둔촌동 삼익빌라 주택재건축정비사업",
      "district": "강동구",
      "dong": "",
      "type": "재개발",
      "stage": "의제처리구역",
      "stage_idx": 0,
      "lat": 37.53701714641484,
      "lng": 127.13087736287305,
      "area_m2": 9914,
      "units": 0,
      "contractor": "",
      "stage_date": "",
      "notes": "",
      "subway": "",
      "hangang": false,
      "completion_est": "",
      "ref_note": ""
    },
    {
      "id": "api_901",
      "name": "면목3 주택재건축구역",
      "district": "중랑구",
      "dong": "",
      "type": "재개발",
      "stage": "의제처리구역",
      "stage_idx": 0,
      "lat": 37.599425625048305,
      "lng": 127.09615064041928,
      "area_m2": 68255,
      "units": 0,
      "contractor": "",
      "stage_date": "",
      "notes": "",
      "subway": "",
      "hangang": false,
      "completion_est": "",
      "ref_note": ""
    },
    {
      "id": "api_902",
      "name": "이문1재정비촉진구역",
      "district": "동대문구",
      "dong": "",
      "type": "재개발",
      "stage": "의제처리구역",
      "stage_idx": 0,
      "lat": 37.57656503639445,
      "lng": 127.03888052948238,
      "area_m2": 144964,
      "units": 0,
      "contractor": "",
      "stage_date": "",
      "notes": "",
      "subway": "",
      "hangang": false,
      "completion_est": "",
      "ref_note": ""
    },
    {
      "id": "api_903",
      "name": "이문3(3-1) 재정비촉진구역",
      "district": "동대문구",
      "dong": "",
      "type": "재개발",
      "stage": "의제처리구역",
      "stage_idx": 0,
      "lat": 37.56776549231767,
      "lng": 127.03730758184604,
      "area_m2": 133505,
      "units": 0,
      "contractor": "",
      "stage_date": "",
      "notes": "",
      "subway": "",
      "hangang": false,
      "completion_est": "",
      "ref_note": ""
    },
    {
      "id": "api_905",
      "name": "장위10구역 ",
      "district": "성북구",
      "dong": "",
      "type": "재개발",
      "stage": "의제처리구역",
      "stage_idx": 0,
      "lat": 37.589486097263034,
      "lng": 127.01932827222737,
      "area_m2": 94072,
      "units": 0,
      "contractor": "",
      "stage_date": "",
      "notes": "",
      "subway": "",
      "hangang": false,
      "completion_est": "",
      "ref_note": ""
    },
    {
      "id": "api_906",
      "name": "오류2동 147번지 일대 주거환경관리 정비구역 ",
      "district": "구로구",
      "dong": "",
      "type": "재개발",
      "stage": "의제처리구역",
      "stage_idx": 0,
      "lat": 37.504036631501826,
      "lng": 126.89543633848167,
      "area_m2": 178630,
      "units": 0,
      "contractor": "",
      "stage_date": "",
      "notes": "",
      "subway": "",
      "hangang": false,
      "completion_est": "",
      "ref_note": ""
    },
    {
      "id": "api_907",
      "name": "신길10재정비촉진구역",
      "district": "영등포구",
      "dong": "",
      "type": "재개발",
      "stage": "의제처리구역",
      "stage_idx": 0,
      "lat": 37.52872859987364,
      "lng": 126.90213192973428,
      "area_m2": 32234,
      "units": 0,
      "contractor": "",
      "stage_date": "",
      "notes": "",
      "subway": "",
      "hangang": false,
      "completion_est": "",
      "ref_note": ""
    },
    {
      "id": "api_908",
      "name": "신문로제2구역 제8지구 도시정비형 재개발사업",
      "district": "종로구",
      "dong": "",
      "type": "재개발",
      "stage": "의제처리구역",
      "stage_idx": 0,
      "lat": 37.5925152495756,
      "lng": 126.98125850664904,
      "area_m2": 7052,
      "units": 0,
      "contractor": "",
      "stage_date": "",
      "notes": "",
      "subway": "",
      "hangang": false,
      "completion_est": "",
      "ref_note": ""
    },
    {
      "id": "api_909",
      "name": "홍은제14 주택재개발정비구역",
      "district": "서대문구",
      "dong": "",
      "type": "재개발",
      "stage": "의제처리구역",
      "stage_idx": 0,
      "lat": 37.58136077672825,
      "lng": 126.9373696810332,
      "area_m2": 22882,
      "units": 0,
      "contractor": "",
      "stage_date": "",
      "notes": "",
      "subway": "",
      "hangang": false,
      "completion_est": "",
      "ref_note": ""
    },
    {
      "id": "api_910",
      "name": "상봉7재정비촉진구역",
      "district": "중랑구",
      "dong": "",
      "type": "재개발",
      "stage": "의제처리구역",
      "stage_idx": 0,
      "lat": 37.61145561071338,
      "lng": 127.10266395325122,
      "area_m2": 14990,
      "units": 0,
      "contractor": "",
      "stage_date": "",
      "notes": "",
      "subway": "",
      "hangang": false,
      "completion_est": "",
      "ref_note": ""
    },
    {
      "id": "api_935",
      "name": "순화 도시정비형 재개발구역",
      "district": "중구",
      "dong": "",
      "type": "재개발",
      "stage": "의제처리구역",
      "stage_idx": 0,
      "lat": 37.56741514494471,
      "lng": 126.99708181692726,
      "area_m2": 15092,
      "units": 0,
      "contractor": "",
      "stage_date": "",
      "notes": "",
      "subway": "",
      "hangang": false,
      "completion_est": "",
      "ref_note": ""
    },
    {
      "id": "api_936",
      "name": "순화 도시정비형 재개발구역 제1-2지구",
      "district": "중구",
      "dong": "",
      "type": "재개발",
      "stage": "의제처리구역",
      "stage_idx": 0,
      "lat": 37.55467962857663,
      "lng": 126.99117610577467,
      "area_m2": 1979,
      "units": 0,
      "contractor": "",
      "stage_date": "",
      "notes": "",
      "subway": "",
      "hangang": false,
      "completion_est": "",
      "ref_note": ""
    },
    {
      "id": "api_937",
      "name": "삼선제5구역 주택재개발 정비사업",
      "district": "성북구",
      "dong": "",
      "type": "재개발",
      "stage": "의제처리구역",
      "stage_idx": 0,
      "lat": 37.58303508701336,
      "lng": 127.02239454147988,
      "area_m2": 63936,
      "units": 0,
      "contractor": "",
      "stage_date": "",
      "notes": "",
      "subway": "",
      "hangang": false,
      "completion_est": "",
      "ref_note": ""
    },
    {
      "id": "api_938",
      "name": "동선제2구역 주택재개발정비사업",
      "district": "성북구",
      "dong": "",
      "type": "재개발",
      "stage": "의제처리구역",
      "stage_idx": 0,
      "lat": 37.5959963320624,
      "lng": 127.011361250479,
      "area_m2": 15637,
      "units": 0,
      "contractor": "",
      "stage_date": "",
      "notes": "",
      "subway": "",
      "hangang": false,
      "completion_est": "",
      "ref_note": ""
    },
    {
      "id": "api_940",
      "name": "이문1재정비촉진구역",
      "district": "동대문구",
      "dong": "",
      "type": "재개발",
      "stage": "의제처리구역",
      "stage_idx": 0,
      "lat": 37.57860903766671,
      "lng": 127.04069192857774,
      "area_m2": 144856,
      "units": 0,
      "contractor": "",
      "stage_date": "",
      "notes": "",
      "subway": "",
      "hangang": false,
      "completion_est": "",
      "ref_note": ""
    },
    {
      "id": "api_941",
      "name": "잠실진주아파트 재건축사업",
      "district": "송파구",
      "dong": "",
      "type": "재개발",
      "stage": "의제처리구역",
      "stage_idx": 0,
      "lat": 37.50673944717798,
      "lng": 127.11348876186803,
      "area_m2": 112558,
      "units": 0,
      "contractor": "",
      "stage_date": "",
      "notes": "",
      "subway": "",
      "hangang": false,
      "completion_est": "",
      "ref_note": ""
    },
    {
      "id": "api_942",
      "name": "신촌지역(서대문)도시정비형 재개발구역",
      "district": "서대문구",
      "dong": "",
      "type": "재개발",
      "stage": "의제처리구역",
      "stage_idx": 0,
      "lat": 37.5840927885588,
      "lng": 126.946572361839,
      "area_m2": 4597,
      "units": 0,
      "contractor": "",
      "stage_date": "",
      "notes": "",
      "subway": "",
      "hangang": false,
      "completion_est": "",
      "ref_note": ""
    },
    {
      "id": "api_943",
      "name": "문래동1가A 도시정비형 재개발구역 ",
      "district": "영등포구",
      "dong": "",
      "type": "재개발",
      "stage": "의제처리구역",
      "stage_idx": 0,
      "lat": 37.52821399291349,
      "lng": 126.89287691794688,
      "area_m2": 0,
      "units": 0,
      "contractor": "",
      "stage_date": "",
      "notes": "",
      "subway": "",
      "hangang": false,
      "completion_est": "",
      "ref_note": ""
    },
    {
      "id": "api_944",
      "name": "문래동1가B 도시정비형 재개발구역 ",
      "district": "영등포구",
      "dong": "",
      "type": "재개발",
      "stage": "의제처리구역",
      "stage_idx": 0,
      "lat": 37.52371409927096,
      "lng": 126.90464112634255,
      "area_m2": 0,
      "units": 0,
      "contractor": "",
      "stage_date": "",
      "notes": "",
      "subway": "",
      "hangang": false,
      "completion_est": "",
      "ref_note": ""
    },
    {
      "id": "api_964",
      "name": "문래동2가A 도시정비형 재개발구역 ",
      "district": "영등포구",
      "dong": "",
      "type": "재개발",
      "stage": "의제처리구역",
      "stage_idx": 0,
      "lat": 37.52556537251936,
      "lng": 126.89137652233265,
      "area_m2": 0,
      "units": 0,
      "contractor": "",
      "stage_date": "",
      "notes": "",
      "subway": "",
      "hangang": false,
      "completion_est": "",
      "ref_note": ""
    },
    {
      "id": "api_965",
      "name": "문래동2가B 도시정비형 재개발구역 ",
      "district": "영등포구",
      "dong": "",
      "type": "재개발",
      "stage": "의제처리구역",
      "stage_idx": 0,
      "lat": 37.52662737677445,
      "lng": 126.89796438646519,
      "area_m2": 0,
      "units": 0,
      "contractor": "",
      "stage_date": "",
      "notes": "",
      "subway": "",
      "hangang": false,
      "completion_est": "",
      "ref_note": ""
    },
    {
      "id": "api_966",
      "name": "문래동4가 도시환경정비구역",
      "district": "영등포구",
      "dong": "",
      "type": "재개발",
      "stage": "의제처리구역",
      "stage_idx": 0,
      "lat": 37.52451933616146,
      "lng": 126.89251906712195,
      "area_m2": 94087,
      "units": 0,
      "contractor": "",
      "stage_date": "",
      "notes": "",
      "subway": "",
      "hangang": false,
      "completion_est": "",
      "ref_note": ""
    },
    {
      "id": "api_967",
      "name": "북아현2 재정비촉진구역 ",
      "district": "서대문구",
      "dong": "",
      "type": "재개발",
      "stage": "의제처리구역",
      "stage_idx": 0,
      "lat": 37.58374937126037,
      "lng": 126.93069200627957,
      "area_m2": 124270,
      "units": 0,
      "contractor": "",
      "stage_date": "",
      "notes": "",
      "subway": "",
      "hangang": false,
      "completion_est": "",
      "ref_note": ""
    },
    {
      "id": "api_968",
      "name": "효창제6구역주택재개발정비사업",
      "district": "용산구",
      "dong": "",
      "type": "재개발",
      "stage": "의제처리구역",
      "stage_idx": 0,
      "lat": 37.52922110167089,
      "lng": 126.98358651027567,
      "area_m2": 18171,
      "units": 0,
      "contractor": "",
      "stage_date": "",
      "notes": "",
      "subway": "",
      "hangang": false,
      "completion_est": "",
      "ref_note": ""
    },
    {
      "id": "api_969",
      "name": "방화5재정비촉진구역 (주택재건축사업) ",
      "district": "강서구",
      "dong": "",
      "type": "재개발",
      "stage": "의제처리구역",
      "stage_idx": 0,
      "lat": 37.55761309255356,
      "lng": 126.84940171931089,
      "area_m2": 99520,
      "units": 0,
      "contractor": "",
      "stage_date": "",
      "notes": "",
      "subway": "",
      "hangang": false,
      "completion_est": "",
      "ref_note": ""
    },
    {
      "id": "api_971",
      "name": "수색4재정비촉진구역(주택재개발사업)",
      "district": "은평구",
      "dong": "",
      "type": "재개발",
      "stage": "의제처리구역",
      "stage_idx": 0,
      "lat": 37.6022469254921,
      "lng": 126.93768986593979,
      "area_m2": 61889,
      "units": 0,
      "contractor": "",
      "stage_date": "",
      "notes": "",
      "subway": "",
      "hangang": false,
      "completion_est": "",
      "ref_note": ""
    },
    {
      "id": "api_972",
      "name": "가재울6 재정비촉진구역",
      "district": "서대문구",
      "dong": "",
      "type": "재개발",
      "stage": "의제처리구역",
      "stage_idx": 0,
      "lat": 37.587179036426754,
      "lng": 126.94015752875701,
      "area_m2": 48084,
      "units": 0,
      "contractor": "",
      "stage_date": "",
      "notes": "",
      "subway": "",
      "hangang": false,
      "completion_est": "",
      "ref_note": ""
    },
    {
      "id": "api_987",
      "name": "도시정비형 재개발사업구역",
      "district": "중구",
      "dong": "",
      "type": "재개발",
      "stage": "의제처리구역",
      "stage_idx": 0,
      "lat": 37.55634939420888,
      "lng": 126.99156284751163,
      "area_m2": 2918,
      "units": 0,
      "contractor": "",
      "stage_date": "",
      "notes": "",
      "subway": "",
      "hangang": false,
      "completion_est": "",
      "ref_note": ""
    },
    {
      "id": "api_990",
      "name": "중구 다산권 성곽마을 관리형 주거환경개선사업",
      "district": "중구",
      "dong": "",
      "type": "재개발",
      "stage": "의제처리구역",
      "stage_idx": 0,
      "lat": 37.56032510788522,
      "lng": 126.98841718808545,
      "area_m2": 0,
      "units": 0,
      "contractor": "",
      "stage_date": "",
      "notes": "",
      "subway": "",
      "hangang": false,
      "completion_est": "",
      "ref_note": ""
    },
    {
      "id": "api_991",
      "name": "서울특별시 마포구 창전동 27-19호 일대",
      "district": "마포구",
      "dong": "",
      "type": "재개발",
      "stage": "의제처리구역",
      "stage_idx": 0,
      "lat": 37.56241459123007,
      "lng": 126.90462690831706,
      "area_m2": 14770,
      "units": 0,
      "contractor": "",
      "stage_date": "",
      "notes": "",
      "subway": "",
      "hangang": false,
      "completion_est": "",
      "ref_note": ""
    },
    {
      "id": "api_1013",
      "name": "개포시영아파트 중심상가재건축정비사업",
      "district": "강남구",
      "dong": "",
      "type": "재개발",
      "stage": "의제처리구역",
      "stage_idx": 0,
      "lat": 37.52442548483976,
      "lng": 127.03863690715085,
      "area_m2": 0,
      "units": 0,
      "contractor": "",
      "stage_date": "",
      "notes": "",
      "subway": "",
      "hangang": false,
      "completion_est": "",
      "ref_note": ""
    },
    {
      "id": "api_1016",
      "name": "국제빌딩주변 도시정비형 재개발구역",
      "district": "용산구",
      "dong": "",
      "type": "재개발",
      "stage": "의제처리구역",
      "stage_idx": 0,
      "lat": 37.53406296217064,
      "lng": 126.97023639958068,
      "area_m2": 109965,
      "units": 0,
      "contractor": "",
      "stage_date": "",
      "notes": "",
      "subway": "",
      "hangang": false,
      "completion_est": "",
      "ref_note": ""
    },
    {
      "id": "api_1017",
      "name": "4구역",
      "district": "용산구",
      "dong": "",
      "type": "재개발",
      "stage": "의제처리구역",
      "stage_idx": 0,
      "lat": 37.53942880822085,
      "lng": 126.9785621620079,
      "area_m2": 53066,
      "units": 0,
      "contractor": "",
      "stage_date": "",
      "notes": "",
      "subway": "",
      "hangang": false,
      "completion_est": "",
      "ref_note": ""
    },
    {
      "id": "api_1018",
      "name": "응암제11구역 주택재개발정비사업",
      "district": "은평구",
      "dong": "",
      "type": "재개발",
      "stage": "의제처리구역",
      "stage_idx": 0,
      "lat": 37.6094679052734,
      "lng": 126.93831473829945,
      "area_m2": 36242,
      "units": 0,
      "contractor": "",
      "stage_date": "",
      "notes": "",
      "subway": "",
      "hangang": false,
      "completion_est": "",
      "ref_note": ""
    },
    {
      "id": "api_1020",
      "name": "서소문8-3",
      "district": "중구",
      "dong": "",
      "type": "재개발",
      "stage": "의제처리구역",
      "stage_idx": 0,
      "lat": 37.56548054061397,
      "lng": 127.00051399214318,
      "area_m2": 1172,
      "units": 0,
      "contractor": "",
      "stage_date": "",
      "notes": "",
      "subway": "",
      "hangang": false,
      "completion_est": "",
      "ref_note": ""
    },
    {
      "id": "api_1021",
      "name": "갈현제1구역 주택재개발정비사업",
      "district": "은평구",
      "dong": "",
      "type": "재개발",
      "stage": "의제처리구역",
      "stage_idx": 0,
      "lat": 37.59858903771922,
      "lng": 126.93428470569981,
      "area_m2": 238850,
      "units": 0,
      "contractor": "",
      "stage_date": "",
      "notes": "",
      "subway": "",
      "hangang": false,
      "completion_est": "",
      "ref_note": ""
    },
    {
      "id": "api_1022",
      "name": "용답동 108-1번지 일대 주택재개발정비사업",
      "district": "성동구",
      "dong": "",
      "type": "재개발",
      "stage": "의제처리구역",
      "stage_idx": 0,
      "lat": 37.571806909544684,
      "lng": 127.03190600171433,
      "area_m2": 73341,
      "units": 0,
      "contractor": "",
      "stage_date": "",
      "notes": "",
      "subway": "",
      "hangang": false,
      "completion_est": "",
      "ref_note": ""
    },
    {
      "id": "api_1023",
      "name": "노량진6재정비촉진구역 ",
      "district": "동작구",
      "dong": "",
      "type": "재개발",
      "stage": "의제처리구역",
      "stage_idx": 0,
      "lat": 37.502508739518134,
      "lng": 126.94692071761322,
      "area_m2": 72809,
      "units": 0,
      "contractor": "",
      "stage_date": "",
      "notes": "",
      "subway": "",
      "hangang": false,
      "completion_est": "",
      "ref_note": ""
    },
    {
      "id": "api_1038",
      "name": "북아현2 재정비촉진구역 ",
      "district": "서대문구",
      "dong": "",
      "type": "재개발",
      "stage": "의제처리구역",
      "stage_idx": 0,
      "lat": 37.58637335279325,
      "lng": 126.94294871014777,
      "area_m2": 120055,
      "units": 0,
      "contractor": "",
      "stage_date": "",
      "notes": "",
      "subway": "",
      "hangang": false,
      "completion_est": "",
      "ref_note": ""
    },
    {
      "id": "api_1040",
      "name": "한강맨션아파트 주택재건축정비구역",
      "district": "용산구",
      "dong": "",
      "type": "재개발",
      "stage": "의제처리구역",
      "stage_idx": 0,
      "lat": 37.536779578463005,
      "lng": 126.97069874677261,
      "area_m2": 84096,
      "units": 0,
      "contractor": "",
      "stage_date": "",
      "notes": "",
      "subway": "",
      "hangang": false,
      "completion_est": "",
      "ref_note": ""
    },
    {
      "id": "api_1041",
      "name": "상계4재정비촉진구역 ",
      "district": "노원구",
      "dong": "",
      "type": "재개발",
      "stage": "의제처리구역",
      "stage_idx": 0,
      "lat": 37.644404267077,
      "lng": 127.05775320603708,
      "area_m2": 39960,
      "units": 0,
      "contractor": "",
      "stage_date": "",
      "notes": "",
      "subway": "",
      "hangang": false,
      "completion_est": "",
      "ref_note": ""
    },
    {
      "id": "api_1042",
      "name": "가락삼익맨숀 아파트 재건축정비사업",
      "district": "송파구",
      "dong": "",
      "type": "재개발",
      "stage": "의제처리구역",
      "stage_idx": 0,
      "lat": 37.5125415961915,
      "lng": 127.10949532897217,
      "area_m2": 62059,
      "units": 0,
      "contractor": "",
      "stage_date": "",
      "notes": "",
      "subway": "",
      "hangang": false,
      "completion_est": "",
      "ref_note": ""
    },
    {
      "id": "api_1043",
      "name": "수정아파트 재건축정비사업",
      "district": "양천구",
      "dong": "",
      "type": "재개발",
      "stage": "의제처리구역",
      "stage_idx": 0,
      "lat": 37.5266879295576,
      "lng": 126.8721818975421,
      "area_m2": 0,
      "units": 0,
      "contractor": "",
      "stage_date": "",
      "notes": "",
      "subway": "",
      "hangang": false,
      "completion_est": "",
      "ref_note": ""
    },
    {
      "id": "api_1044",
      "name": "개포시영아파트 주택재건축정비사업",
      "district": "강남구",
      "dong": "",
      "type": "재개발",
      "stage": "의제처리구역",
      "stage_idx": 0,
      "lat": 37.525604469162666,
      "lng": 127.04951526084277,
      "area_m2": 115910,
      "units": 0,
      "contractor": "",
      "stage_date": "",
      "notes": "",
      "subway": "",
      "hangang": false,
      "completion_est": "",
      "ref_note": ""
    },
    {
      "id": "api_1046",
      "name": "월계동 487-17일대 주택재건축 정비사업",
      "district": "노원구",
      "dong": "",
      "type": "재개발",
      "stage": "의제처리구역",
      "stage_idx": 0,
      "lat": 37.6551846448463,
      "lng": 127.0662411370912,
      "area_m2": 14704,
      "units": 0,
      "contractor": "",
      "stage_date": "",
      "notes": "",
      "subway": "",
      "hangang": false,
      "completion_est": "",
      "ref_note": ""
    },
    {
      "id": "api_1047",
      "name": "응암제2구역 주택재개발정비사업",
      "district": "은평구",
      "dong": "",
      "type": "재개발",
      "stage": "의제처리구역",
      "stage_idx": 0,
      "lat": 37.609661130238116,
      "lng": 126.93289856960988,
      "area_m2": 120765,
      "units": 0,
      "contractor": "",
      "stage_date": "",
      "notes": "",
      "subway": "",
      "hangang": false,
      "completion_est": "",
      "ref_note": ""
    },
    {
      "id": "api_1111",
      "name": "가락프라자아파트 주택재건축사업 ",
      "district": "송파구",
      "dong": "",
      "type": "재개발",
      "stage": "의제처리구역",
      "stage_idx": 0,
      "lat": 37.50862365285878,
      "lng": 127.0965448615723,
      "area_m2": 47807,
      "units": 0,
      "contractor": "",
      "stage_date": "",
      "notes": "",
      "subway": "",
      "hangang": false,
      "completion_est": "",
      "ref_note": ""
    },
    {
      "id": "api_1112",
      "name": "월계동 487-17번지 일대 주택재건축정비사업",
      "district": "노원구",
      "dong": "",
      "type": "재개발",
      "stage": "의제처리구역",
      "stage_idx": 0,
      "lat": 37.651079263860346,
      "lng": 127.06197799513455,
      "area_m2": 14704,
      "units": 0,
      "contractor": "",
      "stage_date": "",
      "notes": "",
      "subway": "",
      "hangang": false,
      "completion_est": "",
      "ref_note": ""
    },
    {
      "id": "api_1127",
      "name": "성북제2-신월곡1 결합정비사업",
      "district": "성북구",
      "dong": "",
      "type": "재개발",
      "stage": "의제처리구역",
      "stage_idx": 0,
      "lat": 37.58171390841148,
      "lng": 127.02394209788648,
      "area_m2": 129866,
      "units": 0,
      "contractor": "",
      "stage_date": "",
      "notes": "",
      "subway": "",
      "hangang": false,
      "completion_est": "",
      "ref_note": ""
    },
    {
      "id": "api_1128",
      "name": "연희 제1주택재건축정비구역",
      "district": "서대문구",
      "dong": "",
      "type": "재개발",
      "stage": "의제처리구역",
      "stage_idx": 0,
      "lat": 37.580140316441906,
      "lng": 126.94166032708132,
      "area_m2": 19468,
      "units": 0,
      "contractor": "",
      "stage_date": "",
      "notes": "",
      "subway": "",
      "hangang": false,
      "completion_est": "",
      "ref_note": ""
    },
    {
      "id": "api_1293",
      "name": "대흥제2구역주택재개발사업",
      "district": "마포구",
      "dong": "",
      "type": "재개발",
      "stage": "의제처리구역",
      "stage_idx": 0,
      "lat": 37.57367229775998,
      "lng": 126.90366257296216,
      "area_m2": 62245,
      "units": 0,
      "contractor": "",
      "stage_date": "",
      "notes": "",
      "subway": "",
      "hangang": false,
      "completion_est": "",
      "ref_note": ""
    },
    {
      "id": "api_1542",
      "name": "장위1 재정비촉진구역",
      "district": "성북구",
      "dong": "",
      "type": "재개발",
      "stage": "의제처리구역",
      "stage_idx": 0,
      "lat": 37.590983259504576,
      "lng": 127.01537058212355,
      "area_m2": 80513,
      "units": 0,
      "contractor": "",
      "stage_date": "",
      "notes": "",
      "subway": "",
      "hangang": false,
      "completion_est": "",
      "ref_note": ""
    },
    {
      "id": "api_1976",
      "name": "대흥제2구역 주택재개발사업",
      "district": "마포구",
      "dong": "",
      "type": "재개발",
      "stage": "의제처리구역",
      "stage_idx": 0,
      "lat": 37.56757399991212,
      "lng": 126.91785987281094,
      "area_m2": 62260,
      "units": 0,
      "contractor": "",
      "stage_date": "",
      "notes": "",
      "subway": "",
      "hangang": false,
      "completion_est": "",
      "ref_note": ""
    },
    {
      "id": "api_2055",
      "name": "을지로2가 19-1",
      "district": "중구",
      "dong": "",
      "type": "재개발",
      "stage": "의제처리구역",
      "stage_idx": 0,
      "lat": 37.55587083567145,
      "lng": 127.00344018295159,
      "area_m2": 1477,
      "units": 0,
      "contractor": "",
      "stage_date": "",
      "notes": "",
      "subway": "",
      "hangang": false,
      "completion_est": "",
      "ref_note": ""
    },
    {
      "id": "api_2083",
      "name": "이문4재정비촉진구역",
      "district": "동대문구",
      "dong": "",
      "type": "재개발",
      "stage": "의제처리구역",
      "stage_idx": 0,
      "lat": 37.58072516623207,
      "lng": 127.04394538982544,
      "area_m2": 151388,
      "units": 0,
      "contractor": "",
      "stage_date": "",
      "notes": "",
      "subway": "",
      "hangang": false,
      "completion_est": "",
      "ref_note": ""
    },
    {
      "id": "api_2084",
      "name": "신길14재정비촉진구역",
      "district": "영등포구",
      "dong": "",
      "type": "재개발",
      "stage": "의제처리구역",
      "stage_idx": 0,
      "lat": 37.51944774804795,
      "lng": 126.88843935765378,
      "area_m2": 27844,
      "units": 0,
      "contractor": "",
      "stage_date": "",
      "notes": "",
      "subway": "",
      "hangang": false,
      "completion_est": "",
      "ref_note": ""
    },
    {
      "id": "api_2085",
      "name": "공평지구<H9>",
      "district": "종로구",
      "dong": "",
      "type": "재개발",
      "stage": "의제처리구역",
      "stage_idx": 0,
      "lat": 37.583895035318854,
      "lng": 126.96954043814344,
      "area_m2": 127,
      "units": 0,
      "contractor": "",
      "stage_date": "",
      "notes": "",
      "subway": "",
      "hangang": false,
      "completion_est": "",
      "ref_note": ""
    },
    {
      "id": "api_2086",
      "name": "을지로2가 19-3",
      "district": "중구",
      "dong": "",
      "type": "재개발",
      "stage": "의제처리구역",
      "stage_idx": 0,
      "lat": 37.56475041446174,
      "lng": 127.00499307509786,
      "area_m2": 1477,
      "units": 0,
      "contractor": "",
      "stage_date": "",
      "notes": "",
      "subway": "",
      "hangang": false,
      "completion_est": "",
      "ref_note": ""
    },
    {
      "id": "api_2087",
      "name": "을지로2가 19-4",
      "district": "중구",
      "dong": "",
      "type": "재개발",
      "stage": "의제처리구역",
      "stage_idx": 0,
      "lat": 37.570100854059476,
      "lng": 127.00709451925633,
      "area_m2": 1477,
      "units": 0,
      "contractor": "",
      "stage_date": "",
      "notes": "",
      "subway": "",
      "hangang": false,
      "completion_est": "",
      "ref_note": ""
    },
    {
      "id": "api_2088",
      "name": "을지로2가 20-1",
      "district": "중구",
      "dong": "",
      "type": "재개발",
      "stage": "의제처리구역",
      "stage_idx": 0,
      "lat": 37.57178613542543,
      "lng": 126.99569503692028,
      "area_m2": 0,
      "units": 0,
      "contractor": "",
      "stage_date": "",
      "notes": "",
      "subway": "",
      "hangang": false,
      "completion_est": "",
      "ref_note": ""
    },
    {
      "id": "api_2089",
      "name": "을지로2가 20-2",
      "district": "중구",
      "dong": "",
      "type": "재개발",
      "stage": "의제처리구역",
      "stage_idx": 0,
      "lat": 37.57007186876316,
      "lng": 127.0050474348455,
      "area_m2": 0,
      "units": 0,
      "contractor": "",
      "stage_date": "",
      "notes": "",
      "subway": "",
      "hangang": false,
      "completion_est": "",
      "ref_note": ""
    },
    {
      "id": "api_2090",
      "name": "을지로2가 18-5",
      "district": "중구",
      "dong": "",
      "type": "재개발",
      "stage": "의제처리구역",
      "stage_idx": 0,
      "lat": 37.568135326265704,
      "lng": 126.99928851589212,
      "area_m2": 1477,
      "units": 0,
      "contractor": "",
      "stage_date": "",
      "notes": "",
      "subway": "",
      "hangang": false,
      "completion_est": "",
      "ref_note": ""
    },
    {
      "id": "api_2092",
      "name": "신촌지역(마포) 4-15지구 도시정비형 재개발구역",
      "district": "마포구",
      "dong": "",
      "type": "재개발",
      "stage": "의제처리구역",
      "stage_idx": 0,
      "lat": 37.560060577312264,
      "lng": 126.91459813473534,
      "area_m2": 3258,
      "units": 0,
      "contractor": "",
      "stage_date": "",
      "notes": "",
      "subway": "",
      "hangang": false,
      "completion_est": "",
      "ref_note": ""
    },
    {
      "id": "api_2093",
      "name": "마포로1 도시정비형 재개발구역",
      "district": "마포구",
      "dong": "",
      "type": "재개발",
      "stage": "의제처리구역",
      "stage_idx": 0,
      "lat": 37.56001798950667,
      "lng": 126.90944560164728,
      "area_m2": 249777,
      "units": 0,
      "contractor": "",
      "stage_date": "",
      "notes": "",
      "subway": "",
      "hangang": false,
      "completion_est": "",
      "ref_note": ""
    },
    {
      "id": "api_2094",
      "name": "마포로1 도시정비형 재개발구역 제28.29지구",
      "district": "마포구",
      "dong": "",
      "type": "재개발",
      "stage": "의제처리구역",
      "stage_idx": 0,
      "lat": 37.56446720081318,
      "lng": 126.90452297145664,
      "area_m2": 3749,
      "units": 0,
      "contractor": "",
      "stage_date": "",
      "notes": "",
      "subway": "",
      "hangang": false,
      "completion_est": "",
      "ref_note": ""
    },
    {
      "id": "api_2096",
      "name": "을지로3가 도시정비형 재개발구역 제12지구",
      "district": "중구",
      "dong": "",
      "type": "재개발",
      "stage": "의제처리구역",
      "stage_idx": 0,
      "lat": 37.57219782062646,
      "lng": 127.00270061070078,
      "area_m2": 3924,
      "units": 0,
      "contractor": "",
      "stage_date": "",
      "notes": "",
      "subway": "",
      "hangang": false,
      "completion_est": "",
      "ref_note": ""
    },
    {
      "id": "api_2098",
      "name": "상계주공5단지 재건축정비구역",
      "district": "노원구",
      "dong": "",
      "type": "재개발",
      "stage": "의제처리구역",
      "stage_idx": 0,
      "lat": 37.66169381666304,
      "lng": 127.05865582389444,
      "area_m2": 0,
      "units": 0,
      "contractor": "",
      "stage_date": "",
      "notes": "",
      "subway": "",
      "hangang": false,
      "completion_est": "",
      "ref_note": ""
    },
    {
      "id": "api_2101",
      "name": "고덕주공3단지아파트 주택재건축 정비구역",
      "district": "강동구",
      "dong": "",
      "type": "재개발",
      "stage": "의제처리구역",
      "stage_idx": 0,
      "lat": 37.52975727607315,
      "lng": 127.13305584333627,
      "area_m2": 211408,
      "units": 0,
      "contractor": "",
      "stage_date": "",
      "notes": "",
      "subway": "",
      "hangang": false,
      "completion_est": "",
      "ref_note": ""
    },
    {
      "id": "api_2102",
      "name": "마포로1구역 제12.13지구 도시정비형 재개발사업",
      "district": "마포구",
      "dong": "",
      "type": "재개발",
      "stage": "의제처리구역",
      "stage_idx": 0,
      "lat": 37.5632883226076,
      "lng": 126.91469746039606,
      "area_m2": 2568,
      "units": 0,
      "contractor": "",
      "stage_date": "",
      "notes": "",
      "subway": "",
      "hangang": false,
      "completion_est": "",
      "ref_note": ""
    },
    {
      "id": "api_2103",
      "name": "면목1 역세권 장기전세주택 도시환경정비사업",
      "district": "중랑구",
      "dong": "",
      "type": "재개발",
      "stage": "의제처리구역",
      "stage_idx": 0,
      "lat": 37.60536207029248,
      "lng": 127.0868762368997,
      "area_m2": 3858,
      "units": 0,
      "contractor": "",
      "stage_date": "",
      "notes": "",
      "subway": "",
      "hangang": false,
      "completion_est": "",
      "ref_note": ""
    },
    {
      "id": "api_2104",
      "name": "송파미성아파트 재건축정비구역",
      "district": "송파구",
      "dong": "",
      "type": "재개발",
      "stage": "의제처리구역",
      "stage_idx": 0,
      "lat": 37.51974880767349,
      "lng": 127.09931754399955,
      "area_m2": 0,
      "units": 0,
      "contractor": "",
      "stage_date": "",
      "notes": "",
      "subway": "",
      "hangang": false,
      "completion_est": "",
      "ref_note": ""
    },
    {
      "id": "api_2105",
      "name": "사당2 주택재건축 정비사업",
      "district": "동작구",
      "dong": "",
      "type": "재개발",
      "stage": "의제처리구역",
      "stage_idx": 0,
      "lat": 37.50827489995769,
      "lng": 126.93517888281515,
      "area_m2": 49449,
      "units": 0,
      "contractor": "",
      "stage_date": "",
      "notes": "",
      "subway": "",
      "hangang": false,
      "completion_est": "",
      "ref_note": ""
    },
    {
      "id": "api_2106",
      "name": "신길8재정비촉진구역",
      "district": "영등포구",
      "dong": "",
      "type": "재개발",
      "stage": "의제처리구역",
      "stage_idx": 0,
      "lat": 37.524473139986284,
      "lng": 126.90594487303049,
      "area_m2": 32287,
      "units": 0,
      "contractor": "",
      "stage_date": "",
      "notes": "",
      "subway": "",
      "hangang": false,
      "completion_est": "",
      "ref_note": ""
    },
    {
      "id": "api_2107",
      "name": "가락1차현대아파트 재건축정비사업",
      "district": "송파구",
      "dong": "",
      "type": "재개발",
      "stage": "의제처리구역",
      "stage_idx": 0,
      "lat": 37.50563681212961,
      "lng": 127.11227318887296,
      "area_m2": 33953,
      "units": 0,
      "contractor": "",
      "stage_date": "",
      "notes": "",
      "subway": "",
      "hangang": false,
      "completion_est": "",
      "ref_note": ""
    },
    {
      "id": "api_2108",
      "name": "강북2재정비촉진구역",
      "district": "강북구",
      "dong": "",
      "type": "재개발",
      "stage": "의제처리구역",
      "stage_idx": 0,
      "lat": 37.64767920031683,
      "lng": 127.026989988704,
      "area_m2": 18958,
      "units": 0,
      "contractor": "",
      "stage_date": "",
      "notes": "",
      "subway": "",
      "hangang": false,
      "completion_est": "",
      "ref_note": ""
    },
    {
      "id": "api_2226",
      "name": "응암제1구역 주택재개발정비사업",
      "district": "은평구",
      "dong": "",
      "type": "재개발",
      "stage": "의제처리구역",
      "stage_idx": 0,
      "lat": 37.61182283057841,
      "lng": 126.92807719637742,
      "area_m2": 43938,
      "units": 0,
      "contractor": "",
      "stage_date": "",
      "notes": "",
      "subway": "",
      "hangang": false,
      "completion_est": "",
      "ref_note": ""
    },
    {
      "id": "api_2227",
      "name": "사당3 재건축 정비사업",
      "district": "동작구",
      "dong": "",
      "type": "재개발",
      "stage": "의제처리구역",
      "stage_idx": 0,
      "lat": 37.50938735205068,
      "lng": 126.94356003602446,
      "area_m2": 30107,
      "units": 0,
      "contractor": "",
      "stage_date": "",
      "notes": "",
      "subway": "",
      "hangang": false,
      "completion_est": "",
      "ref_note": ""
    },
    {
      "id": "api_2228",
      "name": "마포로1구역 제28.29지구 도시정비형 재개발구역",
      "district": "마포구",
      "dong": "",
      "type": "재개발",
      "stage": "의제처리구역",
      "stage_idx": 0,
      "lat": 37.57279105575761,
      "lng": 126.90309758883578,
      "area_m2": 3678,
      "units": 0,
      "contractor": "",
      "stage_date": "",
      "notes": "",
      "subway": "",
      "hangang": false,
      "completion_est": "",
      "ref_note": ""
    },
    {
      "id": "api_2229",
      "name": "을지로3가 도시정비형 재개발구역 제9지구",
      "district": "중구",
      "dong": "",
      "type": "재개발",
      "stage": "의제처리구역",
      "stage_idx": 0,
      "lat": 37.56694169061909,
      "lng": 127.00505407913886,
      "area_m2": 1945,
      "units": 0,
      "contractor": "",
      "stage_date": "",
      "notes": "",
      "subway": "",
      "hangang": false,
      "completion_est": "",
      "ref_note": ""
    },
    {
      "id": "api_2231",
      "name": "신동아1.2차아파트 주택재건축 정비사업",
      "district": "강동구",
      "dong": "",
      "type": "재개발",
      "stage": "의제처리구역",
      "stage_idx": 0,
      "lat": 37.536186744430935,
      "lng": 127.13334912637255,
      "area_m2": 46267,
      "units": 0,
      "contractor": "",
      "stage_date": "",
      "notes": "",
      "subway": "",
      "hangang": false,
      "completion_est": "",
      "ref_note": ""
    },
    {
      "id": "api_2234",
      "name": "영등포 도심 역세권 도시정비형 재개발구역",
      "district": "영등포구",
      "dong": "",
      "type": "재개발",
      "stage": "의제처리구역",
      "stage_idx": 0,
      "lat": 37.53166056331654,
      "lng": 126.88857424471753,
      "area_m2": 0,
      "units": 0,
      "contractor": "",
      "stage_date": "",
      "notes": "",
      "subway": "",
      "hangang": false,
      "completion_est": "",
      "ref_note": ""
    },
    {
      "id": "api_2235",
      "name": "홍은제6주택 재건축정비구역",
      "district": "서대문구",
      "dong": "",
      "type": "재개발",
      "stage": "의제처리구역",
      "stage_idx": 0,
      "lat": 37.57391872539049,
      "lng": 126.94296443853611,
      "area_m2": 13078,
      "units": 0,
      "contractor": "",
      "stage_date": "",
      "notes": "",
      "subway": "",
      "hangang": false,
      "completion_est": "",
      "ref_note": ""
    },
    {
      "id": "api_2236",
      "name": "마포로5 도시정비형 재개발구역",
      "district": "중구",
      "dong": "",
      "type": "재개발",
      "stage": "의제처리구역",
      "stage_idx": 0,
      "lat": 37.558825367566484,
      "lng": 126.99337593046491,
      "area_m2": 60055,
      "units": 0,
      "contractor": "",
      "stage_date": "",
      "notes": "",
      "subway": "",
      "hangang": false,
      "completion_est": "",
      "ref_note": ""
    },
    {
      "id": "api_2237",
      "name": "마포로5구역 10.11지구 ",
      "district": "중구",
      "dong": "",
      "type": "재개발",
      "stage": "의제처리구역",
      "stage_idx": 0,
      "lat": 37.56895305492264,
      "lng": 126.98913089305856,
      "area_m2": 11061,
      "units": 0,
      "contractor": "",
      "stage_date": "",
      "notes": "",
      "subway": "",
      "hangang": false,
      "completion_est": "",
      "ref_note": ""
    },
    {
      "id": "api_2296",
      "name": "뉴서울아파트, 개나리 열망연립 재건축 정비사업",
      "district": "관악구",
      "dong": "",
      "type": "재개발",
      "stage": "의제처리구역",
      "stage_idx": 0,
      "lat": 37.46973872897357,
      "lng": 126.94234613354574,
      "area_m2": 0,
      "units": 0,
      "contractor": "",
      "stage_date": "",
      "notes": "",
      "subway": "",
      "hangang": false,
      "completion_est": "",
      "ref_note": ""
    },
    {
      "id": "api_2425",
      "name": "고덕주공2단지아파트 주택재건축정비사업",
      "district": "강동구",
      "dong": "",
      "type": "재개발",
      "stage": "의제처리구역",
      "stage_idx": 0,
      "lat": 37.52418504041852,
      "lng": 127.1142927234473,
      "area_m2": 246210,
      "units": 0,
      "contractor": "",
      "stage_date": "",
      "notes": "",
      "subway": "",
      "hangang": false,
      "completion_est": "",
      "ref_note": ""
    },
    {
      "id": "api_2533",
      "name": "서소문8-4",
      "district": "중구",
      "dong": "",
      "type": "재개발",
      "stage": "의제처리구역",
      "stage_idx": 0,
      "lat": 37.55859247609386,
      "lng": 126.99945412359114,
      "area_m2": 1172,
      "units": 0,
      "contractor": "",
      "stage_date": "",
      "notes": "",
      "subway": "",
      "hangang": false,
      "completion_est": "",
      "ref_note": ""
    },
    {
      "id": "api_2645",
      "name": "잠실미성크로바아파트 재건축사업",
      "district": "송파구",
      "dong": "",
      "type": "재개발",
      "stage": "의제처리구역",
      "stage_idx": 0,
      "lat": 37.51585015065942,
      "lng": 127.09750687467309,
      "area_m2": 75684,
      "units": 0,
      "contractor": "",
      "stage_date": "",
      "notes": "",
      "subway": "",
      "hangang": false,
      "completion_est": "",
      "ref_note": ""
    },
    {
      "id": "api_2769",
      "name": "순화 도시정비형 재개발구역",
      "district": "중구",
      "dong": "",
      "type": "재개발",
      "stage": "의제처리구역",
      "stage_idx": 0,
      "lat": 37.55421796120888,
      "lng": 126.99012178229493,
      "area_m2": 14723,
      "units": 0,
      "contractor": "",
      "stage_date": "",
      "notes": "",
      "subway": "",
      "hangang": false,
      "completion_est": "",
      "ref_note": ""
    },
    {
      "id": "api_2900",
      "name": "정비창 전면 도시정비형재개발구역 2-1구역",
      "district": "용산구",
      "dong": "",
      "type": "재개발",
      "stage": "의제처리구역",
      "stage_idx": 0,
      "lat": 37.52204545381059,
      "lng": 126.98466149420054,
      "area_m2": 1503,
      "units": 0,
      "contractor": "",
      "stage_date": "",
      "notes": "",
      "subway": "",
      "hangang": false,
      "completion_est": "",
      "ref_note": ""
    },
    {
      "id": "api_2905",
      "name": "장위5구역",
      "district": "성북구",
      "dong": "",
      "type": "재개발",
      "stage": "의제처리구역",
      "stage_idx": 0,
      "lat": 37.59460573621378,
      "lng": 127.0069680517248,
      "area_m2": 88763,
      "units": 0,
      "contractor": "",
      "stage_date": "",
      "notes": "",
      "subway": "",
      "hangang": false,
      "completion_est": "",
      "ref_note": ""
    },
    {
      "id": "api_2909",
      "name": "행당 제7재개발 정비구역",
      "district": "성동구",
      "dong": "",
      "type": "재개발",
      "stage": "의제처리구역",
      "stage_idx": 0,
      "lat": 37.56723994214529,
      "lng": 127.04062872829816,
      "area_m2": 48345,
      "units": 0,
      "contractor": "",
      "stage_date": "",
      "notes": "",
      "subway": "",
      "hangang": false,
      "completion_est": "",
      "ref_note": ""
    },
    {
      "id": "api_2920",
      "name": "을지로2가 1-2",
      "district": "중구",
      "dong": "",
      "type": "재개발",
      "stage": "의제처리구역",
      "stage_idx": 0,
      "lat": 37.57386760539577,
      "lng": 126.99556312960189,
      "area_m2": 0,
      "units": 0,
      "contractor": "",
      "stage_date": "",
      "notes": "",
      "subway": "",
      "hangang": false,
      "completion_est": "",
      "ref_note": ""
    },