{
  "updated_at": "2026-07-10",
  "source": "seoul_open_api",
  "note": "수도권 실데이터 — 서울 761개·경기 0개 구역 (2026-07-10 갱신)",
  "projects": [
    {
      "id": "api_24",
      "name": "전농7재정비촉진구역 ",
      "region": "서울",
      "district": "동대문구",
      "dong": "",
      "type": "재개발",
      "stage": "주택재개발사업구역",
      "stage_idx": 0,
      "lat": 37.5826278638985,
      "lng": 127.04329201521672,
      "area_m2": 151792,
      "units": 0,
      "contractor": "",
      "stage_date": "",
      "notes": "",
      "subway": "",
      "hangang": false,
      "completion_est": "",
      "ref_note": ""
    },
    {
      "id": "api_25",
      "name": "공덕 제6주택재개발정비사업",
      "region": "서울",
      "district": "마포구",
      "dong": "",
      "type": "재개발",
      "stage": "주택재개발사업구역",
      "stage_idx": 0,
      "lat": 37.56014866485151,
      "lng": 126.91812284121384,
      "area_m2": 11326,
      "units": 0,
      "contractor": "",
      "stage_date": "",
      "notes": "",
      "subway": "",
      "hangang": false,
      "completion_est": "",
      "ref_note": ""
    },
    {
      "id": "api_26",
      "name": "사당3재건축정비사업",
      "region": "서울",
      "district": "동작구",
      "dong": "",
      "type": "재건축",
      "stage": "주택재건축사업",
      "stage_idx": 0,
      "lat": 37.50301219617206,
      "lng": 126.93228971139327,
      "area_m2": 30221,
      "units": 0,
      "contractor": "",
      "stage_date": "",
      "notes": "",
      "subway": "",
      "hangang": false,
      "completion_est": "",
      "ref_note": ""
    },
    {
      "id": "api_27",
      "name": "긴등마을 재정비촉진구역",
      "region": "서울",
      "district": "강서구",
      "dong": "",
      "type": "재개발",
      "stage": "주택재건축사업",
      "stage_idx": 0,
      "lat": 37.550864312110654,
      "lng": 126.84115236306499,
      "area_m2": 31668,
      "units": 0,
      "contractor": "",
      "stage_date": "",
      "notes": "",
      "subway": "",
      "hangang": false,
      "completion_est": "",
      "ref_note": ""
    },
    {
      "id": "api_29",
      "name": "신용산역 북측 제1구역 도시정비형 재개발구역",
      "region": "서울",
      "district": "용산구",
      "dong": "",
      "type": "재개발",
      "stage": "도시환경정비사업구역",
      "stage_idx": 0,
      "lat": 37.52115929093486,
      "lng": 126.97426147897885,
      "area_m2": 14057,
      "units": 0,
      "contractor": "",
      "stage_date": "",
      "notes": "",
      "subway": "",
      "hangang": false,
      "completion_est": "",
      "ref_note": ""
    },
    {
      "id": "api_30",
      "name": "신설 제1 주택정비형 공공재개발사업 ",
      "region": "서울",
      "district": "동대문구",
      "dong": "",
      "type": "재개발",
      "stage": "주택재개발사업구역",
      "stage_idx": 0,
      "lat": 37.56896849693612,
      "lng": 127.03569689498848,
      "area_m2": 11204,
      "units": 0,
      "contractor": "",
      "stage_date": "",
      "notes": "",
      "subway": "",
      "hangang": false,
      "completion_est": "",
      "ref_note": ""
    },
    {
      "id": "api_31",
      "name": "양동구역 제11.12지구",
      "region": "서울",
      "district": "중구",
      "dong": "",
      "type": "재개발",
      "stage": "도시환경정비사업지구",
      "stage_idx": 0,
      "lat": 37.56190545243104,
      "lng": 127.00341062097745,
      "area_m2": 3565,
      "units": 0,
      "contractor": "",
      "stage_date": "",
      "notes": "",
      "subway": "",
      "hangang": false,
      "completion_est": "",
      "ref_note": ""
    },
    {
      "id": "api_32",
      "name": "신당 제8구역 주택재개발정비사업",
      "region": "서울",
      "district": "중구",
      "dong": "",
      "type": "재개발",
      "stage": "주택재개발사업구역",
      "stage_idx": 0,
      "lat": 37.57159515886018,
      "lng": 126.99897963462043,
      "area_m2": 58439,
      "units": 0,
      "contractor": "",
      "stage_date": "",
      "notes": "",
      "subway": "",
      "hangang": false,
      "completion_est": "",
      "ref_note": ""
    },
    {
      "id": "api_33",
      "name": "장위6구역 ",
      "region": "서울",
      "district": "성북구",
      "dong": "",
      "type": "재개발",
      "stage": "주택재개발사업구역",
      "stage_idx": 0,
      "lat": 37.5934973494046,
      "lng": 127.02187714258196,
      "area_m2": 105163,
      "units": 0,
      "contractor": "",
      "stage_date": "",
      "notes": "",
      "subway": "",
      "hangang": false,
      "completion_est": "",
      "ref_note": ""
    },
    {
      "id": "api_34",
      "name": "한남4 재정비촉진구역 ",
      "region": "서울",
      "district": "용산구",
      "dong": "",
      "type": "재개발",
      "stage": "주택재개발사업구역",
      "stage_idx": 0,
      "lat": 37.538534109832334,
      "lng": 126.97236518790876,
      "area_m2": 162163,
      "units": 0,
      "contractor": "",
      "stage_date": "",
      "notes": "",
      "subway": "",
      "hangang": false,
      "completion_est": "",
      "ref_note": ""
    },
    {
      "id": "api_35",
      "name": "마포로5 도시정비형 재개발구역",
      "region": "서울",
      "district": "중구",
      "dong": "",
      "type": "재개발",
      "stage": "도시환경정비사업구역",
      "stage_idx": 0,
      "lat": 37.57290286218742,
      "lng": 127.00545655823008,
      "area_m2": 61730,
      "units": 0,
      "contractor": "",
      "stage_date": "",
      "notes": "",
      "subway": "",
      "hangang": false,
      "completion_est": "",
      "ref_note": ""
    },
    {
      "id": "api_36",
      "name": "마포로5 도시정비형 재개발구역 제9-1지구",
      "region": "서울",
      "district": "중구",
      "dong": "",
      "type": "재개발",
      "stage": "도시환경정비사업구역",
      "stage_idx": 0,
      "lat": 37.568524220702685,
      "lng": 126.9994190477242,
      "area_m2": 1938,
      "units": 0,
      "contractor": "",
      "stage_date": "",
      "notes": "",
      "subway": "",
      "hangang": false,
      "completion_est": "",
      "ref_note": ""
    },
    {
      "id": "api_37",
      "name": "금호 제14-1 주택재개발 정비사업",
      "region": "서울",
      "district": "성동구",
      "dong": "",
      "type": "재개발",
      "stage": "주택재개발사업구역",
      "stage_idx": 0,
      "lat": 37.570285871955036,
      "lng": 127.03920080312263,
      "area_m2": 5127,
      "units": 0,
      "contractor": "",
      "stage_date": "",
      "notes": "",
      "subway": "",
      "hangang": false,
      "completion_est": "",
      "ref_note": ""
    },
    {
      "id": "api_38",
      "name": "은마아파트 재건축 정비구역 ",
      "region": "서울",
      "district": "강남구",
      "dong": "",
      "type": "재건축",
      "stage": "재건축사업구역",
      "stage_idx": 0,
      "lat": 37.52346404918496,
      "lng": 127.03921030838615,
      "area_m2": 0,
      "units": 0,
      "contractor": "",
      "stage_date": "",
      "notes": "",
      "subway": "",
      "hangang": false,
      "completion_est": "",
      "ref_note": ""
    },
    {
      "id": "api_39",
      "name": "양평제12 도시환경정비구역",
      "region": "서울",
      "district": "영등포구",
      "dong": "",
      "type": "재개발",
      "stage": "도시환경정비사업구역",
      "stage_idx": 0,
      "lat": 37.529683434662175,
      "lng": 126.89249484691219,
      "area_m2": 37561,
      "units": 0,
      "contractor": "",
      "stage_date": "",
      "notes": "",
      "subway": "",
      "hangang": false,
      "completion_est": "",
      "ref_note": ""
    },
    {
      "id": "api_42",
      "name": "면목4 주택재건축정비구역",
      "region": "서울",
      "district": "중랑구",
      "dong": "",
      "type": "재건축",
      "stage": "주택재건축사업",
      "stage_idx": 0,
      "lat": 37.61535470151471,
      "lng": 127.09688237971076,
      "area_m2": 14918,
      "units": 0,
      "contractor": "",
      "stage_date": "",
      "notes": "",
      "subway": "",
      "hangang": false,
      "completion_est": "",
      "ref_note": ""
    },
    {
      "id": "api_43",
      "name": "개포주공4단지 주택재건축정비사업",
      "region": "서울",
      "district": "강남구",
      "dong": "",
      "type": "재건축",
      "stage": "주택재건축사업",
      "stage_idx": 0,
      "lat": 37.52380341165066,
      "lng": 127.03900362577899,
      "area_m2": 179794,
      "units": 0,
      "contractor": "",
      "stage_date": "",
      "notes": "",
      "subway": "",
      "hangang": false,
      "completion_est": "",
      "ref_note": ""
    },
    {
      "id": "api_44",
      "name": "잠실우성4차아파트 주택재건축 정비구역",
      "region": "서울",
      "district": "송파구",
      "dong": "",
      "type": "재건축",
      "stage": "주택재건축사업",
      "stage_idx": 0,
      "lat": 37.51308264368564,
      "lng": 127.10733764237361,
      "area_m2": 31961,
      "units": 0,
      "contractor": "",
      "stage_date": "",
      "notes": "",
      "subway": "",
      "hangang": false,
      "completion_est": "",
      "ref_note": ""
    },
    {
      "id": "api_45",
      "name": "홍은제1 주택재건축 정비사업",
      "region": "서울",
      "district": "서대문구",
      "dong": "",
      "type": "재건축",
      "stage": "주택재건축사업",
      "stage_idx": 0,
      "lat": 37.57455970862167,
      "lng": 126.94001254849329,
      "area_m2": 19070,
      "units": 0,
      "contractor": "",
      "stage_date": "",
      "notes": "",
      "subway": "",
      "hangang": false,
      "completion_est": "",
      "ref_note": ""
    },
    {
      "id": "api_47",
      "name": "홍은 제2주택재건축 정비구역",
      "region": "서울",
      "district": "서대문구",
      "dong": "",
      "type": "재건축",
      "stage": "주택재건축사업",
      "stage_idx": 0,
      "lat": 37.588002657398945,
      "lng": 126.94033968371625,
      "area_m2": 33199,
      "units": 0,
      "contractor": "",
      "stage_date": "",
      "notes": "",
      "subway": "",
      "hangang": false,
      "completion_est": "",
      "ref_note": ""
    },
    {
      "id": "api_48",
      "name": "용두제6구역 주택재개발정비사업",
      "region": "서울",
      "district": "동대문구",
      "dong": "",
      "type": "재개발",
      "stage": "주택재개발사업구역",
      "stage_idx": 0,
      "lat": 37.58368735892298,
      "lng": 127.03980308682739,
      "area_m2": 53370,
      "units": 0,
      "contractor": "",
      "stage_date": "",
      "notes": "",
      "subway": "",
      "hangang": false,
      "completion_est": "",
      "ref_note": ""
    },
    {
      "id": "api_49",
      "name": "중화동 우성타운 재건축정비구역 ",
      "region": "서울",
      "district": "중랑구",
      "dong": "",
      "type": "재건축",
      "stage": "재건축사업구역",
      "stage_idx": 0,
      "lat": 37.600008561329986,
      "lng": 127.09439770095275,
      "area_m2": 0,
      "units": 0,
      "contractor": "",
      "stage_date": "",
      "notes": "",
      "subway": "",
      "hangang": false,
      "completion_est": "",
      "ref_note": ""
    },
    {
      "id": "api_50",
      "name": "사당3 재건축정비사업",
      "region": "서울",
      "district": "동작구",
      "dong": "",
      "type": "재건축",
      "stage": "재건축사업구역",
      "stage_idx": 0,
      "lat": 37.51105802244482,
      "lng": 126.93227882996906,
      "area_m2": 30061,
      "units": 0,
      "contractor": "",
      "stage_date": "",
      "notes": "",
      "subway": "",
      "hangang": false,
      "completion_est": "",
      "ref_note": ""
    },
    {
      "id": "api_51",
      "name": "증산2재정비촉진구역",
      "region": "서울",
      "district": "은평구",
      "dong": "",
      "type": "재개발",
      "stage": "주택재개발사업구역",
      "stage_idx": 0,
      "lat": 37.606345748763964,
      "lng": 126.92174480032061,
      "area_m2": 78755,
      "units": 0,
      "contractor": "",
      "stage_date": "",
      "notes": "",
      "subway": "",
      "hangang": false,
      "completion_est": "",
      "ref_note": ""
    },
    {
      "id": "api_52",
      "name": "수색7재정비촉진구역 ",
      "region": "서울",
      "district": "은평구",
      "dong": "",
      "type": "재개발",
      "stage": "주택재개발사업구역",
      "stage_idx": 0,
      "lat": 37.60416402850688,
      "lng": 126.933454836963,
      "area_m2": 31402,
      "units": 0,
      "contractor": "",
      "stage_date": "",
      "notes": "",
      "subway": "",
      "hangang": false,
      "completion_est": "",
      "ref_note": ""
    },
    {
      "id": "api_53",
      "name": "수색13 주택재개발사업 ",
      "region": "서울",
      "district": "은평구",
      "dong": "",
      "type": "재개발",
      "stage": "주택재개발사업구역",
      "stage_idx": 0,
      "lat": 37.59358734184269,
      "lng": 126.9336622587342,
      "area_m2": 69681,
      "units": 0,
      "contractor": "",
      "stage_date": "",
      "notes": "",
      "subway": "",
      "hangang": false,
      "completion_est": "",
      "ref_note": ""
    },
    {
      "id": "api_54",
      "name": "역삼동 758번지일대 주택재건축정비사업",
      "region": "서울",
      "district": "강남구",
      "dong": "",
      "type": "재건축",
      "stage": "주택재건축사업",
      "stage_idx": 0,
      "lat": 37.52670048520571,
      "lng": 127.04518181818199,
      "area_m2": 12263,
      "units": 0,
      "contractor": "",
      "stage_date": "",
      "notes": "",
      "subway": "",
      "hangang": false,
      "completion_est": "",
      "ref_note": ""
    },
    {
      "id": "api_55",
      "name": "수색9 재정비촉진구역 주택재개발사업 ",
      "region": "서울",
      "district": "은평구",
      "dong": "",
      "type": "재개발",
      "stage": "주택재개발사업구역",
      "stage_idx": 0,
      "lat": 37.595066944483314,
      "lng": 126.92495300730177,
      "area_m2": 36348,
      "units": 0,
      "contractor": "",
      "stage_date": "",
      "notes": "",
      "subway": "",
      "hangang": false,
      "completion_est": "",
      "ref_note": ""
    },
    {
      "id": "api_56",
      "name": "제기1주거환경개선지구",
      "region": "서울",
      "district": "동대문구",
      "dong": "",
      "type": "재개발",
      "stage": "주거환경개선사업",
      "stage_idx": 0,
      "lat": 37.57235953795872,
      "lng": 127.04384285772583,
      "area_m2": 9945,
      "units": 0,
      "contractor": "",
      "stage_date": "",
      "notes": "",
      "subway": "",
      "hangang": false,
      "completion_est": "",
      "ref_note": ""
    },
    {
      "id": "api_60",
      "name": "1-1구역",
      "region": "서울",
      "district": "용산구",
      "dong": "",
      "type": "재개발",
      "stage": "도시환경정비사업구역",
      "stage_idx": 0,
      "lat": 37.540473732011456,
      "lng": 126.9798110205769,
      "area_m2": 2749,
      "units": 0,
      "contractor": "",
      "stage_date": "",
      "notes": "",
      "subway": "",
      "hangang": false,
      "completion_est": "",
      "ref_note": ""
    },
    {
      "id": "api_61",
      "name": "1-2구역",
      "region": "서울",
      "district": "용산구",
      "dong": "",
      "type": "재개발",
      "stage": "도시환경정비사업구역",
      "stage_idx": 0,
      "lat": 37.52532645163789,
      "lng": 126.96932262720046,
      "area_m2": 8527,
      "units": 0,
      "contractor": "",
      "stage_date": "",
      "notes": "",
      "subway": "",
      "hangang": false,
      "completion_est": "",
      "ref_note": ""
    },
    {
      "id": "api_62",
      "name": "2구역",
      "region": "서울",
      "district": "용산구",
      "dong": "",
      "type": "재개발",
      "stage": "도시환경정비사업구역",
      "stage_idx": 0,
      "lat": 37.527977022764496,
      "lng": 126.97890098189104,
      "area_m2": 8705,
      "units": 0,
      "contractor": "",
      "stage_date": "",
      "notes": "",
      "subway": "",
      "hangang": false,
      "completion_est": "",
      "ref_note": ""
    },
    {
      "id": "api_64",
      "name": "강북3 재정비촉진구역",
      "region": "서울",
      "district": "강북구",
      "dong": "",
      "type": "재개발",
      "stage": "도시환경정비사업구역",
      "stage_idx": 0,
      "lat": 37.63155382803084,
      "lng": 127.03021553755534,
      "area_m2": 0,
      "units": 0,
      "contractor": "",
      "stage_date": "",
      "notes": "",
      "subway": "",
      "hangang": false,
      "completion_est": "",
      "ref_note": ""
    },
    {
      "id": "api_65",
      "name": "가락프라자아파트 주택재건축사업",
      "region": "서울",
      "district": "송파구",
      "dong": "",
      "type": "재건축",
      "stage": "주택재건축사업",
      "stage_idx": 0,
      "lat": 37.51499867422826,
      "lng": 127.10029411163998,
      "area_m2": 45808,
      "units": 0,
      "contractor": "",
      "stage_date": "",
      "notes": "",
      "subway": "",
      "hangang": false,
      "completion_est": "",
      "ref_note": ""
    },
    {
      "id": "api_66",
      "name": "길음5재정비촉진구역(주택정비형재개발사업)",
      "region": "서울",
      "district": "성북구",
      "dong": "",
      "type": "재개발",
      "stage": "주택재개발사업구역",
      "stage_idx": 0,
      "lat": 37.58553262161742,
      "lng": 127.00882920767259,
      "area_m2": 35388,
      "units": 0,
      "contractor": "",
      "stage_date": "",
      "notes": "",
      "subway": "",
      "hangang": false,
      "completion_est": "",
      "ref_note": ""
    },
    {
      "id": "api_67",
      "name": "홍은 제2주택재건축 정비구역",
      "region": "서울",
      "district": "서대문구",
      "dong": "",
      "type": "재건축",
      "stage": "주택재건축사업",
      "stage_idx": 0,
      "lat": 37.57716887445496,
      "lng": 126.94010894432127,
      "area_m2": 34387,
      "units": 0,
      "contractor": "",
      "stage_date": "",
      "notes": "",
      "subway": "",
      "hangang": false,
      "completion_est": "",
      "ref_note": ""
    },
    {
      "id": "api_69",
      "name": "고척동 한효아파트 재건축정비구역 ",
      "region": "서울",
      "district": "구로구",
      "dong": "",
      "type": "재건축",
      "stage": "재건축사업구역",
      "stage_idx": 0,
      "lat": 37.48716464284583,
      "lng": 126.88696683105528,
      "area_m2": 0,
      "units": 0,
      "contractor": "",
      "stage_date": "",
      "notes": "",
      "subway": "",
      "hangang": false,
      "completion_est": "",
      "ref_note": ""
    },
    {
      "id": "api_71",
      "name": "3구역",
      "region": "서울",
      "district": "용산구",
      "dong": "",
      "type": "재개발",
      "stage": "도시환경정비사업구역",
      "stage_idx": 0,
      "lat": 37.523189081912975,
      "lng": 126.97309534992387,
      "area_m2": 11961,
      "units": 0,
      "contractor": "",
      "stage_date": "",
      "notes": "",
      "subway": "",
      "hangang": false,
      "completion_est": "",
      "ref_note": ""
    },
    {
      "id": "api_72",
      "name": "노량진5재정비촉진구역",
      "region": "서울",
      "district": "동작구",
      "dong": "",
      "type": "재개발",
      "stage": "주택재개발사업구역",
      "stage_idx": 0,
      "lat": 37.509777408614006,
      "lng": 126.94902695488557,
      "area_m2": 38017,
      "units": 0,
      "contractor": "",
      "stage_date": "",
      "notes": "",
      "subway": "",
      "hangang": false,
      "completion_est": "",
      "ref_note": ""
    },
    {
      "id": "api_73",
      "name": "노량진8재정비촉진구역",
      "region": "서울",
      "district": "동작구",
      "dong": "",
      "type": "재개발",
      "stage": "주택재개발사업구역",
      "stage_idx": 0,
      "lat": 37.50675018678435,
      "lng": 126.93537329493925,
      "area_m2": 55742,
      "units": 0,
      "contractor": "",
      "stage_date": "",
      "notes": "",
      "subway": "",
      "hangang": false,
      "completion_est": "",
      "ref_note": ""
    },
    {
      "id": "api_75",
      "name": "문래동2가A 도시정비형  재개발구역 4지구",
      "region": "서울",
      "district": "영등포구",
      "dong": "",
      "type": "재개발",
      "stage": "도시환경정비사업지구",
      "stage_idx": 0,
      "lat": 37.52305550970791,
      "lng": 126.89375766729682,
      "area_m2": 3214,
      "units": 0,
      "contractor": "",
      "stage_date": "",
      "notes": "",
      "subway": "",
      "hangang": false,
      "completion_est": "",
      "ref_note": ""
    },
    {
      "id": "api_78",
      "name": "마포로3구역",
      "region": "서울",
      "district": "마포구",
      "dong": "",
      "type": "재개발",
      "stage": "도시환경정비사업구역",
      "stage_idx": 0,
      "lat": 37.56204824666422,
      "lng": 126.91408392761718,
      "area_m2": 40044,
      "units": 0,
      "contractor": "",
      "stage_date": "",
      "notes": "",
      "subway": "",
      "hangang": false,
      "completion_est": "",
      "ref_note": ""
    },
    {
      "id": "api_79",
      "name": "4-2지구",
      "region": "서울",
      "district": "마포구",
      "dong": "",
      "type": "재개발",
      "stage": "도시환경정비사업지구",
      "stage_idx": 0,
      "lat": 37.56046312212981,
      "lng": 126.9067745457263,
      "area_m2": 1192,
      "units": 0,
      "contractor": "",
      "stage_date": "",
      "notes": "",
      "subway": "",
      "hangang": false,
      "completion_est": "",
      "ref_note": ""
    },
    {
      "id": "api_80",
      "name": "흑석9재정비촉진구역",
      "region": "서울",
      "district": "동작구",
      "dong": "",
      "type": "재개발",
      "stage": "주택재개발사업구역",
      "stage_idx": 0,
      "lat": 37.51934034313077,
      "lng": 126.94875057221236,
      "area_m2": 94577,
      "units": 0,
      "contractor": "",
      "stage_date": "",
      "notes": "",
      "subway": "",
      "hangang": false,
      "completion_est": "",
      "ref_note": ""
    },
    {
      "id": "api_81",
      "name": "문래동1가A 도시정비형 재개발구역",
      "region": "서울",
      "district": "영등포구",
      "dong": "",
      "type": "재개발",
      "stage": "도시환경정비사업구역",
      "stage_idx": 0,
      "lat": 37.53141288605961,
      "lng": 126.89148046173204,
      "area_m2": 45884,
      "units": 0,
      "contractor": "",
      "stage_date": "",
      "notes": "",
      "subway": "",
      "hangang": false,
      "completion_est": "",
      "ref_note": ""
    },
    {
      "id": "api_82",
      "name": "문래동1가B 도시정비형 재개발구역",
      "region": "서울",
      "district": "영등포구",
      "dong": "",
      "type": "재개발",
      "stage": "도시환경정비사업구역",
      "stage_idx": 0,
      "lat": 37.532665943288144,
      "lng": 126.89004139993858,
      "area_m2": 27878,
      "units": 0,
      "contractor": "",
      "stage_date": "",
      "notes": "",
      "subway": "",
      "hangang": false,
      "completion_est": "",
      "ref_note": ""
    },
    {
      "id": "api_83",
      "name": "신촌지역 마포4  도시정비형 재개발구역",
      "region": "서울",
      "district": "마포구",
      "dong": "",
      "type": "재개발",
      "stage": "도시환경정비사업구역",
      "stage_idx": 0,
      "lat": 37.56880238000215,
      "lng": 126.90605765614784,
      "area_m2": 50515,
      "units": 0,
      "contractor": "",
      "stage_date": "",
      "notes": "",
      "subway": "",
      "hangang": false,
      "completion_est": "",
      "ref_note": ""
    },
    {
      "id": "api_84",
      "name": "상봉10재정비촉진구역",
      "region": "서울",
      "district": "중랑구",
      "dong": "",
      "type": "재개발",
      "stage": "도시환경정비사업구역",
      "stage_idx": 0,
      "lat": 37.611283246631295,
      "lng": 127.08376063859299,
      "area_m2": 0,
      "units": 0,
      "contractor": "",
      "stage_date": "",
      "notes": "",
      "subway": "",
      "hangang": false,
      "completion_est": "",
      "ref_note": ""
    },
    {
      "id": "api_85",
      "name": "무교다동 11지구",
      "region": "서울",
      "district": "중구",
      "dong": "",
      "type": "재개발",
      "stage": "도시환경정비사업지구",
      "stage_idx": 0,
      "lat": 37.560514482348175,
      "lng": 127.00666706997261,
      "area_m2": 1370,
      "units": 0,
      "contractor": "",
      "stage_date": "",
      "notes": "",
      "subway": "",
      "hangang": false,
      "completion_est": "",
      "ref_note": ""
    },
    {
      "id": "api_86",
      "name": "무교다동 23-1지구",
      "region": "서울",
      "district": "중구",
      "dong": "",
      "type": "재개발",
      "stage": "정비구역",
      "stage_idx": 0,
      "lat": 37.570575168325,
      "lng": 127.00460990697302,
      "area_m2": 1330,
      "units": 0,
      "contractor": "",
      "stage_date": "",
      "notes": "",
      "subway": "",
      "hangang": false,
      "completion_est": "",
      "ref_note": ""
    },
    {
      "id": "api_87",
      "name": "무교다동 23-9지구 ",
      "region": "서울",
      "district": "중구",
      "dong": "",
      "type": "재개발",
      "stage": "도시환경정비사업지구",
      "stage_idx": 0,
      "lat": 37.56037758107471,
      "lng": 127.00355882278461,
      "area_m2": 1330,
      "units": 0,
      "contractor": "",
      "stage_date": "",
      "notes": "",
      "subway": "",
      "hangang": false,
      "completion_est": "",
      "ref_note": ""
    },
    {
      "id": "api_88",
      "name": "무교다동 24-6지구 ",
      "region": "서울",
      "district": "중구",
      "dong": "",
      "type": "재개발",
      "stage": "도시환경정비사업지구",
      "stage_idx": 0,
      "lat": 37.573105323456964,
      "lng": 127.00768170340993,
      "area_m2": 1353,
      "units": 0,
      "contractor": "",
      "stage_date": "",
      "notes": "",
      "subway": "",
      "hangang": false,
      "completion_est": "",
      "ref_note": ""
    },
    {
      "id": "api_89",
      "name": "무교다동 24-4지구 ",
      "region": "서울",
      "district": "중구",
      "dong": "",
      "type": "재개발",
      "stage": "도시환경정비사업지구",
      "stage_idx": 0,
      "lat": 37.55872694217719,
      "lng": 126.9930461160912,
      "area_m2": 1353,
      "units": 0,
      "contractor": "",
      "stage_date": "",
      "notes": "",
      "subway": "",
      "hangang": false,
      "completion_est": "",
      "ref_note": ""
    },
    {
      "id": "api_90",
      "name": "무교다동구역 제16지구",
      "region": "서울",
      "district": "중구",
      "dong": "",
      "type": "재개발",
      "stage": "도시환경정비사업지구",
      "stage_idx": 0,
      "lat": 37.57380945960495,
      "lng": 127.00356014161254,
      "area_m2": 2812,
      "units": 0,
      "contractor": "",
      "stage_date": "",
      "notes": "",
      "subway": "",
      "hangang": false,
      "completion_est": "",
      "ref_note": ""
    },
    {
      "id": "api_92",
      "name": "무교다동 24-2지구 ",
      "region": "서울",
      "district": "중구",
      "dong": "",
      "type": "재개발",
      "stage": "도시환경정비사업지구",
      "stage_idx": 0,
      "lat": 37.57229291558969,
      "lng": 127.00662799827813,
      "area_m2": 1353,
      "units": 0,
      "contractor": "",
      "stage_date": "",
      "notes": "",
      "subway": "",
      "hangang": false,
      "completion_est": "",
      "ref_note": ""
    },
    {
      "id": "api_93",
      "name": "무교다동 23-12지구 ",
      "region": "서울",
      "district": "중구",
      "dong": "",
      "type": "재개발",
      "stage": "도시환경정비사업지구",
      "stage_idx": 0,
      "lat": 37.57085014690553,
      "lng": 126.99053646386965,
      "area_m2": 1330,
      "units": 0,
      "contractor": "",
      "stage_date": "",
      "notes": "",
      "subway": "",
      "hangang": false,
      "completion_est": "",
      "ref_note": ""
    },
    {
      "id": "api_94",
      "name": "무교다동 22-3지구 ",
      "region": "서울",
      "district": "중구",
      "dong": "",
      "type": "재개발",
      "stage": "도시환경정비사업지구",
      "stage_idx": 0,
      "lat": 37.570104856182446,
      "lng": 126.98807699702759,
      "area_m2": 1057,
      "units": 0,
      "contractor": "",
      "stage_date": "",
      "notes": "",
      "subway": "",
      "hangang": false,
      "completion_est": "",
      "ref_note": ""
    },
    {
      "id": "api_95",
      "name": "무교다동 23-8지구 ",
      "region": "서울",
      "district": "중구",
      "dong": "",
      "type": "재개발",
      "stage": "도시환경정비사업지구",
      "stage_idx": 0,
      "lat": 37.56193141533505,
      "lng": 127.0069557565316,
      "area_m2": 1330,
      "units": 0,
      "contractor": "",
      "stage_date": "",
      "notes": "",
      "subway": "",
      "hangang": false,
      "completion_est": "",
      "ref_note": ""
    },
    {
      "id": "api_98",
      "name": "신정2재정비촉진구역",
      "region": "서울",
      "district": "양천구",
      "dong": "",
      "type": "재개발",
      "stage": "주택재개발사업구역",
      "stage_idx": 0,
      "lat": 37.52161336882098,
      "lng": 126.86201949737665,
      "area_m2": 105685,
      "units": 0,
      "contractor": "",
      "stage_date": "",
      "notes": "",
      "subway": "",
      "hangang": false,
      "completion_est": "",
      "ref_note": ""
    },
    {
      "id": "api_509",
      "name": "유원제일2차아파트 재건축정비사업",
      "region": "서울",
      "district": "영등포구",
      "dong": "",
      "type": "재건축",
      "stage": "재건축사업구역",
      "stage_idx": 0,
      "lat": 37.52260234390545,
      "lng": 126.90224681975498,
      "area_m2": 28654,
      "units": 0,
      "contractor": "",
      "stage_date": "",
      "notes": "",
      "subway": "",
      "hangang": false,
      "completion_est": "",
      "ref_note": ""
    },
    {
      "id": "api_510",
      "name": "마포로1구역 제48지구 도시정비형 재개발사업 ",
      "region": "서울",
      "district": "마포구",
      "dong": "",
      "type": "재개발",
      "stage": "도시환경정비사업구역",
      "stage_idx": 0,
      "lat": 37.573357536578584,
      "lng": 126.89882813604196,
      "area_m2": 3802,
      "units": 0,
      "contractor": "",
      "stage_date": "",
      "notes": "",
      "subway": "",
      "hangang": false,
      "completion_est": "",
      "ref_note": ""
    },
    {
      "id": "api_511",
      "name": "흑석4재정비촉진구역",
      "region": "서울",
      "district": "동작구",
      "dong": "",
      "type": "재개발",
      "stage": "주택재개발사업구역",
      "stage_idx": 0,
      "lat": 37.504536678433915,
      "lng": 126.93699978638027,
      "area_m2": 56622,
      "units": 0,
      "contractor": "",
      "stage_date": "",
      "notes": "",
      "subway": "",
      "hangang": false,
      "completion_est": "",
      "ref_note": ""
    },
    {
      "id": "api_512",
      "name": "주택재건축정비구역",
      "region": "서울",
      "district": "강동구",
      "dong": "",
      "type": "재건축",
      "stage": "주택재건축사업",
      "stage_idx": 0,
      "lat": 37.521530529058104,
      "lng": 127.13343705662166,
      "area_m2": 12181,
      "units": 0,
      "contractor": "",
      "stage_date": "",
      "notes": "",
      "subway": "",
      "hangang": false,
      "completion_est": "",
      "ref_note": ""
    },
    {
      "id": "api_565",
      "name": "무교다동 8지구",
      "region": "서울",
      "district": "중구",
      "dong": "",
      "type": "재개발",
      "stage": "도시환경정비사업지구",
      "stage_idx": 0,
      "lat": 37.572935809511804,
      "lng": 126.99096895057625,
      "area_m2": 1386,
      "units": 0,
      "contractor": "",
      "stage_date": "",
      "notes": "",
      "subway": "",
      "hangang": false,
      "completion_est": "",
      "ref_note": ""
    },
    {
      "id": "api_566",
      "name": "무교다동 23-11지구 ",
      "region": "서울",
      "district": "중구",
      "dong": "",
      "type": "재개발",
      "stage": "도시환경정비사업지구",
      "stage_idx": 0,
      "lat": 37.55625221765188,
      "lng": 126.99433954537095,
      "area_m2": 1330,
      "units": 0,
      "contractor": "",
      "stage_date": "",
      "notes": "",
      "subway": "",
      "hangang": false,
      "completion_est": "",
      "ref_note": ""
    },
    {
      "id": "api_567",
      "name": "마포지역 도시환경 정비사업구역",
      "region": "서울",
      "district": "서대문구",
      "dong": "",
      "type": "재개발",
      "stage": "도시환경정비사업구역",
      "stage_idx": 0,
      "lat": 37.58527314471494,
      "lng": 126.93042940953717,
      "area_m2": 6244,
      "units": 0,
      "contractor": "",
      "stage_date": "",
      "notes": "",
      "subway": "",
      "hangang": false,
      "completion_est": "",
      "ref_note": ""
    },
    {
      "id": "api_568",
      "name": "신촌지역(마포)1-2지구 도시정비형 재개발구역",
      "region": "서울",
      "district": "마포구",
      "dong": "",
      "type": "재개발",
      "stage": "도시환경정비사업구역",
      "stage_idx": 0,
      "lat": 37.56595842359148,
      "lng": 126.89968792238145,
      "area_m2": 1427,
      "units": 0,
      "contractor": "",
      "stage_date": "",
      "notes": "",
      "subway": "",
      "hangang": false,
      "completion_est": "",
      "ref_note": ""
    },
    {
      "id": "api_569",
      "name": "사당3 재건축정비사업",
      "region": "서울",
      "district": "동작구",
      "dong": "",
      "type": "재건축",
      "stage": "주택재건축사업",
      "stage_idx": 0,
      "lat": 37.51523411787862,
      "lng": 126.93463519251156,
      "area_m2": 30100,
      "units": 0,
      "contractor": "",
      "stage_date": "",
      "notes": "",
      "subway": "",
      "hangang": false,
      "completion_est": "",
      "ref_note": ""
    },
    {
      "id": "api_570",
      "name": "마포로5구역",
      "region": "서울",
      "district": "서대문구",
      "dong": "",
      "type": "재개발",
      "stage": "도시환경정비사업구역",
      "stage_idx": 0,
      "lat": 37.587323207166456,
      "lng": 126.9426638773183,
      "area_m2": 61194,
      "units": 0,
      "contractor": "",
      "stage_date": "",
      "notes": "",
      "subway": "",
      "hangang": false,
      "completion_est": "",
      "ref_note": ""
    },
    {
      "id": "api_571",
      "name": "마포로5-2",
      "region": "서울",
      "district": "서대문구",
      "dong": "",
      "type": "재개발",
      "stage": "도시환경정비사업지구",
      "stage_idx": 0,
      "lat": 37.57029931501468,
      "lng": 126.93126617122937,
      "area_m2": 4565,
      "units": 0,
      "contractor": "",
      "stage_date": "",
      "notes": "",
      "subway": "",
      "hangang": false,
      "completion_est": "",
      "ref_note": ""
    },
    {
      "id": "api_572",
      "name": "마포로5-3",
      "region": "서울",
      "district": "서대문구",
      "dong": "",
      "type": "재개발",
      "stage": "도시환경정비사업지구",
      "stage_idx": 0,
      "lat": 37.58318237114547,
      "lng": 126.93319225447557,
      "area_m2": 0,
      "units": 0,
      "contractor": "",
      "stage_date": "",
      "notes": "",
      "subway": "",
      "hangang": false,
      "completion_est": "",
      "ref_note": ""
    },
    {
      "id": "api_573",
      "name": "마포로5-3-1",
      "region": "서울",
      "district": "서대문구",
      "dong": "",
      "type": "재개발",
      "stage": "도시환경정비사업지구",
      "stage_idx": 0,
      "lat": 37.57617836811165,
      "lng": 126.93782870827229,
      "area_m2": 0,
      "units": 0,
      "contractor": "",
      "stage_date": "",
      "notes": "",
      "subway": "",
      "hangang": false,
      "completion_est": "",
      "ref_note": ""
    },
    {
      "id": "api_574",
      "name": "마포로5-4",
      "region": "서울",
      "district": "서대문구",
      "dong": "",
      "type": "재개발",
      "stage": "도시환경정비사업지구",
      "stage_idx": 0,
      "lat": 37.58690813516174,
      "lng": 126.93521766599798,
      "area_m2": 0,
      "units": 0,
      "contractor": "",
      "stage_date": "",
      "notes": "",
      "subway": "",
      "hangang": false,
      "completion_est": "",
      "ref_note": ""
    },
    {
      "id": "api_575",
      "name": "마포로5-8",
      "region": "서울",
      "district": "서대문구",
      "dong": "",
      "type": "재개발",
      "stage": "도시환경정비사업지구",
      "stage_idx": 0,
      "lat": 37.57267433959534,
      "lng": 126.94156255650816,
      "area_m2": 0,
      "units": 0,
      "contractor": "",
      "stage_date": "",
      "notes": "",
      "subway": "",
      "hangang": false,
      "completion_est": "",
      "ref_note": ""
    },
    {
      "id": "api_576",
      "name": "효창제6구역 주택재개발정비사업",
      "region": "서울",
      "district": "용산구",
      "dong": "",
      "type": "재개발",
      "stage": "주택재개발사업구역",
      "stage_idx": 0,
      "lat": 37.525192434988675,
      "lng": 126.98494872044083,
      "area_m2": 18397,
      "units": 0,
      "contractor": "",
      "stage_date": "",
      "notes": "",
      "subway": "",
      "hangang": false,
      "completion_est": "",
      "ref_note": ""
    },
    {
      "id": "api_577",
      "name": "연신내구역 도시정비형 재개발사업",
      "region": "서울",
      "district": "은평구",
      "dong": "",
      "type": "재개발",
      "stage": "도시환경정비사업구역",
      "stage_idx": 0,
      "lat": 37.61090175653644,
      "lng": 126.93128419014485,
      "area_m2": 8699,
      "units": 0,
      "contractor": "",
      "stage_date": "",
      "notes": "",
      "subway": "",
      "hangang": false,
      "completion_est": "",
      "ref_note": ""
    },
    {
      "id": "api_578",
      "name": "잠실주공5단지아파트 재건축사업 정비구역",
      "region": "서울",
      "district": "송파구",
      "dong": "",
      "type": "재건축",
      "stage": "재건축사업구역",
      "stage_idx": 0,
      "lat": 37.50642916729514,
      "lng": 127.09828235620064,
      "area_m2": 353987,
      "units": 0,
      "contractor": "",
      "stage_date": "",
      "notes": "",
      "subway": "",
      "hangang": false,
      "completion_est": "",
      "ref_note": ""
    },
    {
      "id": "api_579",
      "name": "잠실우성4차아파트주택재건축정비구역",
      "region": "서울",
      "district": "송파구",
      "dong": "",
      "type": "재건축",
      "stage": "주택재건축사업",
      "stage_idx": 0,
      "lat": 37.51351413550304,
      "lng": 127.10395242786232,
      "area_m2": 31630,
      "units": 0,
      "contractor": "",
      "stage_date": "",
      "notes": "",
      "subway": "",
      "hangang": false,
      "completion_est": "",
      "ref_note": ""
    },
    {
      "id": "api_580",
      "name": "신촌지역(마포) 4-9지구 도시정비형 재개발구역 ",
      "region": "서울",
      "district": "마포구",
      "dong": "",
      "type": "재개발",
      "stage": "도시환경정비사업구역",
      "stage_idx": 0,
      "lat": 37.55719979708165,
      "lng": 126.91122006503643,
      "area_m2": 4827,
      "units": 0,
      "contractor": "",
      "stage_date": "",
      "notes": "",
      "subway": "",
      "hangang": false,
      "completion_est": "",
      "ref_note": ""
    },
    {
      "id": "api_581",
      "name": "미장세림아파트 주택재건축사업",
      "region": "서울",
      "district": "성동구",
      "dong": "",
      "type": "재건축",
      "stage": "주택재건축사업",
      "stage_idx": 0,
      "lat": 37.57051365310506,
      "lng": 127.04168493596082,
      "area_m2": 0,
      "units": 0,
      "contractor": "",
      "stage_date": "",
      "notes": "",
      "subway": "",
      "hangang": false,
      "completion_est": "",
      "ref_note": ""
    },
    {
      "id": "api_582",
      "name": "청담삼익아파트 재건축사업",
      "region": "서울",
      "district": "강남구",
      "dong": "",
      "type": "재건축",
      "stage": "주택재건축사업",
      "stage_idx": 0,
      "lat": 37.516957612684834,
      "lng": 127.05398775894133,
      "area_m2": 0,
      "units": 0,
      "contractor": "",
      "stage_date": "",
      "notes": "",
      "subway": "",
      "hangang": false,
      "completion_est": "",
      "ref_note": ""
    },
    {
      "id": "api_583",
      "name": "합정7재정비촉진구역",
      "region": "서울",
      "district": "마포구",
      "dong": "",
      "type": "재개발",
      "stage": "도시환경정비사업구역",
      "stage_idx": 0,
      "lat": 37.57222239918832,
      "lng": 126.91356214749143,
      "area_m2": 0,
      "units": 0,
      "contractor": "",
      "stage_date": "",
      "notes": "",
      "subway": "",
      "hangang": false,
      "completion_est": "",
      "ref_note": ""
    },
    {
      "id": "api_584",
      "name": "강동역 역세권 활성화 도시정비형 재개발 정비구역",
      "region": "서울",
      "district": "강동구",
      "dong": "",
      "type": "재개발",
      "stage": "도시환경정비사업구역",
      "stage_idx": 0,
      "lat": 37.524630135139795,
      "lng": 127.12717255506281,
      "area_m2": 0,
      "units": 0,
      "contractor": "",
      "stage_date": "",
      "notes": "",
      "subway": "",
      "hangang": false,
      "completion_est": "",
      "ref_note": ""
    },
    {
      "id": "api_585",
      "name": "여의도 공작아파트 재건축정비사업 ",
      "region": "서울",
      "district": "영등포구",
      "dong": "",
      "type": "재건축",
      "stage": "재건축사업구역",
      "stage_idx": 0,
      "lat": 37.522467458862266,
      "lng": 126.89016476263997,
      "area_m2": 0,
      "units": 0,
      "contractor": "",
      "stage_date": "",
      "notes": "",
      "subway": "",
      "hangang": false,
      "completion_est": "",
      "ref_note": ""
    },
    {
      "id": "api_586",
      "name": "제기 제6구역 주택재개발정비구역",
      "region": "서울",
      "district": "동대문구",
      "dong": "",
      "type": "재개발",
      "stage": "주택재개발사업구역",
      "stage_idx": 0,
      "lat": 37.56628228940183,
      "lng": 127.03470634751882,
      "area_m2": 24320,
      "units": 0,
      "contractor": "",
      "stage_date": "",
      "notes": "",
      "subway": "",
      "hangang": false,
      "completion_est": "",
      "ref_note": ""
    },
    {
      "id": "api_590",
      "name": "봉천제12-2 주택재개발정비사업",
      "region": "서울",
      "district": "관악구",
      "dong": "",
      "type": "재개발",
      "stage": "주택재개발사업구역",
      "stage_idx": 0,
      "lat": 37.47400213830588,
      "lng": 126.94304042035743,
      "area_m2": 80917,
      "units": 0,
      "contractor": "",
      "stage_date": "",
      "notes": "",
      "subway": "",
      "hangang": false,
      "completion_est": "",
      "ref_note": ""
    },
    {
      "id": "api_599",
      "name": "공평구역",
      "region": "서울",
      "district": "종로구",
      "dong": "",
      "type": "재개발",
      "stage": "도시환경정비사업구역",
      "stage_idx": 0,
      "lat": 37.594096183341236,
      "lng": 126.98756973784806,
      "area_m2": 95028,
      "units": 0,
      "contractor": "",
      "stage_date": "",
      "notes": "",
      "subway": "",
      "hangang": false,
      "completion_est": "",
      "ref_note": ""
    },
    {
      "id": "api_600",
      "name": "공평구역<15.16지구>",
      "region": "서울",
      "district": "종로구",
      "dong": "",
      "type": "재개발",
      "stage": "도시환경정비사업구역",
      "stage_idx": 0,
      "lat": 37.58547629693183,
      "lng": 126.9776900372741,
      "area_m2": 12854,
      "units": 0,
      "contractor": "",
      "stage_date": "",
      "notes": "",
      "subway": "",
      "hangang": false,
      "completion_est": "",
      "ref_note": ""
    },
    {
      "id": "api_601",
      "name": "돈의문3재정비촉진구역",
      "region": "서울",
      "district": "종로구",
      "dong": "",
      "type": "재개발",
      "stage": "도시환경정비사업구역",
      "stage_idx": 0,
      "lat": 37.60210805119697,
      "lng": 126.98488670610026,
      "area_m2": 8844,
      "units": 0,
      "contractor": "",
      "stage_date": "",
      "notes": "",
      "subway": "",
      "hangang": false,
      "completion_est": "",
      "ref_note": ""
    },
    {
      "id": "api_618",
      "name": "영등포1-3재정비촉진구역",
      "region": "서울",
      "district": "영등포구",
      "dong": "",
      "type": "재개발",
      "stage": "도시환경정비사업구역",
      "stage_idx": 0,
      "lat": 37.51787001764208,
      "lng": 126.88952907467255,
      "area_m2": 8407,
      "units": 0,
      "contractor": "",
      "stage_date": "",
      "notes": "",
      "subway": "",
      "hangang": false,
      "completion_est": "",
      "ref_note": ""
    },
    {
      "id": "api_630",
      "name": "삼선제5구역 주택재개발 정비사업",
      "region": "서울",
      "district": "성북구",
      "dong": "",
      "type": "재개발",
      "stage": "주택재개발사업구역",
      "stage_idx": 0,
      "lat": 37.59168296917999,
      "lng": 127.02462402354215,
      "area_m2": 63780,
      "units": 0,
      "contractor": "",
      "stage_date": "",
      "notes": "",
      "subway": "",
      "hangang": false,
      "completion_est": "",
      "ref_note": ""
    },
    {
      "id": "api_631",
      "name": "영천구역 주택재개발정비구역",
      "region": "서울",
      "district": "서대문구",
      "dong": "",
      "type": "재개발",
      "stage": "주택재개발사업구역",
      "stage_idx": 0,
      "lat": 37.5802455893466,
      "lng": 126.94169601335155,
      "area_m2": 11154,
      "units": 0,
      "contractor": "",
      "stage_date": "",
      "notes": "",
      "subway": "",
      "hangang": false,
      "completion_est": "",
      "ref_note": ""
    },
    {
      "id": "api_632",
      "name": "마포로5 도시정비형 재개발구역 9-1지구",
      "region": "서울",
      "district": "중구",
      "dong": "",
      "type": "재개발",
      "stage": "도시환경정비사업구역",
      "stage_idx": 0,
      "lat": 37.554880983513335,
      "lng": 126.99169424936854,
      "area_m2": 1936,
      "units": 0,
      "contractor": "",
      "stage_date": "",
      "notes": "",
      "subway": "",
      "hangang": false,
      "completion_est": "",
      "ref_note": ""
    },
    {
      "id": "api_633",
      "name": "수색4재정비촉진구역",
      "region": "서울",
      "district": "은평구",
      "dong": "",
      "type": "재개발",
      "stage": "주택재개발사업구역",
      "stage_idx": 0,
      "lat": 37.601258140522795,
      "lng": 126.93373605855669,
      "area_m2": 61898,
      "units": 0,
      "contractor": "",
      "stage_date": "",
      "notes": "",
      "subway": "",
      "hangang": false,
      "completion_est": "",
      "ref_note": ""
    },
    {
      "id": "api_634",
      "name": "가락상아1차 아파트 재건축 정비사업",
      "region": "서울",
      "district": "송파구",
      "dong": "",
      "type": "재건축",
      "stage": "주택재건축사업",
      "stage_idx": 0,
      "lat": 37.52177288254137,
      "lng": 127.10382462828744,
      "area_m2": 13580,
      "units": 0,
      "contractor": "",
      "stage_date": "",
      "notes": "",
      "subway": "",
      "hangang": false,
      "completion_est": "",
      "ref_note": ""
    },
    {
      "id": "api_635",
      "name": "오류동 현대연립 재건축 정비사업",
      "region": "서울",
      "district": "구로구",
      "dong": "",
      "type": "재건축",
      "stage": "주택재건축사업",
      "stage_idx": 0,
      "lat": 37.49569070194579,
      "lng": 126.88286104821556,
      "area_m2": 23223,
      "units": 0,
      "contractor": "",
      "stage_date": "",
      "notes": "",
      "subway": "",
      "hangang": false,
      "completion_est": "",
      "ref_note": ""
    },
    {
      "id": "api_639",
      "name": "미아3 재정비촉진구역 ",
      "region": "서울",
      "district": "강북구",
      "dong": "",
      "type": "재개발",
      "stage": "주택재개발사업구역",
      "stage_idx": 0,
      "lat": 37.63038724489421,
      "lng": 127.02363342116458,
      "area_m2": 57558,
      "units": 0,
      "contractor": "",
      "stage_date": "",
      "notes": "",
      "subway": "",
      "hangang": false,
      "completion_est": "",
      "ref_note": ""
    },
    {
      "id": "api_640",
      "name": "미아9-2 주택재건축정비사업",
      "region": "서울",
      "district": "강북구",
      "dong": "",
      "type": "재건축",
      "stage": "주택재건축사업",
      "stage_idx": 0,
      "lat": 37.63968089037323,
      "lng": 127.02168324434022,
      "area_m2": 102518,
      "units": 0,
      "contractor": "",
      "stage_date": "",
      "notes": "",
      "subway": "",
      "hangang": false,
      "completion_est": "",
      "ref_note": ""
    },
    {
      "id": "api_641",
      "name": "거여2재정비촉진구역 (주택재개발사업)",
      "region": "서울",
      "district": "송파구",
      "dong": "",
      "type": "재개발",
      "stage": "주택재개발사업구역",
      "stage_idx": 0,
      "lat": 37.52104355290797,
      "lng": 127.10537222705275,
      "area_m2": 160288,
      "units": 0,
      "contractor": "",
      "stage_date": "",
      "notes": "",
      "subway": "",
      "hangang": false,
      "completion_est": "",
      "ref_note": ""
    },
    {
      "id": "api_642",
      "name": "개봉5 주택재건축 정비구역",
      "region": "서울",
      "district": "구로구",
      "dong": "",
      "type": "재건축",
      "stage": "주택재건축사업",
      "stage_idx": 0,
      "lat": 37.48691235514919,
      "lng": 126.87749359698131,
      "area_m2": 13099,
      "units": 0,
      "contractor": "",
      "stage_date": "",
      "notes": "",
      "subway": "",
      "hangang": false,
      "completion_est": "",
      "ref_note": ""
    },
    {
      "id": "api_643",
      "name": "대흥제2구역 주택재개발사업",
      "region": "서울",
      "district": "마포구",
      "dong": "",
      "type": "재개발",
      "stage": "주택재개발사업구역",
      "stage_idx": 0,
      "lat": 37.555083986587306,
      "lng": 126.90332614807205,
      "area_m2": 61077,
      "units": 0,
      "contractor": "",
      "stage_date": "",
      "notes": "",
      "subway": "",
      "hangang": false,
      "completion_est": "",
      "ref_note": ""
    },
    {
      "id": "api_644",
      "name": "중앙동 새싹마을 관리형 주거환경개선사업",
      "region": "서울",
      "district": "관악구",
      "dong": "",
      "type": "재개발",
      "stage": "주거환경개선사업구역",
      "stage_idx": 0,
      "lat": 37.47172218653143,
      "lng": 126.95754163860154,
      "area_m2": 0,
      "units": 0,
      "contractor": "",
      "stage_date": "",
      "notes": "",
      "subway": "",
      "hangang": false,
      "completion_est": "",
      "ref_note": ""
    },
    {
      "id": "api_645",
      "name": "신수2 주택재건축 정비구역",
      "region": "서울",
      "district": "마포구",
      "dong": "",
      "type": "재건축",
      "stage": "주택재건축사업",
      "stage_idx": 0,
      "lat": 37.57129209219058,
      "lng": 126.91376093449568,
      "area_m2": 17264,
      "units": 0,
      "contractor": "",
      "stage_date": "",
      "notes": "",
      "subway": "",
      "hangang": false,
      "completion_est": "",
      "ref_note": ""
    },
    {
      "id": "api_646",
      "name": "영등포1-13재정비촉진구역",
      "region": "서울",
      "district": "영등포구",
      "dong": "",
      "type": "재개발",
      "stage": "도시환경정비사업구역",
      "stage_idx": 0,
      "lat": 37.519206411153554,
      "lng": 126.88852267415028,
      "area_m2": 27049,
      "units": 0,
      "contractor": "",
      "stage_date": "",
      "notes": "",
      "subway": "",
      "hangang": false,
      "completion_est": "",
      "ref_note": ""
    },
    {
      "id": "api_647",
      "name": "서울역-서대문 1.2 도시정비형 재개발구역",
      "region": "서울",
      "district": "중구",
      "dong": "",
      "type": "재개발",
      "stage": "도시환경정비사업구역",
      "stage_idx": 0,
      "lat": 37.57261116852916,
      "lng": 126.99137198687596,
      "area_m2": 80719,
      "units": 0,
      "contractor": "",
      "stage_date": "",
      "notes": "",
      "subway": "",
      "hangang": false,
      "completion_est": "",
      "ref_note": ""
    },
    {
      "id": "api_648",
      "name": "서울역-서대문 1,2 ",
      "region": "서울",
      "district": "중구",
      "dong": "",
      "type": "재개발",
      "stage": "도시환경정비사업지구",
      "stage_idx": 0,
      "lat": 37.559945335818085,
      "lng": 127.00727800555174,
      "area_m2": 22029,
      "units": 0,
      "contractor": "",
      "stage_date": "",
      "notes": "",
      "subway": "",
      "hangang": false,
      "completion_est": "",
      "ref_note": ""
    },
    {
      "id": "api_649",
      "name": "서울역-서대문 1.2",
      "region": "서울",
      "district": "중구",
      "dong": "",
      "type": "재개발",
      "stage": "도시환경정비사업지구",
      "stage_idx": 0,
      "lat": 37.557630489503495,
      "lng": 126.99121861018449,
      "area_m2": 1109,
      "units": 0,
      "contractor": "",
      "stage_date": "",
      "notes": "",
      "subway": "",
      "hangang": false,
      "completion_est": "",
      "ref_note": ""
    },
    {
      "id": "api_650",
      "name": "서울역-서대문 1.2",
      "region": "서울",
      "district": "중구",
      "dong": "",
      "type": "재개발",
      "stage": "도시환경정비사업지구",
      "stage_idx": 0,
      "lat": 37.560112778987516,
      "lng": 126.99661977099277,
      "area_m2": 1109,
      "units": 0,
      "contractor": "",
      "stage_date": "",
      "notes": "",
      "subway": "",
      "hangang": false,
      "completion_est": "",
      "ref_note": ""
    },
    {
      "id": "api_651",
      "name": "서울역-서대문 1.2",
      "region": "서울",
      "district": "중구",
      "dong": "",
      "type": "재개발",
      "stage": "도시환경정비사업지구",
      "stage_idx": 0,
      "lat": 37.55528642371402,
      "lng": 126.98988745125683,
      "area_m2": 1109,
      "units": 0,
      "contractor": "",
      "stage_date": "",
      "notes": "",
      "subway": "",
      "hangang": false,
      "completion_est": "",
      "ref_note": ""
    },
    {
      "id": "api_716",
      "name": "서울역-서대문 1.2",
      "region": "서울",
      "district": "중구",
      "dong": "",
      "type": "재개발",
      "stage": "도시환경정비사업지구",
      "stage_idx": 0,
      "lat": 37.57222477813687,
      "lng": 126.9883490661173,
      "area_m2": 6588,
      "units": 0,
      "contractor": "",
      "stage_date": "",
      "notes": "",
      "subway": "",
      "hangang": false,
      "completion_est": "",
      "ref_note": ""
    },
    {
      "id": "api_717",
      "name": "서울역-서대문 1.2구역 제1지구",
      "region": "서울",
      "district": "중구",
      "dong": "",
      "type": "재개발",
      "stage": "도시환경정비사업지구",
      "stage_idx": 0,
      "lat": 37.57339254312714,
      "lng": 127.0037330088286,
      "area_m2": 16316,
      "units": 0,
      "contractor": "",
      "stage_date": "",
      "notes": "",
      "subway": "",
      "hangang": false,
      "completion_est": "",
      "ref_note": ""
    },
    {
      "id": "api_718",
      "name": "영천구역 주택재개발정비구역",
      "region": "서울",
      "district": "서대문구",
      "dong": "",
      "type": "재개발",
      "stage": "주택재개발사업구역",
      "stage_idx": 0,
      "lat": 37.582375810771,
      "lng": 126.94622394400655,
      "area_m2": 10948,
      "units": 0,
      "contractor": "",
      "stage_date": "",
      "notes": "",
      "subway": "",
      "hangang": false,
      "completion_est": "",
      "ref_note": ""
    },
    {
      "id": "api_719",
      "name": "을지로2가 1.3.6.18",
      "region": "서울",
      "district": "중구",
      "dong": "",
      "type": "재개발",
      "stage": "도시환경정비사업지구",
      "stage_idx": 0,
      "lat": 37.56332933852433,
      "lng": 126.9995834952967,
      "area_m2": 0,
      "units": 0,
      "contractor": "",
      "stage_date": "",
      "notes": "",
      "subway": "",
      "hangang": false,
      "completion_est": "",
      "ref_note": ""
    },
    {
      "id": "api_720",
      "name": "을지로2가 2",
      "region": "서울",
      "district": "중구",
      "dong": "",
      "type": "재개발",
      "stage": "도시환경정비사업지구",
      "stage_idx": 0,
      "lat": 37.56836368554347,
      "lng": 126.98816865512536,
      "area_m2": 3473,
      "units": 0,
      "contractor": "",
      "stage_date": "",
      "notes": "",
      "subway": "",
      "hangang": false,
      "completion_est": "",
      "ref_note": ""
    },
    {
      "id": "api_721",
      "name": "을지로2가 18-1",
      "region": "서울",
      "district": "중구",
      "dong": "",
      "type": "재개발",
      "stage": "도시환경정비사업지구",
      "stage_idx": 0,
      "lat": 37.56772784649757,
      "lng": 127.00279110964833,
      "area_m2": 1477,
      "units": 0,
      "contractor": "",
      "stage_date": "",
      "notes": "",
      "subway": "",
      "hangang": false,
      "completion_est": "",
      "ref_note": ""
    },
    {
      "id": "api_722",
      "name": "을지로2가 18-2",
      "region": "서울",
      "district": "중구",
      "dong": "",
      "type": "재개발",
      "stage": "도시환경정비사업지구",
      "stage_idx": 0,
      "lat": 37.57181315561895,
      "lng": 126.98888033980165,
      "area_m2": 1477,
      "units": 0,
      "contractor": "",
      "stage_date": "",
      "notes": "",
      "subway": "",
      "hangang": false,
      "completion_est": "",
      "ref_note": ""
    },
    {
      "id": "api_857",
      "name": "주택재개발사업",
      "region": "서울",
      "district": "동작구",
      "dong": "",
      "type": "재개발",
      "stage": "주택재개발사업구역",
      "stage_idx": 0,
      "lat": 37.50283427448463,
      "lng": 126.93308313118068,
      "area_m2": 35303,
      "units": 0,
      "contractor": "",
      "stage_date": "",
      "notes": "",
      "subway": "",
      "hangang": false,
      "completion_est": "",
      "ref_note": ""
    },
    {
      "id": "api_864",
      "name": "상아.현대아파트 주택재건축사업",
      "region": "서울",
      "district": "영등포구",
      "dong": "",
      "type": "재건축",
      "stage": "주택재건축사업",
      "stage_idx": 0,
      "lat": 37.528046806129915,
      "lng": 126.89214045171614,
      "area_m2": 29428,
      "units": 0,
      "contractor": "",
      "stage_date": "",
      "notes": "",
      "subway": "",
      "hangang": false,
      "completion_est": "",
      "ref_note": ""
    },
    {
      "id": "api_865",
      "name": "남구로역세권 공공임대주택 도시정비형 재개발정비구역",
      "region": "서울",
      "district": "구로구",
      "dong": "",
      "type": "재개발",
      "stage": "도시환경정비사업구역",
      "stage_idx": 0,
      "lat": 37.487870371265366,
      "lng": 126.89229626146708,
      "area_m2": 0,
      "units": 0,
      "contractor": "",
      "stage_date": "",
      "notes": "",
      "subway": "",
      "hangang": false,
      "completion_est": "",
      "ref_note": ""
    },
    {
      "id": "api_867",
      "name": "국화아파트 재건축정비구역",
      "region": "서울",
      "district": "영등포구",
      "dong": "",
      "type": "재건축",
      "stage": "재건축사업구역",
      "stage_idx": 0,
      "lat": 37.517635426952566,
      "lng": 126.8995035354578,
      "area_m2": 0,
      "units": 0,
      "contractor": "",
      "stage_date": "",
      "notes": "",
      "subway": "",
      "hangang": false,
      "completion_est": "",
      "ref_note": ""
    },
    {
      "id": "api_869",
      "name": "서울역-서대문 1.2",
      "region": "서울",
      "district": "중구",
      "dong": "",
      "type": "재개발",
      "stage": "도시환경정비사업지구",
      "stage_idx": 0,
      "lat": 37.56124038830309,
      "lng": 127.00427287184469,
      "area_m2": 1109,
      "units": 0,
      "contractor": "",
      "stage_date": "",
      "notes": "",
      "subway": "",
      "hangang": false,
      "completion_est": "",
      "ref_note": ""
    },
    {
      "id": "api_870",
      "name": "문래동2·3가B 도시정비형 재개발구역 ",
      "region": "서울",
      "district": "영등포구",
      "dong": "",
      "type": "재개발",
      "stage": "도시환경정비사업구역",
      "stage_idx": 0,
      "lat": 37.51984334497914,
      "lng": 126.89737861181254,
      "area_m2": 0,
      "units": 0,
      "contractor": "",
      "stage_date": "",
      "notes": "",
      "subway": "",
      "hangang": false,
      "completion_est": "",
      "ref_note": ""
    },
    {
      "id": "api_874",
      "name": "서소문5",
      "region": "서울",
      "district": "중구",
      "dong": "",
      "type": "재개발",
      "stage": "도시환경정비사업지구",
      "stage_idx": 0,
      "lat": 37.56098372372916,
      "lng": 127.00184044968866,
      "area_m2": 2917,
      "units": 0,
      "contractor": "",
      "stage_date": "",
      "notes": "",
      "subway": "",
      "hangang": false,
      "completion_est": "",
      "ref_note": ""
    },
    {
      "id": "api_875",
      "name": "서소문6",
      "region": "서울",
      "district": "중구",
      "dong": "",
      "type": "재개발",
      "stage": "도시환경정비사업지구",
      "stage_idx": 0,
      "lat": 37.57268881242119,
      "lng": 127.00754044247732,
      "area_m2": 2594,
      "units": 0,
      "contractor": "",
      "stage_date": "",
      "notes": "",
      "subway": "",
      "hangang": false,
      "completion_est": "",
      "ref_note": ""
    },
    {
      "id": "api_876",
      "name": "서소문8-1",
      "region": "서울",
      "district": "중구",
      "dong": "",
      "type": "재개발",
      "stage": "도시환경정비사업지구",
      "stage_idx": 0,
      "lat": 37.560676958323334,
      "lng": 126.9959378312772,
      "area_m2": 694,
      "units": 0,
      "contractor": "",
      "stage_date": "",
      "notes": "",
      "subway": "",
      "hangang": false,
      "completion_est": "",
      "ref_note": ""
    },
    {
      "id": "api_877",
      "name": "서소문8-2",
      "region": "서울",
      "district": "중구",
      "dong": "",
      "type": "재개발",
      "stage": "도시환경정비사업지구",
      "stage_idx": 0,
      "lat": 37.56056283001131,
      "lng": 126.99030804950276,
      "area_m2": 1208,
      "units": 0,
      "contractor": "",
      "stage_date": "",
      "notes": "",
      "subway": "",
      "hangang": false,
      "completion_est": "",
      "ref_note": ""
    },
    {
      "id": "api_878",
      "name": "서소문9",
      "region": "서울",
      "district": "중구",
      "dong": "",
      "type": "재개발",
      "stage": "도시환경정비사업지구",
      "stage_idx": 0,
      "lat": 37.554650723778124,
      "lng": 127.0054567721705,
      "area_m2": 4253,
      "units": 0,
      "contractor": "",
      "stage_date": "",
      "notes": "",
      "subway": "",
      "hangang": false,
      "completion_est": "",
      "ref_note": ""
    },
    {
      "id": "api_895",
      "name": "신길우성2차·우창아파트 재건축 정비사업",
      "region": "서울",
      "district": "영등포구",
      "dong": "",
      "type": "재건축",
      "stage": "재건축사업구역",
      "stage_idx": 0,
      "lat": 37.531815618530125,
      "lng": 126.89401057747516,
      "area_m2": 0,
      "units": 0,
      "contractor": "",
      "stage_date": "",
      "notes": "",
      "subway": "",
      "hangang": false,
      "completion_est": "",
      "ref_note": ""
    },
    {
      "id": "api_896",
      "name": "제기 도시정비형 재개발구역",
      "region": "서울",
      "district": "동대문구",
      "dong": "",
      "type": "재개발",
      "stage": "도시환경정비사업구역",
      "stage_idx": 0,
      "lat": 37.575166924748466,
      "lng": 127.04038250904856,
      "area_m2": 124640,
      "units": 0,
      "contractor": "",
      "stage_date": "",
      "notes": "",
      "subway": "",
      "hangang": false,
      "completion_est": "",
      "ref_note": ""
    },
    {
      "id": "api_898",
      "name": "신정1재정비촉진구역",
      "region": "서울",
      "district": "양천구",
      "dong": "",
      "type": "재개발",
      "stage": "주택재개발사업구역",
      "stage_idx": 0,
      "lat": 37.52284815680177,
      "lng": 126.86138854517397,
      "area_m2": 254260,
      "units": 0,
      "contractor": "",
      "stage_date": "",
      "notes": "",
      "subway": "",
      "hangang": false,
      "completion_est": "",
      "ref_note": ""
    },
    {
      "id": "api_899",
      "name": "천왕역세권 공공임대주택 건립관련 도시환경정비사업",
      "region": "서울",
      "district": "구로구",
      "dong": "",
      "type": "재개발",
      "stage": "도시환경정비사업구역",
      "stage_idx": 0,
      "lat": 37.49850801346032,
      "lng": 126.89163012776501,
      "area_m2": 10451,
      "units": 0,
      "contractor": "",
      "stage_date": "",
      "notes": "",
      "subway": "",
      "hangang": false,
      "completion_est": "",
      "ref_note": ""
    },
    {
      "id": "api_900",
      "name": "둔촌동 삼익빌라 주택재건축정비사업",
      "region": "서울",
      "district": "강동구",
      "dong": "",
      "type": "재건축",
      "stage": "주택재건축사업",
      "stage_idx": 0,
      "lat": 37.52851307270215,
      "lng": 127.13153854304376,
      "area_m2": 9914,
      "units": 0,
      "contractor": "",
      "stage_date": "",
      "notes": "",
      "subway": "",
      "hangang": false,
      "completion_est": "",
      "ref_note": ""
    },
    {
      "id": "api_901",
      "name": "면목3 주택재건축구역",
      "region": "서울",
      "district": "중랑구",
      "dong": "",
      "type": "재건축",
      "stage": "주택재건축사업",
      "stage_idx": 0,
      "lat": 37.61194384997471,
      "lng": 127.09727858981604,
      "area_m2": 68255,
      "units": 0,
      "contractor": "",
      "stage_date": "",
      "notes": "",
      "subway": "",
      "hangang": false,
      "completion_est": "",
      "ref_note": ""
    },
    {
      "id": "api_902",
      "name": "이문1재정비촉진구역",
      "region": "서울",
      "district": "동대문구",
      "dong": "",
      "type": "재개발",
      "stage": "주택재개발사업구역",
      "stage_idx": 0,
      "lat": 37.57588286089048,
      "lng": 127.04690745005553,
      "area_m2": 144964,
      "units": 0,
      "contractor": "",
      "stage_date": "",
      "notes": "",
      "subway": "",
      "hangang": false,
      "completion_est": "",
      "ref_note": ""
    },
    {
      "id": "api_903",
      "name": "이문3(3-1) 재정비촉진구역",
      "region": "서울",
      "district": "동대문구",
      "dong": "",
      "type": "재개발",
      "stage": "주택재개발사업구역",
      "stage_idx": 0,
      "lat": 37.57257201877454,
      "lng": 127.04074471201994,
      "area_m2": 133505,
      "units": 0,
      "contractor": "",
      "stage_date": "",
      "notes": "",
      "subway": "",
      "hangang": false,
      "completion_est": "",
      "ref_note": ""
    },
    {
      "id": "api_905",
      "name": "장위10구역 ",
      "region": "서울",
      "district": "성북구",
      "dong": "",
      "type": "재개발",
      "stage": "주택재개발사업구역",
      "stage_idx": 0,
      "lat": 37.59741190882111,
      "lng": 127.02522887059156,
      "area_m2": 94072,
      "units": 0,
      "contractor": "",
      "stage_date": "",
      "notes": "",
      "subway": "",
      "hangang": false,
      "completion_est": "",
      "ref_note": ""
    },
    {
      "id": "api_906",
      "name": "오류2동 147번지 일대 주거환경관리 정비구역 ",
      "region": "서울",
      "district": "구로구",
      "dong": "",
      "type": "재개발",
      "stage": "주거환경관리사업",
      "stage_idx": 0,
      "lat": 37.4934695829999,
      "lng": 126.89049912962643,
      "area_m2": 178630,
      "units": 0,
      "contractor": "",
      "stage_date": "",
      "notes": "",
      "subway": "",
      "hangang": false,
      "completion_est": "",
      "ref_note": ""
    },
    {
      "id": "api_907",
      "name": "신길10재정비촉진구역",
      "region": "서울",
      "district": "영등포구",
      "dong": "",
      "type": "재개발",
      "stage": "주택재건축사업",
      "stage_idx": 0,
      "lat": 37.52098529689489,
      "lng": 126.89093969182339,
      "area_m2": 32234,
      "units": 0,
      "contractor": "",
      "stage_date": "",
      "notes": "",
      "subway": "",
      "hangang": false,
      "completion_est": "",
      "ref_note": ""
    },
    {
      "id": "api_908",
      "name": "신문로제2구역 제8지구 도시정비형 재개발사업",
      "region": "서울",
      "district": "종로구",
      "dong": "",
      "type": "재개발",
      "stage": "도시환경정비사업구역",
      "stage_idx": 0,
      "lat": 37.58543159061286,
      "lng": 126.97926467702278,
      "area_m2": 7052,
      "units": 0,
      "contractor": "",
      "stage_date": "",
      "notes": "",
      "subway": "",
      "hangang": false,
      "completion_est": "",
      "ref_note": ""
    },
    {
      "id": "api_909",
      "name": "홍은제14 주택재개발정비구역",
      "region": "서울",
      "district": "서대문구",
      "dong": "",
      "type": "재개발",
      "stage": "주택재개발사업구역",
      "stage_idx": 0,
      "lat": 37.58858366087526,
      "lng": 126.92783106390141,
      "area_m2": 22882,
      "units": 0,
      "contractor": "",
      "stage_date": "",
      "notes": "",
      "subway": "",
      "hangang": false,
      "completion_est": "",
      "ref_note": ""
    },
    {
      "id": "api_910",
      "name": "상봉7재정비촉진구역",
      "region": "서울",
      "district": "중랑구",
      "dong": "",
      "type": "재개발",
      "stage": "도시환경정비사업구역",
      "stage_idx": 0,
      "lat": 37.60825193392991,
      "lng": 127.10004830727993,
      "area_m2": 14990,
      "units": 0,
      "contractor": "",
      "stage_date": "",
      "notes": "",
      "subway": "",
      "hangang": false,
      "completion_est": "",
      "ref_note": ""
    },
    {
      "id": "api_935",
      "name": "순화 도시정비형 재개발구역",
      "region": "서울",
      "district": "중구",
      "dong": "",
      "type": "재개발",
      "stage": "도시환경정비사업구역",
      "stage_idx": 0,
      "lat": 37.57229044508835,
      "lng": 127.00704829914689,
      "area_m2": 15092,
      "units": 0,
      "contractor": "",
      "stage_date": "",
      "notes": "",
      "subway": "",
      "hangang": false,
      "completion_est": "",
      "ref_note": ""
    },
    {
      "id": "api_936",
      "name": "순화 도시정비형 재개발구역 제1-2지구",
      "region": "서울",
      "district": "중구",
      "dong": "",
      "type": "재개발",
      "stage": "도시환경정비사업구역",
      "stage_idx": 0,
      "lat": 37.56953372355643,
      "lng": 126.99452061069316,
      "area_m2": 1979,
      "units": 0,
      "contractor": "",
      "stage_date": "",
      "notes": "",
      "subway": "",
      "hangang": false,
      "completion_est": "",
      "ref_note": ""
    },
    {
      "id": "api_937",
      "name": "삼선제5구역 주택재개발 정비사업",
      "region": "서울",
      "district": "성북구",
      "dong": "",
      "type": "재개발",
      "stage": "주택재개발사업구역",
      "stage_idx": 0,
      "lat": 37.59611543662226,
      "lng": 127.01662494581504,
      "area_m2": 63936,
      "units": 0,
      "contractor": "",
      "stage_date": "",
      "notes": "",
      "subway": "",
      "hangang": false,
      "completion_est": "",
      "ref_note": ""
    },
    {
      "id": "api_938",
      "name": "동선제2구역 주택재개발정비사업",
      "region": "서울",
      "district": "성북구",
      "dong": "",
      "type": "재개발",
      "stage": "주택재개발사업구역",
      "stage_idx": 0,
      "lat": 37.596421261333724,
      "lng": 127.02449933278456,
      "area_m2": 15637,
      "units": 0,
      "contractor": "",
      "stage_date": "",
      "notes": "",
      "subway": "",
      "hangang": false,
      "completion_est": "",
      "ref_note": ""
    },
    {
      "id": "api_940",
      "name": "이문1재정비촉진구역",
      "region": "서울",
      "district": "동대문구",
      "dong": "",
      "type": "재개발",
      "stage": "주택재개발사업구역",
      "stage_idx": 0,
      "lat": 37.56529636371888,
      "lng": 127.04077272709281,
      "area_m2": 144856,
      "units": 0,
      "contractor": "",
      "stage_date": "",
      "notes": "",
      "subway": "",
      "hangang": false,
      "completion_est": "",
      "ref_note": ""
    },
    {
      "id": "api_941",
      "name": "잠실진주아파트 재건축사업",
      "region": "서울",
      "district": "송파구",
      "dong": "",
      "type": "재건축",
      "stage": "재건축사업구역",
      "stage_idx": 0,
      "lat": 37.51463904596842,
      "lng": 127.10548741526053,
      "area_m2": 112558,
      "units": 0,
      "contractor": "",
      "stage_date": "",
      "notes": "",
      "subway": "",
      "hangang": false,
      "completion_est": "",
      "ref_note": ""
    },
    {
      "id": "api_942",
      "name": "신촌지역(서대문)도시정비형 재개발구역",
      "region": "서울",
      "district": "서대문구",
      "dong": "",
      "type": "재개발",
      "stage": "도시환경정비사업구역",
      "stage_idx": 0,
      "lat": 37.57619546488895,
      "lng": 126.92858248455642,
      "area_m2": 4597,
      "units": 0,
      "contractor": "",
      "stage_date": "",
      "notes": "",
      "subway": "",
      "hangang": false,
      "completion_est": "",
      "ref_note": ""
    },
    {
      "id": "api_943",
      "name": "문래동1가A 도시정비형 재개발구역 ",
      "region": "서울",
      "district": "영등포구",
      "dong": "",
      "type": "재개발",
      "stage": "도시환경정비사업구역",
      "stage_idx": 0,
      "lat": 37.524023691773195,
      "lng": 126.89722664027272,
      "area_m2": 0,
      "units": 0,
      "contractor": "",
      "stage_date": "",
      "notes": "",
      "subway": "",
      "hangang": false,
      "completion_est": "",
      "ref_note": ""
    },
    {
      "id": "api_944",
      "name": "문래동1가B 도시정비형 재개발구역 ",
      "region": "서울",
      "district": "영등포구",
      "dong": "",
      "type": "재개발",
      "stage": "도시환경정비사업구역",
      "stage_idx": 0,
      "lat": 37.5335255805848,
      "lng": 126.88697581996114,
      "area_m2": 0,
      "units": 0,
      "contractor": "",
      "stage_date": "",
      "notes": "",
      "subway": "",
      "hangang": false,
      "completion_est": "",
      "ref_note": ""
    },
    {
      "id": "api_964",
      "name": "문래동2가A 도시정비형 재개발구역 ",
      "region": "서울",
      "district": "영등포구",
      "dong": "",
      "type": "재개발",
      "stage": "도시환경정비사업구역",
      "stage_idx": 0,
      "lat": 37.52772979443431,
      "lng": 126.89395690542908,
      "area_m2": 0,
      "units": 0,
      "contractor": "",
      "stage_date": "",
      "notes": "",
      "subway": "",
      "hangang": false,
      "completion_est": "",
      "ref_note": ""
    },
    {
      "id": "api_965",
      "name": "문래동2가B 도시정비형 재개발구역 ",
      "region": "서울",
      "district": "영등포구",
      "dong": "",
      "type": "재개발",
      "stage": "도시환경정비사업구역",
      "stage_idx": 0,
      "lat": 37.5184730870606,
      "lng": 126.88965566642607,
      "area_m2": 0,
      "units": 0,
      "contractor": "",
      "stage_date": "",
      "notes": "",
      "subway": "",
      "hangang": false,
      "completion_est": "",
      "ref_note": ""
    },
    {
      "id": "api_966",
      "name": "문래동4가 도시환경정비구역",
      "region": "서울",
      "district": "영등포구",
      "dong": "",
      "type": "재개발",
      "stage": "도시환경정비사업구역",
      "stage_idx": 0,
      "lat": 37.52017338398614,
      "lng": 126.89892614643878,
      "area_m2": 94087,
      "units": 0,
      "contractor": "",
      "stage_date": "",
      "notes": "",
      "subway": "",
      "hangang": false,
      "completion_est": "",
      "ref_note": ""
    },
    {
      "id": "api_967",
      "name": "북아현2 재정비촉진구역 ",
      "region": "서울",
      "district": "서대문구",
      "dong": "",
      "type": "재개발",
      "stage": "주택재개발사업구역",
      "stage_idx": 0,
      "lat": 37.57473976038432,
      "lng": 126.927535525659,
      "area_m2": 124270,
      "units": 0,
      "contractor": "",
      "stage_date": "",
      "notes": "",
      "subway": "",
      "hangang": false,
      "completion_est": "",
      "ref_note": ""
    },
    {
      "id": "api_968",
      "name": "효창제6구역주택재개발정비사업",
      "region": "서울",
      "district": "용산구",
      "dong": "",
      "type": "재개발",
      "stage": "주택재개발사업구역",
      "stage_idx": 0,
      "lat": 37.52983394757778,
      "lng": 126.97296794378286,
      "area_m2": 18171,
      "units": 0,
      "contractor": "",
      "stage_date": "",
      "notes": "",
      "subway": "",
      "hangang": false,
      "completion_est": "",
      "ref_note": ""
    },
    {
      "id": "api_969",
      "name": "방화5재정비촉진구역 (주택재건축사업) ",
      "region": "서울",
      "district": "강서구",
      "dong": "",
      "type": "재건축",
      "stage": "주택재건축사업",
      "stage_idx": 0,
      "lat": 37.54764647116799,
      "lng": 126.84705219221937,
      "area_m2": 99520,
      "units": 0,
      "contractor": "",
      "stage_date": "",
      "notes": "",
      "subway": "",
      "hangang": false,
      "completion_est": "",
      "ref_note": ""
    },
    {
      "id": "api_971",
      "name": "수색4재정비촉진구역(주택재개발사업)",
      "region": "서울",
      "district": "은평구",
      "dong": "",
      "type": "재개발",
      "stage": "주택재개발사업구역",
      "stage_idx": 0,
      "lat": 37.612317750045065,
      "lng": 126.92485407942229,
      "area_m2": 61889,
      "units": 0,
      "contractor": "",
      "stage_date": "",
      "notes": "",
      "subway": "",
      "hangang": false,
      "completion_est": "",
      "ref_note": ""
    },
    {
      "id": "api_972",
      "name": "가재울6 재정비촉진구역",
      "region": "서울",
      "district": "서대문구",
      "dong": "",
      "type": "재개발",
      "stage": "주택재개발사업구역",
      "stage_idx": 0,
      "lat": 37.569635435030065,
      "lng": 126.94097272323151,
      "area_m2": 48084,
      "units": 0,
      "contractor": "",
      "stage_date": "",
      "notes": "",
      "subway": "",
      "hangang": false,
      "completion_est": "",
      "ref_note": ""
    },
    {
      "id": "api_987",
      "name": "도시정비형 재개발사업구역",
      "region": "서울",
      "district": "중구",
      "dong": "",
      "type": "재개발",
      "stage": "재개발사업지구",
      "stage_idx": 0,
      "lat": 37.55598620963015,
      "lng": 126.99261134797685,
      "area_m2": 2918,
      "units": 0,
      "contractor": "",
      "stage_date": "",
      "notes": "",
      "subway": "",
      "hangang": false,
      "completion_est": "",
      "ref_note": ""
    },
    {
      "id": "api_990",
      "name": "중구 다산권 성곽마을 관리형 주거환경개선사업",
      "region": "서울",
      "district": "중구",
      "dong": "",
      "type": "재개발",
      "stage": "주거환경개선사업구역",
      "stage_idx": 0,
      "lat": 37.558344351556755,
      "lng": 126.9938854752431,
      "area_m2": 0,
      "units": 0,
      "contractor": "",
      "stage_date": "",
      "notes": "",
      "subway": "",
      "hangang": false,
      "completion_est": "",
      "ref_note": ""
    },
    {
      "id": "api_991",
      "name": "서울특별시 마포구 창전동 27-19호 일대",
      "region": "서울",
      "district": "마포구",
      "dong": "",
      "type": "재개발",
      "stage": "주택재건축사업",
      "stage_idx": 0,
      "lat": 37.57285549902469,
      "lng": 126.89963774806623,
      "area_m2": 14770,
      "units": 0,
      "contractor": "",
      "stage_date": "",
      "notes": "",
      "subway": "",
      "hangang": false,
      "completion_est": "",
      "ref_note": ""
    },
    {
      "id": "api_1013",
      "name": "개포시영아파트 중심상가재건축정비사업",
      "region": "서울",
      "district": "강남구",
      "dong": "",
      "type": "재건축",
      "stage": "재건축사업구역",
      "stage_idx": 0,
      "lat": 37.51064138103238,
      "lng": 127.053409392489,
      "area_m2": 0,
      "units": 0,
      "contractor": "",
      "stage_date": "",
      "notes": "",
      "subway": "",
      "hangang": false,
      "completion_est": "",
      "ref_note": ""
    },
    {
      "id": "api_1016",
      "name": "국제빌딩주변 도시정비형 재개발구역",
      "region": "서울",
      "district": "용산구",
      "dong": "",
      "type": "재개발",
      "stage": "도시환경정비사업구역",
      "stage_idx": 0,
      "lat": 37.52464525997648,
      "lng": 126.98783646961759,
      "area_m2": 109965,
      "units": 0,
      "contractor": "",
      "stage_date": "",
      "notes": "",
      "subway": "",
      "hangang": false,
      "completion_est": "",
      "ref_note": ""
    },
    {
      "id": "api_1017",
      "name": "4구역",
      "region": "서울",
      "district": "용산구",
      "dong": "",
      "type": "재개발",
      "stage": "도시환경정비사업구역",
      "stage_idx": 0,
      "lat": 37.53379315358903,
      "lng": 126.97587568179132,
      "area_m2": 53066,
      "units": 0,
      "contractor": "",
      "stage_date": "",
      "notes": "",
      "subway": "",
      "hangang": false,
      "completion_est": "",
      "ref_note": ""
    },
    {
      "id": "api_1018",
      "name": "응암제11구역 주택재개발정비사업",
      "region": "서울",
      "district": "은평구",
      "dong": "",
      "type": "재개발",
      "stage": "주택재개발사업구역",
      "stage_idx": 0,
      "lat": 37.603781522532955,
      "lng": 126.93036545732596,
      "area_m2": 36242,
      "units": 0,
      "contractor": "",
      "stage_date": "",
      "notes": "",
      "subway": "",
      "hangang": false,
      "completion_est": "",
      "ref_note": ""
    },
    {
      "id": "api_1020",
      "name": "서소문8-3",
      "region": "서울",
      "district": "중구",
      "dong": "",
      "type": "재개발",
      "stage": "도시환경정비사업지구",
      "stage_idx": 0,
      "lat": 37.55711850372512,
      "lng": 126.99432450307184,
      "area_m2": 1172,
      "units": 0,
      "contractor": "",
      "stage_date": "",
      "notes": "",
      "subway": "",
      "hangang": false,
      "completion_est": "",
      "ref_note": ""
    },
    {
      "id": "api_1021",
      "name": "갈현제1구역 주택재개발정비사업",
      "region": "서울",
      "district": "은평구",
      "dong": "",
      "type": "재개발",
      "stage": "주택재개발사업구역",
      "stage_idx": 0,
      "lat": 37.60798535520865,
      "lng": 126.93686242365649,
      "area_m2": 238850,
      "units": 0,
      "contractor": "",
      "stage_date": "",
      "notes": "",
      "subway": "",
      "hangang": false,
      "completion_est": "",
      "ref_note": ""
    },
    {
      "id": "api_1022",
      "name": "용답동 108-1번지 일대 주택재개발정비사업",
      "region": "서울",
      "district": "성동구",
      "dong": "",
      "type": "재개발",
      "stage": "주택재개발사업구역",
      "stage_idx": 0,
      "lat": 37.56104401034811,
      "lng": 127.04281311020385,
      "area_m2": 73341,
      "units": 0,
      "contractor": "",
      "stage_date": "",
      "notes": "",
      "subway": "",
      "hangang": false,
      "completion_est": "",
      "ref_note": ""
    },
    {
      "id": "api_1023",
      "name": "노량진6재정비촉진구역 ",
      "region": "서울",
      "district": "동작구",
      "dong": "",
      "type": "재개발",
      "stage": "주택재개발사업구역",
      "stage_idx": 0,
      "lat": 37.51642938869334,
      "lng": 126.94080789245358,
      "area_m2": 72809,
      "units": 0,
      "contractor": "",
      "stage_date": "",
      "notes": "",
      "subway": "",
      "hangang": false,
      "completion_est": "",
      "ref_note": ""
    },
    {
      "id": "api_1038",
      "name": "북아현2 재정비촉진구역 ",
      "region": "서울",
      "district": "서대문구",
      "dong": "",
      "type": "재개발",
      "stage": "주택재개발사업구역",
      "stage_idx": 0,
      "lat": 37.587396265177944,
      "lng": 126.93840418971602,
      "area_m2": 120055,
      "units": 0,
      "contractor": "",
      "stage_date": "",
      "notes": "",
      "subway": "",
      "hangang": false,
      "completion_est": "",
      "ref_note": ""
    },
    {
      "id": "api_1040",
      "name": "한강맨션아파트 주택재건축정비구역",
      "region": "서울",
      "district": "용산구",
      "dong": "",
      "type": "재건축",
      "stage": "주택재건축사업",
      "stage_idx": 0,
      "lat": 37.53599138069553,
      "lng": 126.98312224181741,
      "area_m2": 84096,
      "units": 0,
      "contractor": "",
      "stage_date": "",
      "notes": "",
      "subway": "",
      "hangang": false,
      "completion_est": "",
      "ref_note": ""
    },
    {
      "id": "api_1041",
      "name": "상계4재정비촉진구역 ",
      "region": "서울",
      "district": "노원구",
      "dong": "",
      "type": "재개발",
      "stage": "주택재개발사업구역",
      "stage_idx": 0,
      "lat": 37.657411525984394,
      "lng": 127.06285826336669,
      "area_m2": 39960,
      "units": 0,
      "contractor": "",
      "stage_date": "",
      "notes": "",
      "subway": "",
      "hangang": false,
      "completion_est": "",
      "ref_note": ""
    },
    {
      "id": "api_1042",
      "name": "가락삼익맨숀 아파트 재건축정비사업",
      "region": "서울",
      "district": "송파구",
      "dong": "",
      "type": "재건축",
      "stage": "주택재건축사업",
      "stage_idx": 0,
      "lat": 37.50534029777272,
      "lng": 127.11006532384327,
      "area_m2": 62059,
      "units": 0,
      "contractor": "",
      "stage_date": "",
      "notes": "",
      "subway": "",
      "hangang": false,
      "completion_est": "",
      "ref_note": ""
    },
    {
      "id": "api_1043",
      "name": "수정아파트 재건축정비사업",
      "region": "서울",
      "district": "양천구",
      "dong": "",
      "type": "재건축",
      "stage": "주택재건축사업",
      "stage_idx": 0,
      "lat": 37.50997414912417,
      "lng": 126.86565955031577,
      "area_m2": 0,
      "units": 0,
      "contractor": "",
      "stage_date": "",
      "notes": "",
      "subway": "",
      "hangang": false,
      "completion_est": "",
      "ref_note": ""
    },
    {
      "id": "api_1044",
      "name": "개포시영아파트 주택재건축정비사업",
      "region": "서울",
      "district": "강남구",
      "dong": "",
      "type": "재건축",
      "stage": "주택재건축사업",
      "stage_idx": 0,
      "lat": 37.52462253436587,
      "lng": 127.04197518704305,
      "area_m2": 115910,
      "units": 0,
      "contractor": "",
      "stage_date": "",
      "notes": "",
      "subway": "",
      "hangang": false,
      "completion_est": "",
      "ref_note": ""
    },
    {
      "id": "api_1046",
      "name": "월계동 487-17일대 주택재건축 정비사업",
      "region": "서울",
      "district": "노원구",
      "dong": "",
      "type": "재건축",
      "stage": "주택재건축사업",
      "stage_idx": 0,
      "lat": 37.645735601536245,
      "lng": 127.05469821935266,
      "area_m2": 14704,
      "units": 0,
      "contractor": "",
      "stage_date": "",
      "notes": "",
      "subway": "",
      "hangang": false,
      "completion_est": "",
      "ref_note": ""
    },
    {
      "id": "api_1047",
      "name": "응암제2구역 주택재개발정비사업",
      "region": "서울",
      "district": "은평구",
      "dong": "",
      "type": "재개발",
      "stage": "주택재개발사업구역",
      "stage_idx": 0,
      "lat": 37.611972938883255,
      "lng": 126.91998369512633,
      "area_m2": 120765,
      "units": 0,
      "contractor": "",
      "stage_date": "",
      "notes": "",
      "subway": "",
      "hangang": false,
      "completion_est": "",
      "ref_note": ""
    },
    {
      "id": "api_1111",
      "name": "가락프라자아파트 주택재건축사업 ",
      "region": "서울",
      "district": "송파구",
      "dong": "",
      "type": "재건축",
      "stage": "주택재건축사업",
      "stage_idx": 0,
      "lat": 37.519492147118925,
      "lng": 127.1013465554759,
      "area_m2": 47807,
      "units": 0,
      "contractor": "",
      "stage_date": "",
      "notes": "",
      "subway": "",
      "hangang": false,
      "completion_est": "",
      "ref_note": ""
    },
    {
      "id": "api_1112",
      "name": "월계동 487-17번지 일대 주택재건축정비사업",
      "region": "서울",
      "district": "노원구",
      "dong": "",
      "type": "재건축",
      "stage": "주택재건축사업",
      "stage_idx": 0,
      "lat": 37.64936826324595,
      "lng": 127.0617751012795,
      "area_m2": 14704,
      "units": 0,
      "contractor": "",
      "stage_date": "",
      "notes": "",
      "subway": "",
      "hangang": false,
      "completion_est": "",
      "ref_note": ""
    },
    {
      "id": "api_1127",
      "name": "성북제2-신월곡1 결합정비사업",
      "region": "서울",
      "district": "성북구",
      "dong": "",
      "type": "재개발",
      "stage": "결합정비구역",
      "stage_idx": 0,
      "lat": 37.598105346760285,
      "lng": 127.02142314816635,
      "area_m2": 129866,
      "units": 0,
      "contractor": "",
      "stage_date": "",
      "notes": "",
      "subway": "",
      "hangang": false,
      "completion_est": "",
      "ref_note": ""
    },
    {
      "id": "api_1128",
      "name": "연희 제1주택재건축정비구역",
      "region": "서울",
      "district": "서대문구",
      "dong": "",
      "type": "재건축",
      "stage": "주택재건축사업",
      "stage_idx": 0,
      "lat": 37.577843267729605,
      "lng": 126.94157384909799,
      "area_m2": 19468,
      "units": 0,
      "contractor": "",
      "stage_date": "",
      "notes": "",
      "subway": "",
      "hangang": false,
      "completion_est": "",
      "ref_note": ""
    },
    {
      "id": "api_1292",
      "name": "대흥제2구역주택재개발사업",
      "region": "서울",
      "district": "마포구",
      "dong": "",
      "type": "재개발",
      "stage": "주택재개발사업구역",
      "stage_idx": 0,
      "lat": 37.56831158383888,
      "lng": 126.91842599729092,
      "area_m2": 62245,
      "units": 0,
      "contractor": "",
      "stage_date": "",
      "notes": "",
      "subway": "",
      "hangang": false,
      "completion_est": "",
      "ref_note": ""
    },
    {
      "id": "api_1541",
      "name": "장위1 재정비촉진구역",
      "region": "서울",
      "district": "성북구",
      "dong": "",
      "type": "재개발",
      "stage": "주택재개발사업지구",
      "stage_idx": 0,
      "lat": 37.58893688441223,
      "lng": 127.02417057281698,
      "area_m2": 80513,
      "units": 0,
      "contractor": "",
      "stage_date": "",
      "notes": "",
      "subway": "",
      "hangang": false,
      "completion_est": "",
      "ref_note": ""
    },
    {
      "id": "api_1975",
      "name": "대흥제2구역 주택재개발사업",
      "region": "서울",
      "district": "마포구",
      "dong": "",
      "type": "재개발",
      "stage": "주택재개발사업구역",
      "stage_idx": 0,
      "lat": 37.57305085861136,
      "lng": 126.90239877829377,
      "area_m2": 62260,
      "units": 0,
      "contractor": "",
      "stage_date": "",
      "notes": "",
      "subway": "",
      "hangang": false,
      "completion_est": "",
      "ref_note": ""
    },
    {
      "id": "api_2081",
      "name": "이문4재정비촉진구역",
      "region": "서울",
      "district": "동대문구",
      "dong": "",
      "type": "재개발",
      "stage": "주택재개발사업구역",
      "stage_idx": 0,
      "lat": 37.5674964371686,
      "lng": 127.04570223936949,
      "area_m2": 151388,
      "units": 0,
      "contractor": "",
      "stage_date": "",
      "notes": "",
      "subway": "",
      "hangang": false,
      "completion_est": "",
      "ref_note": ""
    },
    {
      "id": "api_2082",
      "name": "신길14재정비촉진구역",
      "region": "서울",
      "district": "영등포구",
      "dong": "",
      "type": "재개발",
      "stage": "주택재개발사업구역",
      "stage_idx": 0,
      "lat": 37.52775306910078,
      "lng": 126.88941043142732,
      "area_m2": 27844,
      "units": 0,
      "contractor": "",
      "stage_date": "",
      "notes": "",
      "subway": "",
      "hangang": false,
      "completion_est": "",
      "ref_note": ""
    },
    {
      "id": "api_2083",
      "name": "공평지구<H9>",
      "region": "서울",
      "district": "종로구",
      "dong": "",
      "type": "재개발",
      "stage": "도시환경정비사업구역",
      "stage_idx": 0,
      "lat": 37.58619240678968,
      "lng": 126.97788301502496,
      "area_m2": 127,
      "units": 0,
      "contractor": "",
      "stage_date": "",
      "notes": "",
      "subway": "",
      "hangang": false,
      "completion_est": "",
      "ref_note": ""
    },
    {
      "id": "api_2084",
      "name": "을지로2가 19-1",
      "region": "서울",
      "district": "중구",
      "dong": "",
      "type": "재개발",
      "stage": "도시환경정비사업지구",
      "stage_idx": 0,
      "lat": 37.563245906460466,
      "lng": 126.98956458380215,
      "area_m2": 1477,
      "units": 0,
      "contractor": "",
      "stage_date": "",
      "notes": "",
      "subway": "",
      "hangang": false,
      "completion_est": "",
      "ref_note": ""
    },
    {
      "id": "api_2085",
      "name": "을지로2가 19-3",
      "region": "서울",
      "district": "중구",
      "dong": "",
      "type": "재개발",
      "stage": "도시환경정비사업지구",
      "stage_idx": 0,
      "lat": 37.56882604479764,
      "lng": 127.00643386227082,
      "area_m2": 1477,
      "units": 0,
      "contractor": "",
      "stage_date": "",
      "notes": "",
      "subway": "",
      "hangang": false,
      "completion_est": "",
      "ref_note": ""
    },
    {
      "id": "api_2086",
      "name": "을지로2가 19-4",
      "region": "서울",
      "district": "중구",
      "dong": "",
      "type": "재개발",
      "stage": "도시환경정비사업지구",
      "stage_idx": 0,
      "lat": 37.56743659883534,
      "lng": 126.99673913091074,
      "area_m2": 1477,
      "units": 0,
      "contractor": "",
      "stage_date": "",
      "notes": "",
      "subway": "",
      "hangang": false,
      "completion_est": "",
      "ref_note": ""
    },
    {
      "id": "api_2087",
      "name": "을지로2가 20-1",
      "region": "서울",
      "district": "중구",
      "dong": "",
      "type": "재개발",
      "stage": "도시환경정비사업지구",
      "stage_idx": 0,
      "lat": 37.562185755677255,
      "lng": 126.99858403630147,
      "area_m2": 0,
      "units": 0,
      "contractor": "",
      "stage_date": "",
      "notes": "",
      "subway": "",
      "hangang": false,
      "completion_est": "",
      "ref_note": ""
    },
    {
      "id": "api_2088",
      "name": "을지로2가 20-2",
      "region": "서울",
      "district": "중구",
      "dong": "",
      "type": "재개발",
      "stage": "도시환경정비사업지구",
      "stage_idx": 0,
      "lat": 37.55726808170826,
      "lng": 126.99137901952236,
      "area_m2": 0,
      "units": 0,
      "contractor": "",
      "stage_date": "",
      "notes": "",
      "subway": "",
      "hangang": false,
      "completion_est": "",
      "ref_note": ""
    },
    {
      "id": "api_2089",
      "name": "을지로2가 18-5",
      "region": "서울",
      "district": "중구",
      "dong": "",
      "type": "재개발",
      "stage": "도시환경정비사업지구",
      "stage_idx": 0,
      "lat": 37.56157533395703,
      "lng": 127.00657916853719,
      "area_m2": 1477,
      "units": 0,
      "contractor": "",
      "stage_date": "",
      "notes": "",
      "subway": "",
      "hangang": false,
      "completion_est": "",
      "ref_note": ""
    },
    {
      "id": "api_2091",
      "name": "신촌지역(마포) 4-15지구 도시정비형 재개발구역",
      "region": "서울",
      "district": "마포구",
      "dong": "",
      "type": "재개발",
      "stage": "도시환경정비사업구역",
      "stage_idx": 0,
      "lat": 37.57201150386371,
      "lng": 126.91124009155129,
      "area_m2": 3258,
      "units": 0,
      "contractor": "",
      "stage_date": "",
      "notes": "",
      "subway": "",
      "hangang": false,
      "completion_est": "",
      "ref_note": ""
    },
    {
      "id": "api_2092",
      "name": "마포로1 도시정비형 재개발구역",
      "region": "서울",
      "district": "마포구",
      "dong": "",
      "type": "재개발",
      "stage": "도시환경정비사업구역",
      "stage_idx": 0,
      "lat": 37.56545669647878,
      "lng": 126.90617031519061,
      "area_m2": 249777,
      "units": 0,
      "contractor": "",
      "stage_date": "",
      "notes": "",
      "subway": "",
      "hangang": false,
      "completion_est": "",
      "ref_note": ""
    },
    {
      "id": "api_2093",
      "name": "마포로1 도시정비형 재개발구역 제28.29지구",
      "region": "서울",
      "district": "마포구",
      "dong": "",
      "type": "재개발",
      "stage": "도시환경정비사업지구",
      "stage_idx": 0,
      "lat": 37.57106758518099,
      "lng": 126.90639086320056,
      "area_m2": 3749,
      "units": 0,
      "contractor": "",
      "stage_date": "",
      "notes": "",
      "subway": "",
      "hangang": false,
      "completion_est": "",
      "ref_note": ""
    },
    {
      "id": "api_2095",
      "name": "을지로3가 도시정비형 재개발구역 제12지구",
      "region": "서울",
      "district": "중구",
      "dong": "",
      "type": "재개발",
      "stage": "재개발사업구역",
      "stage_idx": 0,
      "lat": 37.556989012342996,
      "lng": 127.00181000499308,
      "area_m2": 3924,
      "units": 0,
      "contractor": "",
      "stage_date": "",
      "notes": "",
      "subway": "",
      "hangang": false,
      "completion_est": "",
      "ref_note": ""
    },
    {
      "id": "api_2097",
      "name": "상계주공5단지 재건축정비구역",
      "region": "서울",
      "district": "노원구",
      "dong": "",
      "type": "재건축",
      "stage": "재건축사업구역",
      "stage_idx": 0,
      "lat": 37.6466266899561,
      "lng": 127.04959084815391,
      "area_m2": 0,
      "units": 0,
      "contractor": "",
      "stage_date": "",
      "notes": "",
      "subway": "",
      "hangang": false,
      "completion_est": "",
      "ref_note": ""
    },
    {
      "id": "api_2100",
      "name": "고덕주공3단지아파트 주택재건축 정비구역",
      "region": "서울",
      "district": "강동구",
      "dong": "",
      "type": "재건축",
      "stage": "주택재건축사업",
      "stage_idx": 0,
      "lat": 37.53246094378842,
      "lng": 127.1323516745623,
      "area_m2": 211408,
      "units": 0,
      "contractor": "",
      "stage_date": "",
      "notes": "",
      "subway": "",
      "hangang": false,
      "completion_est": "",
      "ref_note": ""
    },
    {
      "id": "api_2101",
      "name": "마포로1구역 제12.13지구 도시정비형 재개발사업",
      "region": "서울",
      "district": "마포구",
      "dong": "",
      "type": "재개발",
      "stage": "도시환경정비사업구역",
      "stage_idx": 0,
      "lat": 37.55513982032638,
      "lng": 126.90271689232256,
      "area_m2": 2568,
      "units": 0,
      "contractor": "",
      "stage_date": "",
      "notes": "",
      "subway": "",
      "hangang": false,
      "completion_est": "",
      "ref_note": ""
    },
    {
      "id": "api_2102",
      "name": "면목1 역세권 장기전세주택 도시환경정비사업",
      "region": "서울",
      "district": "중랑구",
      "dong": "",
      "type": "재개발",
      "stage": "도시환경정비사업구역",
      "stage_idx": 0,
      "lat": 37.609158086833766,
      "lng": 127.09029531011065,
      "area_m2": 3858,
      "units": 0,
      "contractor": "",
      "stage_date": "",
      "notes": "",
      "subway": "",
      "hangang": false,
      "completion_est": "",
      "ref_note": ""
    },
    {
      "id": "api_2103",
      "name": "송파미성아파트 재건축정비구역",
      "region": "서울",
      "district": "송파구",
      "dong": "",
      "type": "재건축",
      "stage": "재건축사업구역",
      "stage_idx": 0,
      "lat": 37.51089925637652,
      "lng": 127.11198786285027,
      "area_m2": 0,
      "units": 0,
      "contractor": "",
      "stage_date": "",
      "notes": "",
      "subway": "",
      "hangang": false,
      "completion_est": "",
      "ref_note": ""
    },
    {
      "id": "api_2104",
      "name": "사당2 주택재건축 정비사업",
      "region": "서울",
      "district": "동작구",
      "dong": "",
      "type": "재건축",
      "stage": "주택재건축사업",
      "stage_idx": 0,
      "lat": 37.51786674573781,
      "lng": 126.94102287134542,
      "area_m2": 49449,
      "units": 0,
      "contractor": "",
      "stage_date": "",
      "notes": "",
      "subway": "",
      "hangang": false,
      "completion_est": "",
      "ref_note": ""
    },
    {
      "id": "api_2105",
      "name": "신길8재정비촉진구역",
      "region": "서울",
      "district": "영등포구",
      "dong": "",
      "type": "재개발",
      "stage": "주택재개발사업구역",
      "stage_idx": 0,
      "lat": 37.52365566856678,
      "lng": 126.89859822739642,
      "area_m2": 32287,
      "units": 0,
      "contractor": "",
      "stage_date": "",
      "notes": "",
      "subway": "",
      "hangang": false,
      "completion_est": "",
      "ref_note": ""
    },
    {
      "id": "api_2106",
      "name": "가락1차현대아파트 재건축정비사업",
      "region": "서울",
      "district": "송파구",
      "dong": "",
      "type": "재건축",
      "stage": "주택재건축사업",
      "stage_idx": 0,
      "lat": 37.50811434676446,
      "lng": 127.11136756373882,
      "area_m2": 33953,
      "units": 0,
      "contractor": "",
      "stage_date": "",
      "notes": "",
      "subway": "",
      "hangang": false,
      "completion_est": "",
      "ref_note": ""
    },
    {
      "id": "api_2107",
      "name": "강북2재정비촉진구역",
      "region": "서울",
      "district": "강북구",
      "dong": "",
      "type": "재개발",
      "stage": "도시환경정비사업구역",
      "stage_idx": 0,
      "lat": 37.6309413166495,
      "lng": 127.02621786711859,
      "area_m2": 18958,
      "units": 0,
      "contractor": "",
      "stage_date": "",
      "notes": "",
      "subway": "",
      "hangang": false,
      "completion_est": "",
      "ref_note": ""
    },
    {
      "id": "api_2225",
      "name": "응암제1구역 주택재개발정비사업",
      "region": "서울",
      "district": "은평구",
      "dong": "",
      "type": "재개발",
      "stage": "주택재개발사업지구",
      "stage_idx": 0,
      "lat": 37.597029525455,
      "lng": 126.92271732629362,
      "area_m2": 43938,
      "units": 0,
      "contractor": "",
      "stage_date": "",
      "notes": "",
      "subway": "",
      "hangang": false,
      "completion_est": "",
      "ref_note": ""
    },
    {
      "id": "api_2226",
      "name": "사당3 재건축 정비사업",
      "region": "서울",
      "district": "동작구",
      "dong": "",
      "type": "재건축",
      "stage": "재건축사업구역",
      "stage_idx": 0,
      "lat": 37.517572700479526,
      "lng": 126.94577806702719,
      "area_m2": 30107,
      "units": 0,
      "contractor": "",
      "stage_date": "",
      "notes": "",
      "subway": "",
      "hangang": false,
      "completion_est": "",
      "ref_note": ""
    },
    {
      "id": "api_2227",
      "name": "마포로1구역 제28.29지구 도시정비형 재개발구역",
      "region": "서울",
      "district": "마포구",
      "dong": "",
      "type": "재개발",
      "stage": "도시환경정비사업구역",
      "stage_idx": 0,
      "lat": 37.56089554741203,
      "lng": 126.90667632669201,
      "area_m2": 3678,
      "units": 0,
      "contractor": "",
      "stage_date": "",
      "notes": "",
      "subway": "",
      "hangang": false,
      "completion_est": "",
      "ref_note": ""
    },
    {
      "id": "api_2228",
      "name": "을지로3가 도시정비형 재개발구역 제9지구",
      "region": "서울",
      "district": "중구",
      "dong": "",
      "type": "재개발",
      "stage": "도시환경정비사업구역",
      "stage_idx": 0,
      "lat": 37.56867495576925,
      "lng": 126.99335159004775,
      "area_m2": 1945,
      "units": 0,
      "contractor": "",
      "stage_date": "",
      "notes": "",
      "subway": "",
      "hangang": false,
      "completion_est": "",
      "ref_note": ""
    },
    {
      "id": "api_2230",
      "name": "신동아1.2차아파트 주택재건축 정비사업",
      "region": "서울",
      "district": "강동구",
      "dong": "",
      "type": "재건축",
      "stage": "주택재건축사업",
      "stage_idx": 0,
      "lat": 37.536601813247266,
      "lng": 127.11556461812448,
      "area_m2": 46267,
      "units": 0,
      "contractor": "",
      "stage_date": "",
      "notes": "",
      "subway": "",
      "hangang": false,
      "completion_est": "",
      "ref_note": ""
    },
    {
      "id": "api_2233",
      "name": "영등포 도심 역세권 도시정비형 재개발구역",
      "region": "서울",
      "district": "영등포구",
      "dong": "",
      "type": "재개발",
      "stage": "도시환경정비사업구역",
      "stage_idx": 0,
      "lat": 37.51909891440223,
      "lng": 126.88927982084613,
      "area_m2": 0,
      "units": 0,
      "contractor": "",
      "stage_date": "",
      "notes": "",
      "subway": "",
      "hangang": false,
      "completion_est": "",
      "ref_note": ""
    },