{
  "updated_at": "2026-07-05",
  "source": "seoul_open_api",
  "note": "수도권 실데이터 — 서울 756개·경기 0개 구역 (2026-07-05 갱신)",
  "projects": [
    {
      "id": "api_24",
      "name": "전농7재정비촉진구역 ",
      "region": "서울",
      "district": "동대문구",
      "dong": "",
      "type": "재개발",
      "stage": "의제처리구역",
      "stage_idx": 0,
      "lat": 37.56847536054538,
      "lng": 127.03140039022306,
      "area_m2": 151792,
      "units": 0,
      "contractor": "",
      "stage_date": "",
      "notes": "",
      "subway": "",
      "hangang": false,
      "completion_est": "",
      "ref_note": ""
    },
    {
      "id": "api_25",
      "name": "공덕 제6주택재개발정비사업",
      "region": "서울",
      "district": "마포구",
      "dong": "",
      "type": "재개발",
      "stage": "의제처리구역",
      "stage_idx": 0,
      "lat": 37.55823468352268,
      "lng": 126.9048081681023,
      "area_m2": 11326,
      "units": 0,
      "contractor": "",
      "stage_date": "",
      "notes": "",
      "subway": "",
      "hangang": false,
      "completion_est": "",
      "ref_note": ""
    },
    {
      "id": "api_26",
      "name": "사당3재건축정비사업",
      "region": "서울",
      "district": "동작구",
      "dong": "",
      "type": "재개발",
      "stage": "의제처리구역",
      "stage_idx": 0,
      "lat": 37.514248098934374,
      "lng": 126.94733730545748,
      "area_m2": 30221,
      "units": 0,
      "contractor": "",
      "stage_date": "",
      "notes": "",
      "subway": "",
      "hangang": false,
      "completion_est": "",
      "ref_note": ""
    },
    {
      "id": "api_27",
      "name": "긴등마을 재정비촉진구역",
      "region": "서울",
      "district": "강서구",
      "dong": "",
      "type": "재개발",
      "stage": "의제처리구역",
      "stage_idx": 0,
      "lat": 37.55158593025638,
      "lng": 126.84923786858124,
      "area_m2": 31668,
      "units": 0,
      "contractor": "",
      "stage_date": "",
      "notes": "",
      "subway": "",
      "hangang": false,
      "completion_est": "",
      "ref_note": ""
    },
    {
      "id": "api_29",
      "name": "신용산역 북측 제1구역 도시정비형 재개발구역",
      "region": "서울",
      "district": "용산구",
      "dong": "",
      "type": "재개발",
      "stage": "의제처리구역",
      "stage_idx": 0,
      "lat": 37.52862135898567,
      "lng": 126.98772129643652,
      "area_m2": 14057,
      "units": 0,
      "contractor": "",
      "stage_date": "",
      "notes": "",
      "subway": "",
      "hangang": false,
      "completion_est": "",
      "ref_note": ""
    },
    {
      "id": "api_30",
      "name": "신설 제1 주택정비형 공공재개발사업 ",
      "region": "서울",
      "district": "동대문구",
      "dong": "",
      "type": "재개발",
      "stage": "의제처리구역",
      "stage_idx": 0,
      "lat": 37.58204340985221,
      "lng": 127.03722632700902,
      "area_m2": 11204,
      "units": 0,
      "contractor": "",
      "stage_date": "",
      "notes": "",
      "subway": "",
      "hangang": false,
      "completion_est": "",
      "ref_note": ""
    },
    {
      "id": "api_31",
      "name": "양동구역 제11.12지구",
      "region": "서울",
      "district": "중구",
      "dong": "",
      "type": "재개발",
      "stage": "의제처리구역",
      "stage_idx": 0,
      "lat": 37.55681072543497,
      "lng": 126.99202750589002,
      "area_m2": 3565,
      "units": 0,
      "contractor": "",
      "stage_date": "",
      "notes": "",
      "subway": "",
      "hangang": false,
      "completion_est": "",
      "ref_note": ""
    },
    {
      "id": "api_32",
      "name": "신당 제8구역 주택재개발정비사업",
      "region": "서울",
      "district": "중구",
      "dong": "",
      "type": "재개발",
      "stage": "의제처리구역",
      "stage_idx": 0,
      "lat": 37.55884098483831,
      "lng": 126.99639927042321,
      "area_m2": 58439,
      "units": 0,
      "contractor": "",
      "stage_date": "",
      "notes": "",
      "subway": "",
      "hangang": false,
      "completion_est": "",
      "ref_note": ""
    },
    {
      "id": "api_33",
      "name": "장위6구역 ",
      "region": "서울",
      "district": "성북구",
      "dong": "",
      "type": "재개발",
      "stage": "의제처리구역",
      "stage_idx": 0,
      "lat": 37.587805004105896,
      "lng": 127.02576050671497,
      "area_m2": 105163,
      "units": 0,
      "contractor": "",
      "stage_date": "",
      "notes": "",
      "subway": "",
      "hangang": false,
      "completion_est": "",
      "ref_note": ""
    },
    {
      "id": "api_34",
      "name": "한남4 재정비촉진구역 ",
      "region": "서울",
      "district": "용산구",
      "dong": "",
      "type": "재개발",
      "stage": "의제처리구역",
      "stage_idx": 0,
      "lat": 37.53590138097983,
      "lng": 126.97525229365775,
      "area_m2": 162163,
      "units": 0,
      "contractor": "",
      "stage_date": "",
      "notes": "",
      "subway": "",
      "hangang": false,
      "completion_est": "",
      "ref_note": ""
    },
    {
      "id": "api_35",
      "name": "마포로5 도시정비형 재개발구역",
      "region": "서울",
      "district": "중구",
      "dong": "",
      "type": "재개발",
      "stage": "의제처리구역",
      "stage_idx": 0,
      "lat": 37.56148068984453,
      "lng": 126.99362561090486,
      "area_m2": 61730,
      "units": 0,
      "contractor": "",
      "stage_date": "",
      "notes": "",
      "subway": "",
      "hangang": false,
      "completion_est": "",
      "ref_note": ""
    },
    {
      "id": "api_36",
      "name": "마포로5 도시정비형 재개발구역 제9-1지구",
      "region": "서울",
      "district": "중구",
      "dong": "",
      "type": "재개발",
      "stage": "의제처리구역",
      "stage_idx": 0,
      "lat": 37.556842374429166,
      "lng": 126.99680121485791,
      "area_m2": 1938,
      "units": 0,
      "contractor": "",
      "stage_date": "",
      "notes": "",
      "subway": "",
      "hangang": false,
      "completion_est": "",
      "ref_note": ""
    },
    {
      "id": "api_37",
      "name": "금호 제14-1 주택재개발 정비사업",
      "region": "서울",
      "district": "성동구",
      "dong": "",
      "type": "재개발",
      "stage": "의제처리구역",
      "stage_idx": 0,
      "lat": 37.55363681966075,
      "lng": 127.03901741402885,
      "area_m2": 5127,
      "units": 0,
      "contractor": "",
      "stage_date": "",
      "notes": "",
      "subway": "",
      "hangang": false,
      "completion_est": "",
      "ref_note": ""
    },
    {
      "id": "api_38",
      "name": "은마아파트 재건축 정비구역 ",
      "region": "서울",
      "district": "강남구",
      "dong": "",
      "type": "재개발",
      "stage": "의제처리구역",
      "stage_idx": 0,
      "lat": 37.50908312656406,
      "lng": 127.03819566362664,
      "area_m2": 0,
      "units": 0,
      "contractor": "",
      "stage_date": "",
      "notes": "",
      "subway": "",
      "hangang": false,
      "completion_est": "",
      "ref_note": ""
    },
    {
      "id": "api_39",
      "name": "양평제12 도시환경정비구역",
      "region": "서울",
      "district": "영등포구",
      "dong": "",
      "type": "재개발",
      "stage": "의제처리구역",
      "stage_idx": 0,
      "lat": 37.533142526807,
      "lng": 126.89740523574629,
      "area_m2": 37561,
      "units": 0,
      "contractor": "",
      "stage_date": "",
      "notes": "",
      "subway": "",
      "hangang": false,
      "completion_est": "",
      "ref_note": ""
    },
    {
      "id": "api_42",
      "name": "면목4 주택재건축정비구역",
      "region": "서울",
      "district": "중랑구",
      "dong": "",
      "type": "재개발",
      "stage": "의제처리구역",
      "stage_idx": 0,
      "lat": 37.61530006921615,
      "lng": 127.08622705592703,
      "area_m2": 14918,
      "units": 0,
      "contractor": "",
      "stage_date": "",
      "notes": "",
      "subway": "",
      "hangang": false,
      "completion_est": "",
      "ref_note": ""
    },
    {
      "id": "api_43",
      "name": "개포주공4단지 주택재건축정비사업",
      "region": "서울",
      "district": "강남구",
      "dong": "",
      "type": "재개발",
      "stage": "의제처리구역",
      "stage_idx": 0,
      "lat": 37.515543996274936,
      "lng": 127.03826505238273,
      "area_m2": 179794,
      "units": 0,
      "contractor": "",
      "stage_date": "",
      "notes": "",
      "subway": "",
      "hangang": false,
      "completion_est": "",
      "ref_note": ""
    },
    {
      "id": "api_44",
      "name": "잠실우성4차아파트 주택재건축 정비구역",
      "region": "서울",
      "district": "송파구",
      "dong": "",
      "type": "재개발",
      "stage": "의제처리구역",
      "stage_idx": 0,
      "lat": 37.52278939091928,
      "lng": 127.10340332718987,
      "area_m2": 31961,
      "units": 0,
      "contractor": "",
      "stage_date": "",
      "notes": "",
      "subway": "",
      "hangang": false,
      "completion_est": "",
      "ref_note": ""
    },
    {
      "id": "api_45",
      "name": "홍은제1 주택재건축 정비사업",
      "region": "서울",
      "district": "서대문구",
      "dong": "",
      "type": "재개발",
      "stage": "의제처리구역",
      "stage_idx": 0,
      "lat": 37.5860613990933,
      "lng": 126.94153928939029,
      "area_m2": 19070,
      "units": 0,
      "contractor": "",
      "stage_date": "",
      "notes": "",
      "subway": "",
      "hangang": false,
      "completion_est": "",
      "ref_note": ""
    },
    {
      "id": "api_47",
      "name": "홍은 제2주택재건축 정비구역",
      "region": "서울",
      "district": "서대문구",
      "dong": "",
      "type": "재개발",
      "stage": "의제처리구역",
      "stage_idx": 0,
      "lat": 37.58306957372529,
      "lng": 126.94508942275799,
      "area_m2": 33199,
      "units": 0,
      "contractor": "",
      "stage_date": "",
      "notes": "",
      "subway": "",
      "hangang": false,
      "completion_est": "",
      "ref_note": ""
    },
    {
      "id": "api_48",
      "name": "용두제6구역 주택재개발정비사업",
      "region": "서울",
      "district": "동대문구",
      "dong": "",
      "type": "재개발",
      "stage": "의제처리구역",
      "stage_idx": 0,
      "lat": 37.5693825606156,
      "lng": 127.04196181825967,
      "area_m2": 53370,
      "units": 0,
      "contractor": "",
      "stage_date": "",
      "notes": "",
      "subway": "",
      "hangang": false,
      "completion_est": "",
      "ref_note": ""
    },
    {
      "id": "api_49",
      "name": "중화동 우성타운 재건축정비구역 ",
      "region": "서울",
      "district": "중랑구",
      "dong": "",
      "type": "재개발",
      "stage": "의제처리구역",
      "stage_idx": 0,
      "lat": 37.614402248839326,
      "lng": 127.08723302529229,
      "area_m2": 0,
      "units": 0,
      "contractor": "",
      "stage_date": "",
      "notes": "",
      "subway": "",
      "hangang": false,
      "completion_est": "",
      "ref_note": ""
    },
    {
      "id": "api_50",
      "name": "사당3 재건축정비사업",
      "region": "서울",
      "district": "동작구",
      "dong": "",
      "type": "재개발",
      "stage": "의제처리구역",
      "stage_idx": 0,
      "lat": 37.518076615498785,
      "lng": 126.93897610485463,
      "area_m2": 30061,
      "units": 0,
      "contractor": "",
      "stage_date": "",
      "notes": "",
      "subway": "",
      "hangang": false,
      "completion_est": "",
      "ref_note": ""
    },
    {
      "id": "api_51",
      "name": "증산2재정비촉진구역",
      "region": "서울",
      "district": "은평구",
      "dong": "",
      "type": "재개발",
      "stage": "의제처리구역",
      "stage_idx": 0,
      "lat": 37.606651337248266,
      "lng": 126.92854270060269,
      "area_m2": 78755,
      "units": 0,
      "contractor": "",
      "stage_date": "",
      "notes": "",
      "subway": "",
      "hangang": false,
      "completion_est": "",
      "ref_note": ""
    },
    {
      "id": "api_52",
      "name": "수색7재정비촉진구역 ",
      "region": "서울",
      "district": "은평구",
      "dong": "",
      "type": "재개발",
      "stage": "의제처리구역",
      "stage_idx": 0,
      "lat": 37.59473297322668,
      "lng": 126.9320633039841,
      "area_m2": 31402,
      "units": 0,
      "contractor": "",
      "stage_date": "",
      "notes": "",
      "subway": "",
      "hangang": false,
      "completion_est": "",
      "ref_note": ""
    },
    {
      "id": "api_53",
      "name": "수색13 주택재개발사업 ",
      "region": "서울",
      "district": "은평구",
      "dong": "",
      "type": "재개발",
      "stage": "의제처리구역",
      "stage_idx": 0,
      "lat": 37.59412943295604,
      "lng": 126.9342397835437,
      "area_m2": 69681,
      "units": 0,
      "contractor": "",
      "stage_date": "",
      "notes": "",
      "subway": "",
      "hangang": false,
      "completion_est": "",
      "ref_note": ""
    },
    {
      "id": "api_54",
      "name": "역삼동 758번지일대 주택재건축정비사업",
      "region": "서울",
      "district": "강남구",
      "dong": "",
      "type": "재개발",
      "stage": "의제처리구역",
      "stage_idx": 0,
      "lat": 37.51946636960505,
      "lng": 127.0473275274792,
      "area_m2": 12263,
      "units": 0,
      "contractor": "",
      "stage_date": "",
      "notes": "",
      "subway": "",
      "hangang": false,
      "completion_est": "",
      "ref_note": ""
    },
    {
      "id": "api_55",
      "name": "수색9 재정비촉진구역 주택재개발사업 ",
      "region": "서울",
      "district": "은평구",
      "dong": "",
      "type": "재개발",
      "stage": "의제처리구역",
      "stage_idx": 0,
      "lat": 37.59957141711032,
      "lng": 126.93171533610611,
      "area_m2": 36348,
      "units": 0,
      "contractor": "",
      "stage_date": "",
      "notes": "",
      "subway": "",
      "hangang": false,
      "completion_est": "",
      "ref_note": ""
    },
    {
      "id": "api_56",
      "name": "제기1주거환경개선지구",
      "region": "서울",
      "district": "동대문구",
      "dong": "",
      "type": "재개발",
      "stage": "의제처리구역",
      "stage_idx": 0,
      "lat": 37.56928685554647,
      "lng": 127.03744078095681,
      "area_m2": 9945,
      "units": 0,
      "contractor": "",
      "stage_date": "",
      "notes": "",
      "subway": "",
      "hangang": false,
      "completion_est": "",
      "ref_note": ""
    },
    {
      "id": "api_60",
      "name": "1-1구역",
      "region": "서울",
      "district": "용산구",
      "dong": "",
      "type": "재개발",
      "stage": "의제처리구역",
      "stage_idx": 0,
      "lat": 37.53335693408875,
      "lng": 126.97161061375479,
      "area_m2": 2749,
      "units": 0,
      "contractor": "",
      "stage_date": "",
      "notes": "",
      "subway": "",
      "hangang": false,
      "completion_est": "",
      "ref_note": ""
    },
    {
      "id": "api_61",
      "name": "1-2구역",
      "region": "서울",
      "district": "용산구",
      "dong": "",
      "type": "재개발",
      "stage": "의제처리구역",
      "stage_idx": 0,
      "lat": 37.52127254051925,
      "lng": 126.98587512374282,
      "area_m2": 8527,
      "units": 0,
      "contractor": "",
      "stage_date": "",
      "notes": "",
      "subway": "",
      "hangang": false,
      "completion_est": "",
      "ref_note": ""
    },
    {
      "id": "api_62",
      "name": "2구역",
      "region": "서울",
      "district": "용산구",
      "dong": "",
      "type": "재개발",
      "stage": "의제처리구역",
      "stage_idx": 0,
      "lat": 37.54060081617712,
      "lng": 126.98036271866593,
      "area_m2": 8705,
      "units": 0,
      "contractor": "",
      "stage_date": "",
      "notes": "",
      "subway": "",
      "hangang": false,
      "completion_est": "",
      "ref_note": ""
    },
    {
      "id": "api_64",
      "name": "강북3 재정비촉진구역",
      "region": "서울",
      "district": "강북구",
      "dong": "",
      "type": "재개발",
      "stage": "의제처리구역",
      "stage_idx": 0,
      "lat": 37.63787324921229,
      "lng": 127.0254381102199,
      "area_m2": 0,
      "units": 0,
      "contractor": "",
      "stage_date": "",
      "notes": "",
      "subway": "",
      "hangang": false,
      "completion_est": "",
      "ref_note": ""
    },
    {
      "id": "api_65",
      "name": "가락프라자아파트 주택재건축사업",
      "region": "서울",
      "district": "송파구",
      "dong": "",
      "type": "재개발",
      "stage": "의제처리구역",
      "stage_idx": 0,
      "lat": 37.50489566022523,
      "lng": 127.09791937344907,
      "area_m2": 45808,
      "units": 0,
      "contractor": "",
      "stage_date": "",
      "notes": "",
      "subway": "",
      "hangang": false,
      "completion_est": "",
      "ref_note": ""
    },
    {
      "id": "api_66",
      "name": "길음5재정비촉진구역(주택정비형재개발사업)",
      "region": "서울",
      "district": "성북구",
      "dong": "",
      "type": "재개발",
      "stage": "의제처리구역",
      "stage_idx": 0,
      "lat": 37.595693045992654,
      "lng": 127.02233304425502,
      "area_m2": 35388,
      "units": 0,
      "contractor": "",
      "stage_date": "",
      "notes": "",
      "subway": "",
      "hangang": false,
      "completion_est": "",
      "ref_note": ""
    },
    {
      "id": "api_67",
      "name": "홍은 제2주택재건축 정비구역",
      "region": "서울",
      "district": "서대문구",
      "dong": "",
      "type": "재개발",
      "stage": "의제처리구역",
      "stage_idx": 0,
      "lat": 37.585210026526454,
      "lng": 126.9443219533284,
      "area_m2": 34387,
      "units": 0,
      "contractor": "",
      "stage_date": "",
      "notes": "",
      "subway": "",
      "hangang": false,
      "completion_est": "",
      "ref_note": ""
    },
    {
      "id": "api_69",
      "name": "고척동 한효아파트 재건축정비구역 ",
      "region": "서울",
      "district": "구로구",
      "dong": "",
      "type": "재개발",
      "stage": "의제처리구역",
      "stage_idx": 0,
      "lat": 37.494408422790954,
      "lng": 126.89195003299943,
      "area_m2": 0,
      "units": 0,
      "contractor": "",
      "stage_date": "",
      "notes": "",
      "subway": "",
      "hangang": false,
      "completion_est": "",
      "ref_note": ""
    },
    {
      "id": "api_71",
      "name": "3구역",
      "region": "서울",
      "district": "용산구",
      "dong": "",
      "type": "재개발",
      "stage": "의제처리구역",
      "stage_idx": 0,
      "lat": 37.52870734476311,
      "lng": 126.98582476265408,
      "area_m2": 11961,
      "units": 0,
      "contractor": "",
      "stage_date": "",
      "notes": "",
      "subway": "",
      "hangang": false,
      "completion_est": "",
      "ref_note": ""
    },
    {
      "id": "api_72",
      "name": "노량진5재정비촉진구역",
      "region": "서울",
      "district": "동작구",
      "dong": "",
      "type": "재개발",
      "stage": "의제처리구역",
      "stage_idx": 0,
      "lat": 37.50661272171055,
      "lng": 126.94740293923778,
      "area_m2": 38017,
      "units": 0,
      "contractor": "",
      "stage_date": "",
      "notes": "",
      "subway": "",
      "hangang": false,
      "completion_est": "",
      "ref_note": ""
    },
    {
      "id": "api_73",
      "name": "노량진8재정비촉진구역",
      "region": "서울",
      "district": "동작구",
      "dong": "",
      "type": "재개발",
      "stage": "의제처리구역",
      "stage_idx": 0,
      "lat": 37.50400414165656,
      "lng": 126.93973819537985,
      "area_m2": 55742,
      "units": 0,
      "contractor": "",
      "stage_date": "",
      "notes": "",
      "subway": "",
      "hangang": false,
      "completion_est": "",
      "ref_note": ""
    },
    {
      "id": "api_75",
      "name": "문래동2가A 도시정비형  재개발구역 4지구",
      "region": "서울",
      "district": "영등포구",
      "dong": "",
      "type": "재개발",
      "stage": "의제처리구역",
      "stage_idx": 0,
      "lat": 37.53213036021089,
      "lng": 126.9061307248044,
      "area_m2": 3214,
      "units": 0,
      "contractor": "",
      "stage_date": "",
      "notes": "",
      "subway": "",
      "hangang": false,
      "completion_est": "",
      "ref_note": ""
    },
    {
      "id": "api_78",
      "name": "마포로3구역",
      "region": "서울",
      "district": "마포구",
      "dong": "",
      "type": "재개발",
      "stage": "의제처리구역",
      "stage_idx": 0,
      "lat": 37.56235611413319,
      "lng": 126.90512205890984,
      "area_m2": 40044,
      "units": 0,
      "contractor": "",
      "stage_date": "",
      "notes": "",
      "subway": "",
      "hangang": false,
      "completion_est": "",
      "ref_note": ""
    },
    {
      "id": "api_79",
      "name": "4-2지구",
      "region": "서울",
      "district": "마포구",
      "dong": "",
      "type": "재개발",
      "stage": "의제처리구역",
      "stage_idx": 0,
      "lat": 37.573550751873384,
      "lng": 126.90607365698327,
      "area_m2": 1192,
      "units": 0,
      "contractor": "",
      "stage_date": "",
      "notes": "",
      "subway": "",
      "hangang": false,
      "completion_est": "",
      "ref_note": ""
    },
    {
      "id": "api_80",
      "name": "흑석9재정비촉진구역",
      "region": "서울",
      "district": "동작구",
      "dong": "",
      "type": "재개발",
      "stage": "의제처리구역",
      "stage_idx": 0,
      "lat": 37.51055473984024,
      "lng": 126.94801125184269,
      "area_m2": 94577,
      "units": 0,
      "contractor": "",
      "stage_date": "",
      "notes": "",
      "subway": "",
      "hangang": false,
      "completion_est": "",
      "ref_note": ""
    },
    {
      "id": "api_81",
      "name": "문래동1가A 도시정비형 재개발구역",
      "region": "서울",
      "district": "영등포구",
      "dong": "",
      "type": "재개발",
      "stage": "의제처리구역",
      "stage_idx": 0,
      "lat": 37.52758225814624,
      "lng": 126.90646649632902,
      "area_m2": 45884,
      "units": 0,
      "contractor": "",
      "stage_date": "",
      "notes": "",
      "subway": "",
      "hangang": false,
      "completion_est": "",
      "ref_note": ""
    },
    {
      "id": "api_82",
      "name": "문래동1가B 도시정비형 재개발구역",
      "region": "서울",
      "district": "영등포구",
      "dong": "",
      "type": "재개발",
      "stage": "의제처리구역",
      "stage_idx": 0,
      "lat": 37.52598338259047,
      "lng": 126.89136871667877,
      "area_m2": 27878,
      "units": 0,
      "contractor": "",
      "stage_date": "",
      "notes": "",
      "subway": "",
      "hangang": false,
      "completion_est": "",
      "ref_note": ""
    },
    {
      "id": "api_83",
      "name": "신촌지역 마포4  도시정비형 재개발구역",
      "region": "서울",
      "district": "마포구",
      "dong": "",
      "type": "재개발",
      "stage": "의제처리구역",
      "stage_idx": 0,
      "lat": 37.56754430164569,
      "lng": 126.9086098659357,
      "area_m2": 50515,
      "units": 0,
      "contractor": "",
      "stage_date": "",
      "notes": "",
      "subway": "",
      "hangang": false,
      "completion_est": "",
      "ref_note": ""
    },
    {
      "id": "api_84",
      "name": "상봉10재정비촉진구역",
      "region": "서울",
      "district": "중랑구",
      "dong": "",
      "type": "재개발",
      "stage": "의제처리구역",
      "stage_idx": 0,
      "lat": 37.60152128206765,
      "lng": 127.09639141237615,
      "area_m2": 0,
      "units": 0,
      "contractor": "",
      "stage_date": "",
      "notes": "",
      "subway": "",
      "hangang": false,
      "completion_est": "",
      "ref_note": ""
    },
    {
      "id": "api_85",
      "name": "무교다동 11지구",
      "region": "서울",
      "district": "중구",
      "dong": "",
      "type": "재개발",
      "stage": "의제처리구역",
      "stage_idx": 0,
      "lat": 37.56856402387547,
      "lng": 127.00658767496378,
      "area_m2": 1370,
      "units": 0,
      "contractor": "",
      "stage_date": "",
      "notes": "",
      "subway": "",
      "hangang": false,
      "completion_est": "",
      "ref_note": ""
    },
    {
      "id": "api_86",
      "name": "무교다동 23-1지구",
      "region": "서울",
      "district": "중구",
      "dong": "",
      "type": "재개발",
      "stage": "의제처리구역",
      "stage_idx": 0,
      "lat": 37.560881494625534,
      "lng": 127.00503424774526,
      "area_m2": 1330,
      "units": 0,
      "contractor": "",
      "stage_date": "",
      "notes": "",
      "subway": "",
      "hangang": false,
      "completion_est": "",
      "ref_note": ""
    },
    {
      "id": "api_87",
      "name": "무교다동 23-9지구 ",
      "region": "서울",
      "district": "중구",
      "dong": "",
      "type": "재개발",
      "stage": "의제처리구역",
      "stage_idx": 0,
      "lat": 37.56939552771085,
      "lng": 126.99091913080959,
      "area_m2": 1330,
      "units": 0,
      "contractor": "",
      "stage_date": "",
      "notes": "",
      "subway": "",
      "hangang": false,
      "completion_est": "",
      "ref_note": ""
    },
    {
      "id": "api_88",
      "name": "무교다동 24-6지구 ",
      "region": "서울",
      "district": "중구",
      "dong": "",
      "type": "재개발",
      "stage": "의제처리구역",
      "stage_idx": 0,
      "lat": 37.55774905070369,
      "lng": 126.99566044945485,
      "area_m2": 1353,
      "units": 0,
      "contractor": "",
      "stage_date": "",
      "notes": "",
      "subway": "",
      "hangang": false,
      "completion_est": "",
      "ref_note": ""
    },
    {
      "id": "api_89",
      "name": "무교다동 24-4지구 ",
      "region": "서울",
      "district": "중구",
      "dong": "",
      "type": "재개발",
      "stage": "의제처리구역",
      "stage_idx": 0,
      "lat": 37.570737195582325,
      "lng": 126.99758033742427,
      "area_m2": 1353,
      "units": 0,
      "contractor": "",
      "stage_date": "",
      "notes": "",
      "subway": "",
      "hangang": false,
      "completion_est": "",
      "ref_note": ""
    },
    {
      "id": "api_90",
      "name": "무교다동구역 제16지구",
      "region": "서울",
      "district": "중구",
      "dong": "",
      "type": "재개발",
      "stage": "의제처리구역",
      "stage_idx": 0,
      "lat": 37.56438892797123,
      "lng": 127.00299885364306,
      "area_m2": 2812,
      "units": 0,
      "contractor": "",
      "stage_date": "",
      "notes": "",
      "subway": "",
      "hangang": false,
      "completion_est": "",
      "ref_note": ""
    },
    {
      "id": "api_92",
      "name": "무교다동 24-2지구 ",
      "region": "서울",
      "district": "중구",
      "dong": "",
      "type": "재개발",
      "stage": "의제처리구역",
      "stage_idx": 0,
      "lat": 37.55766763705013,
      "lng": 126.98881635919479,
      "area_m2": 1353,
      "units": 0,
      "contractor": "",
      "stage_date": "",
      "notes": "",
      "subway": "",
      "hangang": false,
      "completion_est": "",
      "ref_note": ""
    },
    {
      "id": "api_93",
      "name": "무교다동 23-12지구 ",
      "region": "서울",
      "district": "중구",
      "dong": "",
      "type": "재개발",
      "stage": "의제처리구역",
      "stage_idx": 0,
      "lat": 37.56819850256886,
      "lng": 127.00194772769662,
      "area_m2": 1330,
      "units": 0,
      "contractor": "",
      "stage_date": "",
      "notes": "",
      "subway": "",
      "hangang": false,
      "completion_est": "",
      "ref_note": ""
    },
    {
      "id": "api_94",
      "name": "무교다동 22-3지구 ",
      "region": "서울",
      "district": "중구",
      "dong": "",
      "type": "재개발",
      "stage": "의제처리구역",
      "stage_idx": 0,
      "lat": 37.55932120540434,
      "lng": 126.9928563188704,
      "area_m2": 1057,
      "units": 0,
      "contractor": "",
      "stage_date": "",
      "notes": "",
      "subway": "",
      "hangang": false,
      "completion_est": "",
      "ref_note": ""
    },
    {
      "id": "api_95",
      "name": "무교다동 23-8지구 ",
      "region": "서울",
      "district": "중구",
      "dong": "",
      "type": "재개발",
      "stage": "의제처리구역",
      "stage_idx": 0,
      "lat": 37.57055333930146,
      "lng": 127.00455481143415,
      "area_m2": 1330,
      "units": 0,
      "contractor": "",
      "stage_date": "",
      "notes": "",
      "subway": "",
      "hangang": false,
      "completion_est": "",
      "ref_note": ""
    },
    {
      "id": "api_98",
      "name": "신정2재정비촉진구역",
      "region": "서울",
      "district": "양천구",
      "dong": "",
      "type": "재개발",
      "stage": "의제처리구역",
      "stage_idx": 0,
      "lat": 37.52250421168862,
      "lng": 126.86645340950777,
      "area_m2": 105685,
      "units": 0,
      "contractor": "",
      "stage_date": "",
      "notes": "",
      "subway": "",
      "hangang": false,
      "completion_est": "",
      "ref_note": ""
    },
    {
      "id": "api_509",
      "name": "유원제일2차아파트 재건축정비사업",
      "region": "서울",
      "district": "영등포구",
      "dong": "",
      "type": "재개발",
      "stage": "의제처리구역",
      "stage_idx": 0,
      "lat": 37.521299303781234,
      "lng": 126.89921594147022,
      "area_m2": 28654,
      "units": 0,
      "contractor": "",
      "stage_date": "",
      "notes": "",
      "subway": "",
      "hangang": false,
      "completion_est": "",
      "ref_note": ""
    },
    {
      "id": "api_510",
      "name": "마포로1구역 제48지구 도시정비형 재개발사업 ",
      "region": "서울",
      "district": "마포구",
      "dong": "",
      "type": "재개발",
      "stage": "의제처리구역",
      "stage_idx": 0,
      "lat": 37.56148935086506,
      "lng": 126.90336624010212,
      "area_m2": 3802,
      "units": 0,
      "contractor": "",
      "stage_date": "",
      "notes": "",
      "subway": "",
      "hangang": false,
      "completion_est": "",
      "ref_note": ""
    },
    {
      "id": "api_511",
      "name": "흑석4재정비촉진구역",
      "region": "서울",
      "district": "동작구",
      "dong": "",
      "type": "재개발",
      "stage": "의제처리구역",
      "stage_idx": 0,
      "lat": 37.521678182179436,
      "lng": 126.93046189186576,
      "area_m2": 56622,
      "units": 0,
      "contractor": "",
      "stage_date": "",
      "notes": "",
      "subway": "",
      "hangang": false,
      "completion_est": "",
      "ref_note": ""
    },
    {
      "id": "api_512",
      "name": "주택재건축정비구역",
      "region": "서울",
      "district": "강동구",
      "dong": "",
      "type": "재개발",
      "stage": "의제처리구역",
      "stage_idx": 0,
      "lat": 37.53981807952479,
      "lng": 127.11933464100863,
      "area_m2": 12181,
      "units": 0,
      "contractor": "",
      "stage_date": "",
      "notes": "",
      "subway": "",
      "hangang": false,
      "completion_est": "",
      "ref_note": ""
    },
    {
      "id": "api_565",
      "name": "무교다동 8지구",
      "region": "서울",
      "district": "중구",
      "dong": "",
      "type": "재개발",
      "stage": "의제처리구역",
      "stage_idx": 0,
      "lat": 37.56376792775362,
      "lng": 126.9945498837503,
      "area_m2": 1386,
      "units": 0,
      "contractor": "",
      "stage_date": "",
      "notes": "",
      "subway": "",
      "hangang": false,
      "completion_est": "",
      "ref_note": ""
    },
    {
      "id": "api_566",
      "name": "무교다동 23-11지구 ",
      "region": "서울",
      "district": "중구",
      "dong": "",
      "type": "재개발",
      "stage": "의제처리구역",
      "stage_idx": 0,
      "lat": 37.55815261114462,
      "lng": 126.99475838520218,
      "area_m2": 1330,
      "units": 0,
      "contractor": "",
      "stage_date": "",
      "notes": "",
      "subway": "",
      "hangang": false,
      "completion_est": "",
      "ref_note": ""
    },
    {
      "id": "api_567",
      "name": "마포지역 도시환경 정비사업구역",
      "region": "서울",
      "district": "서대문구",
      "dong": "",
      "type": "재개발",
      "stage": "의제처리구역",
      "stage_idx": 0,
      "lat": 37.57076993731909,
      "lng": 126.92879940765533,
      "area_m2": 6244,
      "units": 0,
      "contractor": "",
      "stage_date": "",
      "notes": "",
      "subway": "",
      "hangang": false,
      "completion_est": "",
      "ref_note": ""
    },
    {
      "id": "api_568",
      "name": "신촌지역(마포)1-2지구 도시정비형 재개발구역",
      "region": "서울",
      "district": "마포구",
      "dong": "",
      "type": "재개발",
      "stage": "의제처리구역",
      "stage_idx": 0,
      "lat": 37.566146500340174,
      "lng": 126.91584036778512,
      "area_m2": 1427,
      "units": 0,
      "contractor": "",
      "stage_date": "",
      "notes": "",
      "subway": "",
      "hangang": false,
      "completion_est": "",
      "ref_note": ""
    },
    {
      "id": "api_569",
      "name": "사당3 재건축정비사업",
      "region": "서울",
      "district": "동작구",
      "dong": "",
      "type": "재개발",
      "stage": "의제처리구역",
      "stage_idx": 0,
      "lat": 37.51784018155919,
      "lng": 126.94682753013124,
      "area_m2": 30100,
      "units": 0,
      "contractor": "",
      "stage_date": "",
      "notes": "",
      "subway": "",
      "hangang": false,
      "completion_est": "",
      "ref_note": ""
    },
    {
      "id": "api_570",
      "name": "마포로5구역",
      "region": "서울",
      "district": "서대문구",
      "dong": "",
      "type": "재개발",
      "stage": "의제처리구역",
      "stage_idx": 0,
      "lat": 37.58856961131251,
      "lng": 126.93025511730346,
      "area_m2": 61194,
      "units": 0,
      "contractor": "",
      "stage_date": "",
      "notes": "",
      "subway": "",
      "hangang": false,
      "completion_est": "",
      "ref_note": ""
    },
    {
      "id": "api_571",
      "name": "마포로5-2",
      "region": "서울",
      "district": "서대문구",
      "dong": "",
      "type": "재개발",
      "stage": "의제처리구역",
      "stage_idx": 0,
      "lat": 37.57350251580452,
      "lng": 126.93661465196745,
      "area_m2": 4565,
      "units": 0,
      "contractor": "",
      "stage_date": "",
      "notes": "",
      "subway": "",
      "hangang": false,
      "completion_est": "",
      "ref_note": ""
    },
    {
      "id": "api_572",
      "name": "마포로5-3",
      "region": "서울",
      "district": "서대문구",
      "dong": "",
      "type": "재개발",
      "stage": "의제처리구역",
      "stage_idx": 0,
      "lat": 37.58598967621507,
      "lng": 126.9324831238043,
      "area_m2": 0,
      "units": 0,
      "contractor": "",
      "stage_date": "",
      "notes": "",
      "subway": "",
      "hangang": false,
      "completion_est": "",
      "ref_note": ""
    },
    {
      "id": "api_573",
      "name": "마포로5-3-1",
      "region": "서울",
      "district": "서대문구",
      "dong": "",
      "type": "재개발",
      "stage": "의제처리구역",
      "stage_idx": 0,
      "lat": 37.58030018030054,
      "lng": 126.93954900054112,
      "area_m2": 0,
      "units": 0,
      "contractor": "",
      "stage_date": "",
      "notes": "",
      "subway": "",
      "hangang": false,
      "completion_est": "",
      "ref_note": ""
    },
    {
      "id": "api_574",
      "name": "마포로5-4",
      "region": "서울",
      "district": "서대문구",
      "dong": "",
      "type": "재개발",
      "stage": "의제처리구역",
      "stage_idx": 0,
      "lat": 37.585985941085795,
      "lng": 126.9438853225818,
      "area_m2": 0,
      "units": 0,
      "contractor": "",
      "stage_date": "",
      "notes": "",
      "subway": "",
      "hangang": false,
      "completion_est": "",
      "ref_note": ""
    },
    {
      "id": "api_575",
      "name": "마포로5-8",
      "region": "서울",
      "district": "서대문구",
      "dong": "",
      "type": "재개발",
      "stage": "의제처리구역",
      "stage_idx": 0,
      "lat": 37.569388861023924,
      "lng": 126.93622459494317,
      "area_m2": 0,
      "units": 0,
      "contractor": "",
      "stage_date": "",
      "notes": "",
      "subway": "",
      "hangang": false,
      "completion_est": "",
      "ref_note": ""
    },
    {
      "id": "api_576",
      "name": "효창제6구역 주택재개발정비사업",
      "region": "서울",
      "district": "용산구",
      "dong": "",
      "type": "재개발",
      "stage": "의제처리구역",
      "stage_idx": 0,
      "lat": 37.539542527268495,
      "lng": 126.97505762407357,
      "area_m2": 18397,
      "units": 0,
      "contractor": "",
      "stage_date": "",
      "notes": "",
      "subway": "",
      "hangang": false,
      "completion_est": "",
      "ref_note": ""
    },
    {
      "id": "api_577",
      "name": "연신내구역 도시정비형 재개발사업",
      "region": "서울",
      "district": "은평구",
      "dong": "",
      "type": "재개발",
      "stage": "의제처리구역",
      "stage_idx": 0,
      "lat": 37.6033654552699,
      "lng": 126.92612623009897,
      "area_m2": 8699,
      "units": 0,
      "contractor": "",
      "stage_date": "",
      "notes": "",
      "subway": "",
      "hangang": false,
      "completion_est": "",
      "ref_note": ""
    },
    {
      "id": "api_578",
      "name": "잠실주공5단지아파트 재건축사업 정비구역",
      "region": "서울",
      "district": "송파구",
      "dong": "",
      "type": "재개발",
      "stage": "의제처리구역",
      "stage_idx": 0,
      "lat": 37.50965128033048,
      "lng": 127.09969295863725,
      "area_m2": 353987,
      "units": 0,
      "contractor": "",
      "stage_date": "",
      "notes": "",
      "subway": "",
      "hangang": false,
      "completion_est": "",
      "ref_note": ""
    },
    {
      "id": "api_579",
      "name": "잠실우성4차아파트주택재건축정비구역",
      "region": "서울",
      "district": "송파구",
      "dong": "",
      "type": "재개발",
      "stage": "의제처리구역",
      "stage_idx": 0,
      "lat": 37.507448988274305,
      "lng": 127.1021090429132,
      "area_m2": 31630,
      "units": 0,
      "contractor": "",
      "stage_date": "",
      "notes": "",
      "subway": "",
      "hangang": false,
      "completion_est": "",
      "ref_note": ""
    },
    {
      "id": "api_580",
      "name": "신촌지역(마포) 4-9지구 도시정비형 재개발구역 ",
      "region": "서울",
      "district": "마포구",
      "dong": "",
      "type": "재개발",
      "stage": "의제처리구역",
      "stage_idx": 0,
      "lat": 37.55567596904834,
      "lng": 126.90933761669963,
      "area_m2": 4827,
      "units": 0,
      "contractor": "",
      "stage_date": "",
      "notes": "",
      "subway": "",
      "hangang": false,
      "completion_est": "",
      "ref_note": ""
    },
    {
      "id": "api_581",
      "name": "미장세림아파트 주택재건축사업",
      "region": "서울",
      "district": "성동구",
      "dong": "",
      "type": "재개발",
      "stage": "의제처리구역",
      "stage_idx": 0,
      "lat": 37.565603829492105,
      "lng": 127.04263204696123,
      "area_m2": 0,
      "units": 0,
      "contractor": "",
      "stage_date": "",
      "notes": "",
      "subway": "",
      "hangang": false,
      "completion_est": "",
      "ref_note": ""
    },
    {
      "id": "api_582",
      "name": "청담삼익아파트 재건축사업",
      "region": "서울",
      "district": "강남구",
      "dong": "",
      "type": "재개발",
      "stage": "의제처리구역",
      "stage_idx": 0,
      "lat": 37.51002278884179,
      "lng": 127.05546279889492,
      "area_m2": 0,
      "units": 0,
      "contractor": "",
      "stage_date": "",
      "notes": "",
      "subway": "",
      "hangang": false,
      "completion_est": "",
      "ref_note": ""
    },
    {
      "id": "api_583",
      "name": "합정7재정비촉진구역",
      "region": "서울",
      "district": "마포구",
      "dong": "",
      "type": "재개발",
      "stage": "의제처리구역",
      "stage_idx": 0,
      "lat": 37.565612854664685,
      "lng": 126.90132193042186,
      "area_m2": 0,
      "units": 0,
      "contractor": "",
      "stage_date": "",
      "notes": "",
      "subway": "",
      "hangang": false,
      "completion_est": "",
      "ref_note": ""
    },
    {
      "id": "api_584",
      "name": "강동역 역세권 활성화 도시정비형 재개발 정비구역",
      "region": "서울",
      "district": "강동구",
      "dong": "",
      "type": "재개발",
      "stage": "의제처리구역",
      "stage_idx": 0,
      "lat": 37.52439115894812,
      "lng": 127.12587701555456,
      "area_m2": 0,
      "units": 0,
      "contractor": "",
      "stage_date": "",
      "notes": "",
      "subway": "",
      "hangang": false,
      "completion_est": "",
      "ref_note": ""
    },
    {
      "id": "api_585",
      "name": "여의도 공작아파트 재건축정비사업 ",
      "region": "서울",
      "district": "영등포구",
      "dong": "",
      "type": "재개발",
      "stage": "의제처리구역",
      "stage_idx": 0,
      "lat": 37.52587451058548,
      "lng": 126.89735796941045,
      "area_m2": 0,
      "units": 0,
      "contractor": "",
      "stage_date": "",
      "notes": "",
      "subway": "",
      "hangang": false,
      "completion_est": "",
      "ref_note": ""
    },
    {
      "id": "api_586",
      "name": "제기 제6구역 주택재개발정비구역",
      "region": "서울",
      "district": "동대문구",
      "dong": "",
      "type": "재개발",
      "stage": "의제처리구역",
      "stage_idx": 0,
      "lat": 37.58190303047183,
      "lng": 127.04500435218759,
      "area_m2": 24320,
      "units": 0,
      "contractor": "",
      "stage_date": "",
      "notes": "",
      "subway": "",
      "hangang": false,
      "completion_est": "",
      "ref_note": ""
    },
    {
      "id": "api_590",
      "name": "봉천제12-2 주택재개발정비사업",
      "region": "서울",
      "district": "관악구",
      "dong": "",
      "type": "재개발",
      "stage": "의제처리구역",
      "stage_idx": 0,
      "lat": 37.48673311271957,
      "lng": 126.95948267562109,
      "area_m2": 80917,
      "units": 0,
      "contractor": "",
      "stage_date": "",
      "notes": "",
      "subway": "",
      "hangang": false,
      "completion_est": "",
      "ref_note": ""
    },
    {
      "id": "api_599",
      "name": "공평구역",
      "region": "서울",
      "district": "종로구",
      "dong": "",
      "type": "재개발",
      "stage": "의제처리구역",
      "stage_idx": 0,
      "lat": 37.584338326773484,
      "lng": 126.97170589612526,
      "area_m2": 95028,
      "units": 0,
      "contractor": "",
      "stage_date": "",
      "notes": "",
      "subway": "",
      "hangang": false,
      "completion_est": "",
      "ref_note": ""
    },
    {
      "id": "api_600",
      "name": "공평구역<15.16지구>",
      "region": "서울",
      "district": "종로구",
      "dong": "",
      "type": "재개발",
      "stage": "의제처리구역",
      "stage_idx": 0,
      "lat": 37.588824919002775,
      "lng": 126.98763058779788,
      "area_m2": 12854,
      "units": 0,
      "contractor": "",
      "stage_date": "",
      "notes": "",
      "subway": "",
      "hangang": false,
      "completion_est": "",
      "ref_note": ""
    },
    {
      "id": "api_601",
      "name": "돈의문3재정비촉진구역",
      "region": "서울",
      "district": "종로구",
      "dong": "",
      "type": "재개발",
      "stage": "의제처리구역",
      "stage_idx": 0,
      "lat": 37.58694771673124,
      "lng": 126.97496267643162,
      "area_m2": 8844,
      "units": 0,
      "contractor": "",
      "stage_date": "",
      "notes": "",
      "subway": "",
      "hangang": false,
      "completion_est": "",
      "ref_note": ""
    },
    {
      "id": "api_618",
      "name": "영등포1-3재정비촉진구역",
      "region": "서울",
      "district": "영등포구",
      "dong": "",
      "type": "재개발",
      "stage": "의제처리구역",
      "stage_idx": 0,
      "lat": 37.52950967868476,
      "lng": 126.88818225291577,
      "area_m2": 8407,
      "units": 0,
      "contractor": "",
      "stage_date": "",
      "notes": "",
      "subway": "",
      "hangang": false,
      "completion_est": "",
      "ref_note": ""
    },
    {
      "id": "api_630",
      "name": "삼선제5구역 주택재개발 정비사업",
      "region": "서울",
      "district": "성북구",
      "dong": "",
      "type": "재개발",
      "stage": "의제처리구역",
      "stage_idx": 0,
      "lat": 37.58029894702295,
      "lng": 127.01818283374713,
      "area_m2": 63780,
      "units": 0,
      "contractor": "",
      "stage_date": "",
      "notes": "",
      "subway": "",
      "hangang": false,
      "completion_est": "",
      "ref_note": ""
    },
    {
      "id": "api_631",
      "name": "영천구역 주택재개발정비구역",
      "region": "서울",
      "district": "서대문구",
      "dong": "",
      "type": "재개발",
      "stage": "의제처리구역",
      "stage_idx": 0,
      "lat": 37.58800041697871,
      "lng": 126.93023823505906,
      "area_m2": 11154,
      "units": 0,
      "contractor": "",
      "stage_date": "",
      "notes": "",
      "subway": "",
      "hangang": false,
      "completion_est": "",
      "ref_note": ""
    },
    {
      "id": "api_632",
      "name": "마포로5 도시정비형 재개발구역 9-1지구",
      "region": "서울",
      "district": "중구",
      "dong": "",
      "type": "재개발",
      "stage": "의제처리구역",
      "stage_idx": 0,
      "lat": 37.565646865249256,
      "lng": 126.99398564840789,
      "area_m2": 1936,
      "units": 0,
      "contractor": "",
      "stage_date": "",
      "notes": "",
      "subway": "",
      "hangang": false,
      "completion_est": "",
      "ref_note": ""
    },
    {
      "id": "api_633",
      "name": "수색4재정비촉진구역",
      "region": "서울",
      "district": "은평구",
      "dong": "",
      "type": "재개발",
      "stage": "의제처리구역",
      "stage_idx": 0,
      "lat": 37.59589456318179,
      "lng": 126.92965384130072,
      "area_m2": 61898,
      "units": 0,
      "contractor": "",
      "stage_date": "",
      "notes": "",
      "subway": "",
      "hangang": false,
      "completion_est": "",
      "ref_note": ""
    },
    {
      "id": "api_634",
      "name": "가락상아1차 아파트 재건축 정비사업",
      "region": "서울",
      "district": "송파구",
      "dong": "",
      "type": "재개발",
      "stage": "의제처리구역",
      "stage_idx": 0,
      "lat": 37.521950846306886,
      "lng": 127.11225398038768,
      "area_m2": 13580,
      "units": 0,
      "contractor": "",
      "stage_date": "",
      "notes": "",
      "subway": "",
      "hangang": false,
      "completion_est": "",
      "ref_note": ""
    },
    {
      "id": "api_635",
      "name": "오류동 현대연립 재건축 정비사업",
      "region": "서울",
      "district": "구로구",
      "dong": "",
      "type": "재개발",
      "stage": "의제처리구역",
      "stage_idx": 0,
      "lat": 37.48850658732232,
      "lng": 126.88676044574974,
      "area_m2": 23223,
      "units": 0,
      "contractor": "",
      "stage_date": "",
      "notes": "",
      "subway": "",
      "hangang": false,
      "completion_est": "",
      "ref_note": ""
    },
    {
      "id": "api_639",
      "name": "미아3 재정비촉진구역 ",
      "region": "서울",
      "district": "강북구",
      "dong": "",
      "type": "재개발",
      "stage": "의제처리구역",
      "stage_idx": 0,
      "lat": 37.6453644317017,
      "lng": 127.02108386656867,
      "area_m2": 57558,
      "units": 0,
      "contractor": "",
      "stage_date": "",
      "notes": "",
      "subway": "",
      "hangang": false,
      "completion_est": "",
      "ref_note": ""
    },
    {
      "id": "api_640",
      "name": "미아9-2 주택재건축정비사업",
      "region": "서울",
      "district": "강북구",
      "dong": "",
      "type": "재개발",
      "stage": "의제처리구역",
      "stage_idx": 0,
      "lat": 37.63162832842443,
      "lng": 127.01936342603258,
      "area_m2": 102518,
      "units": 0,
      "contractor": "",
      "stage_date": "",
      "notes": "",
      "subway": "",
      "hangang": false,
      "completion_est": "",
      "ref_note": ""
    },
    {
      "id": "api_641",
      "name": "거여2재정비촉진구역 (주택재개발사업)",
      "region": "서울",
      "district": "송파구",
      "dong": "",
      "type": "재개발",
      "stage": "의제처리구역",
      "stage_idx": 0,
      "lat": 37.50731931171089,
      "lng": 127.10258756549759,
      "area_m2": 160288,
      "units": 0,
      "contractor": "",
      "stage_date": "",
      "notes": "",
      "subway": "",
      "hangang": false,
      "completion_est": "",
      "ref_note": ""
    },
    {
      "id": "api_642",
      "name": "개봉5 주택재건축 정비구역",
      "region": "서울",
      "district": "구로구",
      "dong": "",
      "type": "재개발",
      "stage": "의제처리구역",
      "stage_idx": 0,
      "lat": 37.49955983383257,
      "lng": 126.87975667465767,
      "area_m2": 13099,
      "units": 0,
      "contractor": "",
      "stage_date": "",
      "notes": "",
      "subway": "",
      "hangang": false,
      "completion_est": "",
      "ref_note": ""
    },
    {
      "id": "api_643",
      "name": "대흥제2구역 주택재개발사업",
      "region": "서울",
      "district": "마포구",
      "dong": "",
      "type": "재개발",
      "stage": "의제처리구역",
      "stage_idx": 0,
      "lat": 37.560742915802734,
      "lng": 126.91517181161377,
      "area_m2": 61077,
      "units": 0,
      "contractor": "",
      "stage_date": "",
      "notes": "",
      "subway": "",
      "hangang": false,
      "completion_est": "",
      "ref_note": ""
    },
    {
      "id": "api_644",
      "name": "중앙동 새싹마을 관리형 주거환경개선사업",
      "region": "서울",
      "district": "관악구",
      "dong": "",
      "type": "재개발",
      "stage": "의제처리구역",
      "stage_idx": 0,
      "lat": 37.47337795033705,
      "lng": 126.94276916154854,
      "area_m2": 0,
      "units": 0,
      "contractor": "",
      "stage_date": "",
      "notes": "",
      "subway": "",
      "hangang": false,
      "completion_est": "",
      "ref_note": ""
    },
    {
      "id": "api_645",
      "name": "신수2 주택재건축 정비구역",
      "region": "서울",
      "district": "마포구",
      "dong": "",
      "type": "재개발",
      "stage": "의제처리구역",
      "stage_idx": 0,
      "lat": 37.56735567839708,
      "lng": 126.90106943888196,
      "area_m2": 17264,
      "units": 0,
      "contractor": "",
      "stage_date": "",
      "notes": "",
      "subway": "",
      "hangang": false,
      "completion_est": "",
      "ref_note": ""
    },
    {
      "id": "api_646",
      "name": "영등포1-13재정비촉진구역",
      "region": "서울",
      "district": "영등포구",
      "dong": "",
      "type": "재개발",
      "stage": "의제처리구역",
      "stage_idx": 0,
      "lat": 37.522035258892345,
      "lng": 126.89484935731232,
      "area_m2": 27049,
      "units": 0,
      "contractor": "",
      "stage_date": "",
      "notes": "",
      "subway": "",
      "hangang": false,
      "completion_est": "",
      "ref_note": ""
    },
    {
      "id": "api_647",
      "name": "서울역-서대문 1.2 도시정비형 재개발구역",
      "region": "서울",
      "district": "중구",
      "dong": "",
      "type": "재개발",
      "stage": "의제처리구역",
      "stage_idx": 0,
      "lat": 37.565551353297614,
      "lng": 126.98816304953125,
      "area_m2": 80719,
      "units": 0,
      "contractor": "",
      "stage_date": "",
      "notes": "",
      "subway": "",
      "hangang": false,
      "completion_est": "",
      "ref_note": ""
    },
    {
      "id": "api_648",
      "name": "서울역-서대문 1,2 ",
      "region": "서울",
      "district": "중구",
      "dong": "",
      "type": "재개발",
      "stage": "의제처리구역",
      "stage_idx": 0,
      "lat": 37.562012814510304,
      "lng": 127.00036394389879,
      "area_m2": 22029,
      "units": 0,
      "contractor": "",
      "stage_date": "",
      "notes": "",
      "subway": "",
      "hangang": false,
      "completion_est": "",
      "ref_note": ""
    },
    {
      "id": "api_649",
      "name": "서울역-서대문 1.2",
      "region": "서울",
      "district": "중구",
      "dong": "",
      "type": "재개발",
      "stage": "의제처리구역",
      "stage_idx": 0,
      "lat": 37.57056235026852,
      "lng": 126.99758635133243,
      "area_m2": 1109,
      "units": 0,
      "contractor": "",
      "stage_date": "",
      "notes": "",
      "subway": "",
      "hangang": false,
      "completion_est": "",
      "ref_note": ""
    },
    {
      "id": "api_650",
      "name": "서울역-서대문 1.2",
      "region": "서울",
      "district": "중구",
      "dong": "",
      "type": "재개발",
      "stage": "의제처리구역",
      "stage_idx": 0,
      "lat": 37.57046933439225,
      "lng": 127.00532722382226,
      "area_m2": 1109,
      "units": 0,
      "contractor": "",
      "stage_date": "",
      "notes": "",
      "subway": "",
      "hangang": false,
      "completion_est": "",
      "ref_note": ""
    },
    {
      "id": "api_651",
      "name": "서울역-서대문 1.2",
      "region": "서울",
      "district": "중구",
      "dong": "",
      "type": "재개발",
      "stage": "의제처리구역",
      "stage_idx": 0,
      "lat": 37.567710672062574,
      "lng": 126.989143509043,
      "area_m2": 1109,
      "units": 0,
      "contractor": "",
      "stage_date": "",
      "notes": "",
      "subway": "",
      "hangang": false,
      "completion_est": "",
      "ref_note": ""
    },
    {
      "id": "api_716",
      "name": "서울역-서대문 1.2",
      "region": "서울",
      "district": "중구",
      "dong": "",
      "type": "재개발",
      "stage": "의제처리구역",
      "stage_idx": 0,
      "lat": 37.56405242087846,
      "lng": 126.9886297241115,
      "area_m2": 6588,
      "units": 0,
      "contractor": "",
      "stage_date": "",
      "notes": "",
      "subway": "",
      "hangang": false,
      "completion_est": "",
      "ref_note": ""
    },
    {
      "id": "api_717",
      "name": "서울역-서대문 1.2구역 제1지구",
      "region": "서울",
      "district": "중구",
      "dong": "",
      "type": "재개발",
      "stage": "의제처리구역",
      "stage_idx": 0,
      "lat": 37.57307263412286,
      "lng": 127.00597872322295,
      "area_m2": 16316,
      "units": 0,
      "contractor": "",
      "stage_date": "",
      "notes": "",
      "subway": "",
      "hangang": false,
      "completion_est": "",
      "ref_note": ""
    },
    {
      "id": "api_718",
      "name": "영천구역 주택재개발정비구역",
      "region": "서울",
      "district": "서대문구",
      "dong": "",
      "type": "재개발",
      "stage": "의제처리구역",
      "stage_idx": 0,
      "lat": 37.58246160844468,
      "lng": 126.93145700258778,
      "area_m2": 10948,
      "units": 0,
      "contractor": "",
      "stage_date": "",
      "notes": "",
      "subway": "",
      "hangang": false,
      "completion_est": "",
      "ref_note": ""
    },
    {
      "id": "api_719",
      "name": "을지로2가 1.3.6.18",
      "region": "서울",
      "district": "중구",
      "dong": "",
      "type": "재개발",
      "stage": "의제처리구역",
      "stage_idx": 0,
      "lat": 37.55985107779117,
      "lng": 126.99351032822177,
      "area_m2": 0,
      "units": 0,
      "contractor": "",
      "stage_date": "",
      "notes": "",
      "subway": "",
      "hangang": false,
      "completion_est": "",
      "ref_note": ""
    },
    {
      "id": "api_720",
      "name": "을지로2가 2",
      "region": "서울",
      "district": "중구",
      "dong": "",
      "type": "재개발",
      "stage": "의제처리구역",
      "stage_idx": 0,
      "lat": 37.56872484528662,
      "lng": 127.00225767959084,
      "area_m2": 3473,
      "units": 0,
      "contractor": "",
      "stage_date": "",
      "notes": "",
      "subway": "",
      "hangang": false,
      "completion_est": "",
      "ref_note": ""
    },
    {
      "id": "api_721",
      "name": "을지로2가 18-1",
      "region": "서울",
      "district": "중구",
      "dong": "",
      "type": "재개발",
      "stage": "의제처리구역",
      "stage_idx": 0,
      "lat": 37.56195457946813,
      "lng": 126.99311011488506,
      "area_m2": 1477,
      "units": 0,
      "contractor": "",
      "stage_date": "",
      "notes": "",
      "subway": "",
      "hangang": false,
      "completion_est": "",
      "ref_note": ""
    },
    {
      "id": "api_722",
      "name": "을지로2가 18-2",
      "region": "서울",
      "district": "중구",
      "dong": "",
      "type": "재개발",
      "stage": "의제처리구역",
      "stage_idx": 0,
      "lat": 37.56360508206687,
      "lng": 126.99800111267044,
      "area_m2": 1477,
      "units": 0,
      "contractor": "",
      "stage_date": "",
      "notes": "",
      "subway": "",
      "hangang": false,
      "completion_est": "",
      "ref_note": ""
    },
    {
      "id": "api_857",
      "name": "주택재개발사업",
      "region": "서울",
      "district": "동작구",
      "dong": "",
      "type": "재개발",
      "stage": "의제처리구역",
      "stage_idx": 0,
      "lat": 37.521438729773145,
      "lng": 126.94083633327526,
      "area_m2": 35303,
      "units": 0,
      "contractor": "",
      "stage_date": "",
      "notes": "",
      "subway": "",
      "hangang": false,
      "completion_est": "",
      "ref_note": ""
    },
    {
      "id": "api_864",
      "name": "상아.현대아파트 주택재건축사업",
      "region": "서울",
      "district": "영등포구",
      "dong": "",
      "type": "재개발",
      "stage": "의제처리구역",
      "stage_idx": 0,
      "lat": 37.519899301027294,
      "lng": 126.89169611842955,
      "area_m2": 29428,
      "units": 0,
      "contractor": "",
      "stage_date": "",
      "notes": "",
      "subway": "",
      "hangang": false,
      "completion_est": "",
      "ref_note": ""
    },
    {
      "id": "api_865",
      "name": "남구로역세권 공공임대주택 도시정비형 재개발정비구역",
      "region": "서울",
      "district": "구로구",
      "dong": "",
      "type": "재개발",
      "stage": "의제처리구역",
      "stage_idx": 0,
      "lat": 37.49184037779467,
      "lng": 126.88850843805032,
      "area_m2": 0,
      "units": 0,
      "contractor": "",
      "stage_date": "",
      "notes": "",
      "subway": "",
      "hangang": false,
      "completion_est": "",
      "ref_note": ""
    },
    {
      "id": "api_867",
      "name": "국화아파트 재건축정비구역",
      "region": "서울",
      "district": "영등포구",
      "dong": "",
      "type": "재개발",
      "stage": "의제처리구역",
      "stage_idx": 0,
      "lat": 37.519265354781105,
      "lng": 126.90658707613768,
      "area_m2": 0,
      "units": 0,
      "contractor": "",
      "stage_date": "",
      "notes": "",
      "subway": "",
      "hangang": false,
      "completion_est": "",
      "ref_note": ""
    },
    {
      "id": "api_869",
      "name": "서울역-서대문 1.2",
      "region": "서울",
      "district": "중구",
      "dong": "",
      "type": "재개발",
      "stage": "의제처리구역",
      "stage_idx": 0,
      "lat": 37.55576068983879,
      "lng": 126.99149348721261,
      "area_m2": 1109,
      "units": 0,
      "contractor": "",
      "stage_date": "",
      "notes": "",
      "subway": "",
      "hangang": false,
      "completion_est": "",
      "ref_note": ""
    },
    {
      "id": "api_870",
      "name": "문래동2·3가B 도시정비형 재개발구역 ",
      "region": "서울",
      "district": "영등포구",
      "dong": "",
      "type": "재개발",
      "stage": "의제처리구역",
      "stage_idx": 0,
      "lat": 37.52944684516708,
      "lng": 126.89624947938873,
      "area_m2": 0,
      "units": 0,
      "contractor": "",
      "stage_date": "",
      "notes": "",
      "subway": "",
      "hangang": false,
      "completion_est": "",
      "ref_note": ""
    },
    {
      "id": "api_874",
      "name": "서소문5",
      "region": "서울",
      "district": "중구",
      "dong": "",
      "type": "재개발",
      "stage": "의제처리구역",
      "stage_idx": 0,
      "lat": 37.55587004758867,
      "lng": 126.99199673297178,
      "area_m2": 2917,
      "units": 0,
      "contractor": "",
      "stage_date": "",
      "notes": "",
      "subway": "",
      "hangang": false,
      "completion_est": "",
      "ref_note": ""
    },
    {
      "id": "api_875",
      "name": "서소문6",
      "region": "서울",
      "district": "중구",
      "dong": "",
      "type": "재개발",
      "stage": "의제처리구역",
      "stage_idx": 0,
      "lat": 37.565852025379876,
      "lng": 127.00544102530522,
      "area_m2": 2594,
      "units": 0,
      "contractor": "",
      "stage_date": "",
      "notes": "",
      "subway": "",
      "hangang": false,
      "completion_est": "",
      "ref_note": ""
    },
    {
      "id": "api_876",
      "name": "서소문8-1",
      "region": "서울",
      "district": "중구",
      "dong": "",
      "type": "재개발",
      "stage": "의제처리구역",
      "stage_idx": 0,
      "lat": 37.56090099518879,
      "lng": 127.00160125555361,
      "area_m2": 694,
      "units": 0,
      "contractor": "",
      "stage_date": "",
      "notes": "",
      "subway": "",
      "hangang": false,
      "completion_est": "",
      "ref_note": ""
    },
    {
      "id": "api_877",
      "name": "서소문8-2",
      "region": "서울",
      "district": "중구",
      "dong": "",
      "type": "재개발",
      "stage": "의제처리구역",
      "stage_idx": 0,
      "lat": 37.567656373919434,
      "lng": 126.98857544708264,
      "area_m2": 1208,
      "units": 0,
      "contractor": "",
      "stage_date": "",
      "notes": "",
      "subway": "",
      "hangang": false,
      "completion_est": "",
      "ref_note": ""
    },
    {
      "id": "api_878",
      "name": "서소문9",
      "region": "서울",
      "district": "중구",
      "dong": "",
      "type": "재개발",
      "stage": "의제처리구역",
      "stage_idx": 0,
      "lat": 37.56392003652094,
      "lng": 126.99491771301001,
      "area_m2": 4253,
      "units": 0,
      "contractor": "",
      "stage_date": "",
      "notes": "",
      "subway": "",
      "hangang": false,
      "completion_est": "",
      "ref_note": ""
    },
    {
      "id": "api_895",
      "name": "신길우성2차·우창아파트 재건축 정비사업",
      "region": "서울",
      "district": "영등포구",
      "dong": "",
      "type": "재개발",
      "stage": "의제처리구역",
      "stage_idx": 0,
      "lat": 37.52060382030093,
      "lng": 126.89376700369672,
      "area_m2": 0,
      "units": 0,
      "contractor": "",
      "stage_date": "",
      "notes": "",
      "subway": "",
      "hangang": false,
      "completion_est": "",
      "ref_note": ""
    },
    {
      "id": "api_896",
      "name": "제기 도시정비형 재개발구역",
      "region": "서울",
      "district": "동대문구",
      "dong": "",
      "type": "재개발",
      "stage": "의제처리구역",
      "stage_idx": 0,
      "lat": 37.58397586819678,
      "lng": 127.03728050245932,
      "area_m2": 124640,
      "units": 0,
      "contractor": "",
      "stage_date": "",
      "notes": "",
      "subway": "",
      "hangang": false,
      "completion_est": "",
      "ref_note": ""
    },
    {
      "id": "api_898",
      "name": "신정1재정비촉진구역",
      "region": "서울",
      "district": "양천구",
      "dong": "",
      "type": "재개발",
      "stage": "의제처리구역",
      "stage_idx": 0,
      "lat": 37.51813560921858,
      "lng": 126.87562235754339,
      "area_m2": 254260,
      "units": 0,
      "contractor": "",
      "stage_date": "",
      "notes": "",
      "subway": "",
      "hangang": false,
      "completion_est": "",
      "ref_note": ""
    },
    {
      "id": "api_899",
      "name": "천왕역세권 공공임대주택 건립관련 도시환경정비사업",
      "region": "서울",
      "district": "구로구",
      "dong": "",
      "type": "재개발",
      "stage": "의제처리구역",
      "stage_idx": 0,
      "lat": 37.49423671053478,
      "lng": 126.8778396522298,
      "area_m2": 10451,
      "units": 0,
      "contractor": "",
      "stage_date": "",
      "notes": "",
      "subway": "",
      "hangang": false,
      "completion_est": "",
      "ref_note": ""
    },
    {
      "id": "api_900",
      "name": "둔촌동 삼익빌라 주택재건축정비사업",
      "region": "서울",
      "district": "강동구",
      "dong": "",
      "type": "재개발",
      "stage": "의제처리구역",
      "stage_idx": 0,
      "lat": 37.53836699634457,
      "lng": 127.11708056987142,
      "area_m2": 9914,
      "units": 0,
      "contractor": "",
      "stage_date": "",
      "notes": "",
      "subway": "",
      "hangang": false,
      "completion_est": "",
      "ref_note": ""
    },
    {
      "id": "api_901",
      "name": "면목3 주택재건축구역",
      "region": "서울",
      "district": "중랑구",
      "dong": "",
      "type": "재개발",
      "stage": "의제처리구역",
      "stage_idx": 0,
      "lat": 37.61533449583776,
      "lng": 127.09940233772372,
      "area_m2": 68255,
      "units": 0,
      "contractor": "",
      "stage_date": "",
      "notes": "",
      "subway": "",
      "hangang": false,
      "completion_est": "",
      "ref_note": ""
    },
    {
      "id": "api_902",
      "name": "이문1재정비촉진구역",
      "region": "서울",
      "district": "동대문구",
      "dong": "",
      "type": "재개발",
      "stage": "의제처리구역",
      "stage_idx": 0,
      "lat": 37.583215338200425,
      "lng": 127.0334545465387,
      "area_m2": 144964,
      "units": 0,
      "contractor": "",
      "stage_date": "",
      "notes": "",
      "subway": "",
      "hangang": false,
      "completion_est": "",
      "ref_note": ""
    },
    {
      "id": "api_903",
      "name": "이문3(3-1) 재정비촉진구역",
      "region": "서울",
      "district": "동대문구",
      "dong": "",
      "type": "재개발",
      "stage": "의제처리구역",
      "stage_idx": 0,
      "lat": 37.57476300487434,
      "lng": 127.03728993794229,
      "area_m2": 133505,
      "units": 0,
      "contractor": "",
      "stage_date": "",
      "notes": "",
      "subway": "",
      "hangang": false,
      "completion_est": "",
      "ref_note": ""
    },
    {
      "id": "api_905",
      "name": "장위10구역 ",
      "region": "서울",
      "district": "성북구",
      "dong": "",
      "type": "재개발",
      "stage": "의제처리구역",
      "stage_idx": 0,
      "lat": 37.58385064269644,
      "lng": 127.01164994017593,
      "area_m2": 94072,
      "units": 0,
      "contractor": "",
      "stage_date": "",
      "notes": "",
      "subway": "",
      "hangang": false,
      "completion_est": "",
      "ref_note": ""
    },
    {
      "id": "api_906",
      "name": "오류2동 147번지 일대 주거환경관리 정비구역 ",
      "region": "서울",
      "district": "구로구",
      "dong": "",
      "type": "재개발",
      "stage": "의제처리구역",
      "stage_idx": 0,
      "lat": 37.50045864567516,
      "lng": 126.88390473040387,
      "area_m2": 178630,
      "units": 0,
      "contractor": "",
      "stage_date": "",
      "notes": "",
      "subway": "",
      "hangang": false,
      "completion_est": "",
      "ref_note": ""
    },
    {
      "id": "api_907",
      "name": "신길10재정비촉진구역",
      "region": "서울",
      "district": "영등포구",
      "dong": "",
      "type": "재개발",
      "stage": "의제처리구역",
      "stage_idx": 0,
      "lat": 37.51833572152732,
      "lng": 126.89292920765403,
      "area_m2": 32234,
      "units": 0,
      "contractor": "",
      "stage_date": "",
      "notes": "",
      "subway": "",
      "hangang": false,
      "completion_est": "",
      "ref_note": ""
    },
    {
      "id": "api_908",
      "name": "신문로제2구역 제8지구 도시정비형 재개발사업",
      "region": "서울",
      "district": "종로구",
      "dong": "",
      "type": "재개발",
      "stage": "의제처리구역",
      "stage_idx": 0,
      "lat": 37.58402379843093,
      "lng": 126.98485949107834,
      "area_m2": 7052,
      "units": 0,
      "contractor": "",
      "stage_date": "",
      "notes": "",
      "subway": "",
      "hangang": false,
      "completion_est": "",
      "ref_note": ""
    },
    {
      "id": "api_909",
      "name": "홍은제14 주택재개발정비구역",
      "region": "서울",
      "district": "서대문구",
      "dong": "",
      "type": "재개발",
      "stage": "의제처리구역",
      "stage_idx": 0,
      "lat": 37.57266224780694,
      "lng": 126.93619794914783,
      "area_m2": 22882,
      "units": 0,
      "contractor": "",
      "stage_date": "",
      "notes": "",
      "subway": "",
      "hangang": false,
      "completion_est": "",
      "ref_note": ""
    },
    {
      "id": "api_910",
      "name": "상봉7재정비촉진구역",
      "region": "서울",
      "district": "중랑구",
      "dong": "",
      "type": "재개발",
      "stage": "의제처리구역",
      "stage_idx": 0,
      "lat": 37.610460296631544,
      "lng": 127.09327272784604,
      "area_m2": 14990,
      "units": 0,
      "contractor": "",
      "stage_date": "",
      "notes": "",
      "subway": "",
      "hangang": false,
      "completion_est": "",
      "ref_note": ""
    },
    {
      "id": "api_935",
      "name": "순화 도시정비형 재개발구역",
      "region": "서울",
      "district": "중구",
      "dong": "",
      "type": "재개발",
      "stage": "의제처리구역",
      "stage_idx": 0,
      "lat": 37.56449184021263,
      "lng": 126.99176966279468,
      "area_m2": 15092,
      "units": 0,
      "contractor": "",
      "stage_date": "",
      "notes": "",
      "subway": "",
      "hangang": false,
      "completion_est": "",
      "ref_note": ""
    },
    {
      "id": "api_936",
      "name": "순화 도시정비형 재개발구역 제1-2지구",
      "region": "서울",
      "district": "중구",
      "dong": "",
      "type": "재개발",
      "stage": "의제처리구역",
      "stage_idx": 0,
      "lat": 37.55536155768225,
      "lng": 127.00572979672387,
      "area_m2": 1979,
      "units": 0,
      "contractor": "",
      "stage_date": "",
      "notes": "",
      "subway": "",
      "hangang": false,
      "completion_est": "",
      "ref_note": ""
    },
    {
      "id": "api_937",
      "name": "삼선제5구역 주택재개발 정비사업",
      "region": "서울",
      "district": "성북구",
      "dong": "",
      "type": "재개발",
      "stage": "의제처리구역",
      "stage_idx": 0,
      "lat": 37.59592884997008,
      "lng": 127.00737725955517,
      "area_m2": 63936,
      "units": 0,
      "contractor": "",
      "stage_date": "",
      "notes": "",
      "subway": "",
      "hangang": false,
      "completion_est": "",
      "ref_note": ""
    },
    {
      "id": "api_938",
      "name": "동선제2구역 주택재개발정비사업",
      "region": "서울",
      "district": "성북구",
      "dong": "",
      "type": "재개발",
      "stage": "의제처리구역",
      "stage_idx": 0,
      "lat": 37.58593332122232,
      "lng": 127.02010690121581,
      "area_m2": 15637,
      "units": 0,
      "contractor": "",
      "stage_date": "",
      "notes": "",
      "subway": "",
      "hangang": false,
      "completion_est": "",
      "ref_note": ""
    },
    {
      "id": "api_940",
      "name": "이문1재정비촉진구역",
      "region": "서울",
      "district": "동대문구",
      "dong": "",
      "type": "재개발",
      "stage": "의제처리구역",
      "stage_idx": 0,
      "lat": 37.56577791374321,
      "lng": 127.03350855187736,
      "area_m2": 144856,
      "units": 0,
      "contractor": "",
      "stage_date": "",
      "notes": "",
      "subway": "",
      "hangang": false,
      "completion_est": "",
      "ref_note": ""
    },
    {
      "id": "api_941",
      "name": "잠실진주아파트 재건축사업",
      "region": "서울",
      "district": "송파구",
      "dong": "",
      "type": "재개발",
      "stage": "의제처리구역",
      "stage_idx": 0,
      "lat": 37.52180529778361,
      "lng": 127.11449323029323,
      "area_m2": 112558,
      "units": 0,
      "contractor": "",
      "stage_date": "",
      "notes": "",
      "subway": "",
      "hangang": false,
      "completion_est": "",
      "ref_note": ""
    },
    {
      "id": "api_942",
      "name": "신촌지역(서대문)도시정비형 재개발구역",
      "region": "서울",
      "district": "서대문구",
      "dong": "",
      "type": "재개발",
      "stage": "의제처리구역",
      "stage_idx": 0,
      "lat": 37.57826999890137,
      "lng": 126.94635589625717,
      "area_m2": 4597,
      "units": 0,
      "contractor": "",
      "stage_date": "",
      "notes": "",
      "subway": "",
      "hangang": false,
      "completion_est": "",
      "ref_note": ""
    },
    {
      "id": "api_943",
      "name": "문래동1가A 도시정비형 재개발구역 ",
      "region": "서울",
      "district": "영등포구",
      "dong": "",
      "type": "재개발",
      "stage": "의제처리구역",
      "stage_idx": 0,
      "lat": 37.52131526539171,
      "lng": 126.89452033402513,
      "area_m2": 0,
      "units": 0,
      "contractor": "",
      "stage_date": "",
      "notes": "",
      "subway": "",
      "hangang": false,
      "completion_est": "",
      "ref_note": ""
    },
    {
      "id": "api_944",
      "name": "문래동1가B 도시정비형 재개발구역 ",
      "region": "서울",
      "district": "영등포구",
      "dong": "",
      "type": "재개발",
      "stage": "의제처리구역",
      "stage_idx": 0,
      "lat": 37.5271189788984,
      "lng": 126.90247980067244,
      "area_m2": 0,
      "units": 0,
      "contractor": "",
      "stage_date": "",
      "notes": "",
      "subway": "",
      "hangang": false,
      "completion_est": "",
      "ref_note": ""
    },
    {
      "id": "api_964",
      "name": "문래동2가A 도시정비형 재개발구역 ",
      "region": "서울",
      "district": "영등포구",
      "dong": "",
      "type": "재개발",
      "stage": "의제처리구역",
      "stage_idx": 0,
      "lat": 37.526386383155064,
      "lng": 126.89463819224021,
      "area_m2": 0,
      "units": 0,
      "contractor": "",
      "stage_date": "",
      "notes": "",
      "subway": "",
      "hangang": false,
      "completion_est": "",
      "ref_note": ""
    },
    {
      "id": "api_965",
      "name": "문래동2가B 도시정비형 재개발구역 ",
      "region": "서울",
      "district": "영등포구",
      "dong": "",
      "type": "재개발",
      "stage": "의제처리구역",
      "stage_idx": 0,
      "lat": 37.52452064284013,
      "lng": 126.89126744713359,
      "area_m2": 0,
      "units": 0,
      "contractor": "",
      "stage_date": "",
      "notes": "",
      "subway": "",
      "hangang": false,
      "completion_est": "",
      "ref_note": ""
    },
    {
      "id": "api_966",
      "name": "문래동4가 도시환경정비구역",
      "region": "서울",
      "district": "영등포구",
      "dong": "",
      "type": "재개발",
      "stage": "의제처리구역",
      "stage_idx": 0,
      "lat": 37.52802442373033,
      "lng": 126.88751052449555,
      "area_m2": 94087,
      "units": 0,
      "contractor": "",
      "stage_date": "",
      "notes": "",
      "subway": "",
      "hangang": false,
      "completion_est": "",
      "ref_note": ""
    },
    {
      "id": "api_967",
      "name": "북아현2 재정비촉진구역 ",
      "region": "서울",
      "district": "서대문구",
      "dong": "",
      "type": "재개발",
      "stage": "의제처리구역",
      "stage_idx": 0,
      "lat": 37.58800752187462,
      "lng": 126.93866354023179,
      "area_m2": 124270,
      "units": 0,
      "contractor": "",
      "stage_date": "",
      "notes": "",
      "subway": "",
      "hangang": false,
      "completion_est": "",
      "ref_note": ""
    },
    {
      "id": "api_968",
      "name": "효창제6구역주택재개발정비사업",
      "region": "서울",
      "district": "용산구",
      "dong": "",
      "type": "재개발",
      "stage": "의제처리구역",
      "stage_idx": 0,
      "lat": 37.52487100310416,
      "lng": 126.97138476621048,
      "area_m2": 18171,
      "units": 0,
      "contractor": "",
      "stage_date": "",
      "notes": "",
      "subway": "",
      "hangang": false,
      "completion_est": "",
      "ref_note": ""
    },
    {
      "id": "api_969",
      "name": "방화5재정비촉진구역 (주택재건축사업) ",
      "region": "서울",
      "district": "강서구",
      "dong": "",
      "type": "재개발",
      "stage": "의제처리구역",
      "stage_idx": 0,
      "lat": 37.542488721392786,
      "lng": 126.84187509292076,
      "area_m2": 99520,
      "units": 0,
      "contractor": "",
      "stage_date": "",
      "notes": "",
      "subway": "",
      "hangang": false,
      "completion_est": "",
      "ref_note": ""
    },
    {
      "id": "api_971",
      "name": "수색4재정비촉진구역(주택재개발사업)",
      "region": "서울",
      "district": "은평구",
      "dong": "",
      "type": "재개발",
      "stage": "의제처리구역",
      "stage_idx": 0,
      "lat": 37.60040749185502,
      "lng": 126.92361475445418,
      "area_m2": 61889,
      "units": 0,
      "contractor": "",
      "stage_date": "",
      "notes": "",
      "subway": "",
      "hangang": false,
      "completion_est": "",
      "ref_note": ""
    },
    {
      "id": "api_972",
      "name": "가재울6 재정비촉진구역",
      "region": "서울",
      "district": "서대문구",
      "dong": "",
      "type": "재개발",
      "stage": "의제처리구역",
      "stage_idx": 0,
      "lat": 37.58390155930177,
      "lng": 126.93606870811047,
      "area_m2": 48084,
      "units": 0,
      "contractor": "",
      "stage_date": "",
      "notes": "",
      "subway": "",
      "hangang": false,
      "completion_est": "",
      "ref_note": ""
    },
    {
      "id": "api_987",
      "name": "도시정비형 재개발사업구역",
      "region": "서울",
      "district": "중구",
      "dong": "",
      "type": "재개발",
      "stage": "의제처리구역",
      "stage_idx": 0,
      "lat": 37.5549939832634,
      "lng": 127.00539827297553,
      "area_m2": 2918,
      "units": 0,
      "contractor": "",
      "stage_date": "",
      "notes": "",
      "subway": "",
      "hangang": false,
      "completion_est": "",
      "ref_note": ""
    },
    {
      "id": "api_990",
      "name": "중구 다산권 성곽마을 관리형 주거환경개선사업",
      "region": "서울",
      "district": "중구",
      "dong": "",
      "type": "재개발",
      "stage": "의제처리구역",
      "stage_idx": 0,
      "lat": 37.57106193707728,
      "lng": 127.00697605397322,
      "area_m2": 0,
      "units": 0,
      "contractor": "",
      "stage_date": "",
      "notes": "",
      "subway": "",
      "hangang": false,
      "completion_est": "",
      "ref_note": ""
    },
    {
      "id": "api_991",
      "name": "서울특별시 마포구 창전동 27-19호 일대",
      "region": "서울",
      "district": "마포구",
      "dong": "",
      "type": "재개발",
      "stage": "의제처리구역",
      "stage_idx": 0,
      "lat": 37.55943841205025,
      "lng": 126.90415545399624,
      "area_m2": 14770,
      "units": 0,
      "contractor": "",
      "stage_date": "",
      "notes": "",
      "subway": "",
      "hangang": false,
      "completion_est": "",
      "ref_note": ""
    },
    {
      "id": "api_1013",
      "name": "개포시영아파트 중심상가재건축정비사업",
      "region": "서울",
      "district": "강남구",
      "dong": "",
      "type": "재개발",
      "stage": "의제처리구역",
      "stage_idx": 0,
      "lat": 37.51572082582332,
      "lng": 127.0545042035147,
      "area_m2": 0,
      "units": 0,
      "contractor": "",
      "stage_date": "",
      "notes": "",
      "subway": "",
      "hangang": false,
      "completion_est": "",
      "ref_note": ""
    },
    {
      "id": "api_1016",
      "name": "국제빌딩주변 도시정비형 재개발구역",
      "region": "서울",
      "district": "용산구",
      "dong": "",
      "type": "재개발",
      "stage": "의제처리구역",
      "stage_idx": 0,
      "lat": 37.531712724339016,
      "lng": 126.98230530139402,
      "area_m2": 109965,
      "units": 0,
      "contractor": "",
      "stage_date": "",
      "notes": "",
      "subway": "",
      "hangang": false,
      "completion_est": "",
      "ref_note": ""
    },
    {
      "id": "api_1017",
      "name": "4구역",
      "region": "서울",
      "district": "용산구",
      "dong": "",
      "type": "재개발",
      "stage": "의제처리구역",
      "stage_idx": 0,
      "lat": 37.524120594246924,
      "lng": 126.98683753000303,
      "area_m2": 53066,
      "units": 0,
      "contractor": "",
      "stage_date": "",
      "notes": "",
      "subway": "",
      "hangang": false,
      "completion_est": "",
      "ref_note": ""
    },
    {
      "id": "api_1018",
      "name": "응암제11구역 주택재개발정비사업",
      "region": "서울",
      "district": "은평구",
      "dong": "",
      "type": "재개발",
      "stage": "의제처리구역",
      "stage_idx": 0,
      "lat": 37.597767864583744,
      "lng": 126.93390974936246,
      "area_m2": 36242,
      "units": 0,
      "contractor": "",
      "stage_date": "",
      "notes": "",
      "subway": "",
      "hangang": false,
      "completion_est": "",
      "ref_note": ""
    },
    {
      "id": "api_1020",
      "name": "서소문8-3",
      "region": "서울",
      "district": "중구",
      "dong": "",
      "type": "재개발",
      "stage": "의제처리구역",
      "stage_idx": 0,
      "lat": 37.56554996983209,
      "lng": 126.98935186004734,
      "area_m2": 1172,
      "units": 0,
      "contractor": "",
      "stage_date": "",
      "notes": "",
      "subway": "",
      "hangang": false,
      "completion_est": "",
      "ref_note": ""
    },
    {
      "id": "api_1021",
      "name": "갈현제1구역 주택재개발정비사업",
      "region": "서울",
      "district": "은평구",
      "dong": "",
      "type": "재개발",
      "stage": "의제처리구역",
      "stage_idx": 0,
      "lat": 37.5948351470266,
      "lng": 126.92621445649249,
      "area_m2": 238850,
      "units": 0,
      "contractor": "",
      "stage_date": "",
      "notes": "",
      "subway": "",
      "hangang": false,
      "completion_est": "",
      "ref_note": ""
    },
    {
      "id": "api_1022",
      "name": "용답동 108-1번지 일대 주택재개발정비사업",
      "region": "서울",
      "district": "성동구",
      "dong": "",
      "type": "재개발",
      "stage": "의제처리구역",
      "stage_idx": 0,
      "lat": 37.56888895014172,
      "lng": 127.03332621199812,
      "area_m2": 73341,
      "units": 0,
      "contractor": "",
      "stage_date": "",
      "notes": "",
      "subway": "",
      "hangang": false,
      "completion_est": "",
      "ref_note": ""
    },
    {
      "id": "api_1023",
      "name": "노량진6재정비촉진구역 ",
      "region": "서울",
      "district": "동작구",
      "dong": "",
      "type": "재개발",
      "stage": "의제처리구역",
      "stage_idx": 0,
      "lat": 37.506646889695006,
      "lng": 126.9350169632,
      "area_m2": 72809,
      "units": 0,
      "contractor": "",
      "stage_date": "",
      "notes": "",
      "subway": "",
      "hangang": false,
      "completion_est": "",
      "ref_note": ""
    },
    {
      "id": "api_1038",
      "name": "북아현2 재정비촉진구역 ",
      "region": "서울",
      "district": "서대문구",
      "dong": "",
      "type": "재개발",
      "stage": "의제처리구역",
      "stage_idx": 0,
      "lat": 37.57958817401534,
      "lng": 126.94230335656545,
      "area_m2": 120055,
      "units": 0,
      "contractor": "",
      "stage_date": "",
      "notes": "",
      "subway": "",
      "hangang": false,
      "completion_est": "",
      "ref_note": ""
    },
    {
      "id": "api_1040",
      "name": "한강맨션아파트 주택재건축정비구역",
      "region": "서울",
      "district": "용산구",
      "dong": "",
      "type": "재개발",
      "stage": "의제처리구역",
      "stage_idx": 0,
      "lat": 37.52400678359285,
      "lng": 126.98055156940876,
      "area_m2": 84096,
      "units": 0,
      "contractor": "",
      "stage_date": "",
      "notes": "",
      "subway": "",
      "hangang": false,
      "completion_est": "",
      "ref_note": ""
    },
    {
      "id": "api_1041",
      "name": "상계4재정비촉진구역 ",
      "region": "서울",
      "district": "노원구",
      "dong": "",
      "type": "재개발",
      "stage": "의제처리구역",
      "stage_idx": 0,
      "lat": 37.66031178276494,
      "lng": 127.05148941781985,
      "area_m2": 39960,
      "units": 0,
      "contractor": "",
      "stage_date": "",
      "notes": "",
      "subway": "",
      "hangang": false,
      "completion_est": "",
      "ref_note": ""
    },
    {
      "id": "api_1042",
      "name": "가락삼익맨숀 아파트 재건축정비사업",
      "region": "서울",
      "district": "송파구",
      "dong": "",
      "type": "재개발",
      "stage": "의제처리구역",
      "stage_idx": 0,
      "lat": 37.511586612363644,
      "lng": 127.09740436034377,
      "area_m2": 62059,
      "units": 0,
      "contractor": "",
      "stage_date": "",
      "notes": "",
      "subway": "",
      "hangang": false,
      "completion_est": "",
      "ref_note": ""
    },
    {
      "id": "api_1043",
      "name": "수정아파트 재건축정비사업",
      "region": "서울",
      "district": "양천구",
      "dong": "",
      "type": "재개발",
      "stage": "의제처리구역",
      "stage_idx": 0,
      "lat": 37.51729518308807,
      "lng": 126.87030919719147,
      "area_m2": 0,
      "units": 0,
      "contractor": "",
      "stage_date": "",
      "notes": "",
      "subway": "",
      "hangang": false,
      "completion_est": "",
      "ref_note": ""
    },
    {
      "id": "api_1044",
      "name": "개포시영아파트 주택재건축정비사업",
      "region": "서울",
      "district": "강남구",
      "dong": "",
      "type": "재개발",
      "stage": "의제처리구역",
      "stage_idx": 0,
      "lat": 37.511494919986234,
      "lng": 127.05524799180046,
      "area_m2": 115910,
      "units": 0,
      "contractor": "",
      "stage_date": "",
      "notes": "",
      "subway": "",
      "hangang": false,
      "completion_est": "",
      "ref_note": ""
    },
    {
      "id": "api_1046",
      "name": "월계동 487-17일대 주택재건축 정비사업",
      "region": "서울",
      "district": "노원구",
      "dong": "",
      "type": "재개발",
      "stage": "의제처리구역",
      "stage_idx": 0,
      "lat": 37.65820091022676,
      "lng": 127.06100320245673,
      "area_m2": 14704,
      "units": 0,
      "contractor": "",
      "stage_date": "",
      "notes": "",
      "subway": "",
      "hangang": false,
      "completion_est": "",
      "ref_note": ""
    },
    {
      "id": "api_1047",
      "name": "응암제2구역 주택재개발정비사업",
      "region": "서울",
      "district": "은평구",
      "dong": "",
      "type": "재개발",
      "stage": "의제처리구역",
      "stage_idx": 0,
      "lat": 37.607217924074675,
      "lng": 126.92696259511912,
      "area_m2": 120765,
      "units": 0,
      "contractor": "",
      "stage_date": "",
      "notes": "",
      "subway": "",
      "hangang": false,
      "completion_est": "",
      "ref_note": ""
    },
    {
      "id": "api_1111",
      "name": "가락프라자아파트 주택재건축사업 ",
      "region": "서울",
      "district": "송파구",
      "dong": "",
      "type": "재개발",
      "stage": "의제처리구역",
      "stage_idx": 0,
      "lat": 37.519790251039524,
      "lng": 127.10631989120003,
      "area_m2": 47807,
      "units": 0,
      "contractor": "",
      "stage_date": "",
      "notes": "",
      "subway": "",
      "hangang": false,
      "completion_est": "",
      "ref_note": ""
    },
    {
      "id": "api_1112",
      "name": "월계동 487-17번지 일대 주택재건축정비사업",
      "region": "서울",
      "district": "노원구",
      "dong": "",
      "type": "재개발",
      "stage": "의제처리구역",
      "stage_idx": 0,
      "lat": 37.6467115809478,
      "lng": 127.05493326311651,
      "area_m2": 14704,
      "units": 0,
      "contractor": "",
      "stage_date": "",
      "notes": "",
      "subway": "",
      "hangang": false,
      "completion_est": "",
      "ref_note": ""
    },
    {
      "id": "api_1127",
      "name": "성북제2-신월곡1 결합정비사업",
      "region": "서울",
      "district": "성북구",
      "dong": "",
      "type": "재개발",
      "stage": "의제처리구역",
      "stage_idx": 0,
      "lat": 37.59428038292412,
      "lng": 127.01650551164488,
      "area_m2": 129866,
      "units": 0,
      "contractor": "",
      "stage_date": "",
      "notes": "",
      "subway": "",
      "hangang": false,
      "completion_est": "",
      "ref_note": ""
    },
    {
      "id": "api_1128",
      "name": "연희 제1주택재건축정비구역",
      "region": "서울",
      "district": "서대문구",
      "dong": "",
      "type": "재개발",
      "stage": "의제처리구역",
      "stage_idx": 0,
      "lat": 37.5731676927142,
      "lng": 126.93208133404275,
      "area_m2": 19468,
      "units": 0,
      "contractor": "",
      "stage_date": "",
      "notes": "",
      "subway": "",
      "hangang": false,
      "completion_est": "",
      "ref_note": ""
    },
    {
      "id": "api_1293",
      "name": "대흥제2구역주택재개발사업",
      "region": "서울",
      "district": "마포구",
      "dong": "",
      "type": "재개발",
      "stage": "의제처리구역",
      "stage_idx": 0,
      "lat": 37.56147114418909,
      "lng": 126.91648809960121,
      "area_m2": 62245,
      "units": 0,
      "contractor": "",
      "stage_date": "",
      "notes": "",
      "subway": "",
      "hangang": false,
      "completion_est": "",
      "ref_note": ""
    },
    {
      "id": "api_1542",
      "name": "장위1 재정비촉진구역",
      "region": "서울",
      "district": "성북구",
      "dong": "",
      "type": "재개발",
      "stage": "의제처리구역",
      "stage_idx": 0,
      "lat": 37.593186232980834,
      "lng": 127.02015041983454,
      "area_m2": 80513,
      "units": 0,
      "contractor": "",
      "stage_date": "",
      "notes": "",
      "subway": "",
      "hangang": false,
      "completion_est": "",
      "ref_note": ""
    },
    {
      "id": "api_1976",
      "name": "대흥제2구역 주택재개발사업",
      "region": "서울",
      "district": "마포구",
      "dong": "",
      "type": "재개발",
      "stage": "의제처리구역",
      "stage_idx": 0,
      "lat": 37.57057909801341,
      "lng": 126.91706032521357,
      "area_m2": 62260,
      "units": 0,
      "contractor": "",
      "stage_date": "",
      "notes": "",
      "subway": "",
      "hangang": false,
      "completion_est": "",
      "ref_note": ""
    },
    {
      "id": "api_2055",
      "name": "을지로2가 19-1",
      "region": "서울",
      "district": "중구",
      "dong": "",
      "type": "재개발",
      "stage": "의제처리구역",
      "stage_idx": 0,
      "lat": 37.573038831769836,
      "lng": 127.00313515430405,
      "area_m2": 1477,
      "units": 0,
      "contractor": "",
      "stage_date": "",
      "notes": "",
      "subway": "",
      "hangang": false,
      "completion_est": "",
      "ref_note": ""
    },
    {
      "id": "api_2083",
      "name": "이문4재정비촉진구역",
      "region": "서울",
      "district": "동대문구",
      "dong": "",
      "type": "재개발",
      "stage": "의제처리구역",
      "stage_idx": 0,
      "lat": 37.573026724174404,
      "lng": 127.04384524308233,
      "area_m2": 151388,
      "units": 0,
      "contractor": "",
      "stage_date": "",
      "notes": "",
      "subway": "",
      "hangang": false,
      "completion_est": "",
      "ref_note": ""
    },
    {
      "id": "api_2084",
      "name": "신길14재정비촉진구역",
      "region": "서울",
      "district": "영등포구",
      "dong": "",
      "type": "재개발",
      "stage": "의제처리구역",
      "stage_idx": 0,
      "lat": 37.53393431826811,
      "lng": 126.88849974608165,
      "area_m2": 27844,
      "units": 0,
      "contractor": "",
      "stage_date": "",
      "notes": "",
      "subway": "",
      "hangang": false,
      "completion_est": "",
      "ref_note": ""
    },
    {
      "id": "api_2085",
      "name": "공평지구<H9>",
      "region": "서울",
      "district": "종로구",
      "dong": "",
      "type": "재개발",
      "stage": "의제처리구역",
      "stage_idx": 0,
      "lat": 37.59954928439675,
      "lng": 126.9857412644112,
      "area_m2": 127,
      "units": 0,
      "contractor": "",
      "stage_date": "",
      "notes": "",
      "subway": "",
      "hangang": false,
      "completion_est": "",
      "ref_note": ""
    },
    {
      "id": "api_2086",
      "name": "을지로2가 19-3",
      "region": "서울",
      "district": "중구",
      "dong": "",
      "type": "재개발",
      "stage": "의제처리구역",
      "stage_idx": 0,
      "lat": 37.57289964584,
      "lng": 127.00137036732252,
      "area_m2": 1477,
      "units": 0,
      "contractor": "",
      "stage_date": "",
      "notes": "",
      "subway": "",
      "hangang": false,
      "completion_est": "",
      "ref_note": ""
    },
    {
      "id": "api_2087",
      "name": "을지로2가 19-4",
      "region": "서울",
      "district": "중구",
      "dong": "",
      "type": "재개발",
      "stage": "의제처리구역",
      "stage_idx": 0,
      "lat": 37.5609513132211,
      "lng": 126.99547371808548,
      "area_m2": 1477,
      "units": 0,
      "contractor": "",
      "stage_date": "",
      "notes": "",
      "subway": "",
      "hangang": false,
      "completion_est": "",
      "ref_note": ""
    },
    {
      "id": "api_2088",
      "name": "을지로2가 20-1",
      "region": "서울",
      "district": "중구",
      "dong": "",
      "type": "재개발",
      "stage": "의제처리구역",
      "stage_idx": 0,
      "lat": 37.55641485406762,
      "lng": 126.99856505184236,
      "area_m2": 0,
      "units": 0,
      "contractor": "",
      "stage_date": "",
      "notes": "",
      "subway": "",
      "hangang": false,
      "completion_est": "",
      "ref_note": ""
    },
    {
      "id": "api_2089",
      "name": "을지로2가 20-2",
      "region": "서울",
      "district": "중구",
      "dong": "",
      "type": "재개발",
      "stage": "의제처리구역",
      "stage_idx": 0,
      "lat": 37.55556498806667,
      "lng": 127.0043222580983,
      "area_m2": 0,
      "units": 0,
      "contractor": "",
      "stage_date": "",
      "notes": "",
      "subway": "",
      "hangang": false,
      "completion_est": "",
      "ref_note": ""
    },
    {
      "id": "api_2090",
      "name": "을지로2가 18-5",
      "region": "서울",
      "district": "중구",
      "dong": "",
      "type": "재개발",
      "stage": "의제처리구역",
      "stage_idx": 0,
      "lat": 37.56962179392975,
      "lng": 126.9947322416013,
      "area_m2": 1477,
      "units": 0,
      "contractor": "",
      "stage_date": "",
      "notes": "",
      "subway": "",
      "hangang": false,
      "completion_est": "",
      "ref_note": ""
    },
    {
      "id": "api_2092",
      "name": "신촌지역(마포) 4-15지구 도시정비형 재개발구역",
      "region": "서울",
      "district": "마포구",
      "dong": "",
      "type": "재개발",
      "stage": "의제처리구역",
      "stage_idx": 0,
      "lat": 37.55862347410536,
      "lng": 126.90076556893162,
      "area_m2": 3258,
      "units": 0,
      "contractor": "",
      "stage_date": "",
      "notes": "",
      "subway": "",
      "hangang": false,
      "completion_est": "",
      "ref_note": ""
    },
    {
      "id": "api_2093",
      "name": "마포로1 도시정비형 재개발구역",
      "region": "서울",
      "district": "마포구",
      "dong": "",
      "type": "재개발",
      "stage": "의제처리구역",
      "stage_idx": 0,
      "lat": 37.55511778052876,
      "lng": 126.91710332237496,
      "area_m2": 249777,
      "units": 0,
      "contractor": "",
      "stage_date": "",
      "notes": "",
      "subway": "",
      "hangang": false,
      "completion_est": "",
      "ref_note": ""
    },
    {
      "id": "api_2094",
      "name": "마포로1 도시정비형 재개발구역 제28.29지구",
      "region": "서울",
      "district": "마포구",
      "dong": "",
      "type": "재개발",
      "stage": "의제처리구역",
      "stage_idx": 0,
      "lat": 37.563539588505016,
      "lng": 126.9154319899501,
      "area_m2": 3749,
      "units": 0,
      "contractor": "",
      "stage_date": "",
      "notes": "",
      "subway": "",
      "hangang": false,
      "completion_est": "",
      "ref_note": ""
    },
    {
      "id": "api_2096",
      "name": "을지로3가 도시정비형 재개발구역 제12지구",
      "region": "서울",
      "district": "중구",
      "dong": "",
      "type": "재개발",
      "stage": "의제처리구역",
      "stage_idx": 0,
      "lat": 37.55851700118886,
      "lng": 126.99098119722215,
      "area_m2": 3924,
      "units": 0,
      "contractor": "",
      "stage_date": "",
      "notes": "",
      "subway": "",
      "hangang": false,
      "completion_est": "",
      "ref_note": ""
    },
    {
      "id": "api_2098",
      "name": "상계주공5단지 재건축정비구역",
      "region": "서울",
      "district": "노원구",
      "dong": "",
      "type": "재개발",
      "stage": "의제처리구역",
      "stage_idx": 0,
      "lat": 37.65999063137904,
      "lng": 127.04881471556587,
      "area_m2": 0,
      "units": 0,
      "contractor": "",
      "stage_date": "",
      "notes": "",
      "subway": "",
      "hangang": false,
      "completion_est": "",
      "ref_note": ""
    },
    {
      "id": "api_2101",
      "name": "고덕주공3단지아파트 주택재건축 정비구역",
      "region": "서울",
      "district": "강동구",
      "dong": "",
      "type": "재개발",
      "stage": "의제처리구역",
      "stage_idx": 0,
      "lat": 37.523392980030955,
      "lng": 127.13187648375462,
      "area_m2": 211408,
      "units": 0,
      "contractor": "",
      "stage_date": "",
      "notes": "",
      "subway": "",
      "hangang": false,
      "completion_est": "",
      "ref_note": ""
    },
    {
      "id": "api_2102",
      "name": "마포로1구역 제12.13지구 도시정비형 재개발사업",
      "region": "서울",
      "district": "마포구",
      "dong": "",
      "type": "재개발",
      "stage": "의제처리구역",
      "stage_idx": 0,
      "lat": 37.57186533847915,
      "lng": 126.90575608436663,
      "area_m2": 2568,
      "units": 0,
      "contractor": "",
      "stage_date": "",
      "notes": "",
      "subway": "",
      "hangang": false,
      "completion_est": "",
      "ref_note": ""
    },
    {
      "id": "api_2103",
      "name": "면목1 역세권 장기전세주택 도시환경정비사업",
      "region": "서울",
      "district": "중랑구",
      "dong": "",
      "type": "재개발",
      "stage": "의제처리구역",
      "stage_idx": 0,
      "lat": 37.596393743182624,
      "lng": 127.09792972837491,
      "area_m2": 3858,
      "units": 0,
      "contractor": "",
      "stage_date": "",
      "notes": "",
      "subway": "",
      "hangang": false,
      "completion_est": "",
      "ref_note": ""
    },
    {
      "id": "api_2104",
      "name": "송파미성아파트 재건축정비구역",
      "region": "서울",
      "district": "송파구",
      "dong": "",
      "type": "재개발",
      "stage": "의제처리구역",
      "stage_idx": 0,
      "lat": 37.506757303297725,
      "lng": 127.10051523438011,
      "area_m2": 0,
      "units": 0,
      "contractor": "",
      "stage_date": "",
      "notes": "",
      "subway": "",
      "hangang": false,
      "completion_est": "",
      "ref_note": ""
    },
    {
      "id": "api_2105",
      "name": "사당2 주택재건축 정비사업",
      "region": "서울",
      "district": "동작구",
      "dong": "",
      "type": "재개발",
      "stage": "의제처리구역",
      "stage_idx": 0,
      "lat": 37.51702945607223,
      "lng": 126.94531120781747,
      "area_m2": 49449,
      "units": 0,
      "contractor": "",
      "stage_date": "",
      "notes": "",
      "subway": "",
      "hangang": false,
      "completion_est": "",
      "ref_note": ""
    },
    {
      "id": "api_2106",
      "name": "신길8재정비촉진구역",
      "region": "서울",
      "district": "영등포구",
      "dong": "",
      "type": "재개발",
      "stage": "의제처리구역",
      "stage_idx": 0,
      "lat": 37.52210018805312,
      "lng": 126.8974090688026,
      "area_m2": 32287,
      "units": 0,
      "contractor": "",
      "stage_date": "",
      "notes": "",
      "subway": "",
      "hangang": false,
      "completion_est": "",
      "ref_note": ""
    },
    {
      "id": "api_2107",
      "name": "가락1차현대아파트 재건축정비사업",
      "region": "서울",
      "district": "송파구",
      "dong": "",
      "type": "재개발",
      "stage": "의제처리구역",
      "stage_idx": 0,
      "lat": 37.51175308326102,
      "lng": 127.11183113688195,
      "area_m2": 33953,
      "units": 0,
      "contractor": "",
      "stage_date": "",
      "notes": "",
      "subway": "",
      "hangang": false,
      "completion_est": "",
      "ref_note": ""
    },
    {
      "id": "api_2108",
      "name": "강북2재정비촉진구역",
      "region": "서울",
      "district": "강북구",
      "dong": "",
      "type": "재개발",
      "stage": "의제처리구역",
      "stage_idx": 0,
      "lat": 37.645996890346545,
      "lng": 127.02301062009707,
      "area_m2": 18958,
      "units": 0,
      "contractor": "",
      "stage_date": "",
      "notes": "",
      "subway": "",
      "hangang": false,
      "completion_est": "",
      "ref_note": ""
    },
    {
      "id": "api_2226",
      "name": "응암제1구역 주택재개발정비사업",
      "region": "서울",
      "district": "은평구",
      "dong": "",
      "type": "재개발",
      "stage": "의제처리구역",
      "stage_idx": 0,
      "lat": 37.60879998332169,
      "lng": 126.93820438144024,
      "area_m2": 43938,
      "units": 0,
      "contractor": "",
      "stage_date": "",
      "notes": "",
      "subway": "",
      "hangang": false,
      "completion_est": "",
      "ref_note": ""
    },
    {
      "id": "api_2227",
      "name": "사당3 재건축 정비사업",
      "region": "서울",
      "district": "동작구",
      "dong": "",
      "type": "재개발",
      "stage": "의제처리구역",
      "stage_idx": 0,
      "lat": 37.50669248345218,
      "lng": 126.93118809836582,
      "area_m2": 30107,
      "units": 0,
      "contractor": "",
      "stage_date": "",
      "notes": "",
      "subway": "",
      "hangang": false,
      "completion_est": "",
      "ref_note": ""
    },
    {
      "id": "api_2228",
      "name": "마포로1구역 제28.29지구 도시정비형 재개발구역",
      "region": "서울",
      "district": "마포구",
      "dong": "",
      "type": "재개발",
      "stage": "의제처리구역",
      "stage_idx": 0,
      "lat": 37.564478102136206,
      "lng": 126.90086388823704,
      "area_m2": 3678,
      "units": 0,
      "contractor": "",
      "stage_date": "",
      "notes": "",
      "subway": "",
      "hangang": false,
      "completion_est": "",
      "ref_note": ""
    },
    {
      "id": "api_2229",
      "name": "을지로3가 도시정비형 재개발구역 제9지구",
      "region": "서울",
      "district": "중구",
      "dong": "",
      "type": "재개발",
      "stage": "의제처리구역",
      "stage_idx": 0,
      "lat": 37.563514863407974,
      "lng": 126.99980505977817,
      "area_m2": 1945,
      "units": 0,
      "contractor": "",
      "stage_date": "",
      "notes": "",
      "subway": "",
      "hangang": false,
      "completion_est": "",
      "ref_note": ""
    },
    {
      "id": "api_2231",
      "name": "신동아1.2차아파트 주택재건축 정비사업",
      "region": "서울",
      "district": "강동구",
      "dong": "",
      "type": "재개발",
      "stage": "의제처리구역",
      "stage_idx": 0,
      "lat": 37.53002312273411,
      "lng": 127.12755742821999,
      "area_m2": 46267,
      "units": 0,
      "contractor": "",
      "stage_date": "",
      "notes": "",
      "subway": "",
      "hangang": false,
      "completion_est": "",
      "ref_note": ""
    },
    {
      "id": "api_2234",
      "name": "영등포 도심 역세권 도시정비형 재개발구역",
      "region": "서울",
      "district": "영등포구",
      "dong": "",
      "type": "재개발",
      "stage": "의제처리구역",
      "stage_idx": 0,
      "lat": 37.52866605945188,
      "lng": 126.89246905194186,
      "area_m2": 0,
      "units": 0,
      "contractor": "",
      "stage_date": "",
      "notes": "",
      "subway": "",
      "hangang": false,
      "completion_est": "",
      "ref_note": ""
    },
    {
      "id": "api_2235",
      "name": "홍은제6주택 재건축정비구역",
      "region": "서울",
      "district": "서대문구",
      "dong": "",
      "type": "재개발",
      "stage": "의제처리구역",
      "stage_idx": 0,
      "lat": 37.580025537127604,
      "lng": 126.93114070101014,
      "area_m2": 13078,
      "units": 0,
      "contractor": "",
      "stage_date": "",
      "notes": "",
      "subway": "",
      "hangang": false,
      "completion_est": "",
      "ref_note": ""
    },