{
  "updated_at": "2026-07-09",
  "source": "seoul_open_api",
  "note": "수도권 실데이터 — 서울 760개·경기 0개 구역 (2026-07-09 갱신)",
  "projects": [
    {
      "region": "서울",
      "id": "api_24",
      "name": "전농7재정비촉진구역 ",
      "district": "동대문구",
      "dong": "",
      "type": "재개발",
      "stage": "의제처리구역",
      "stage_idx": 0,
      "lat": 37.57295603632613,
      "lng": 127.0448819090619,
      "area_m2": 151792,
      "units": 0,
      "contractor": "",
      "stage_date": "",
      "notes": "",
      "subway": "",
      "hangang": false,
      "completion_est": "",
      "ref_note": ""
    },
    {
      "region": "서울",
      "id": "api_25",
      "name": "공덕 제6주택재개발정비사업",
      "district": "마포구",
      "dong": "",
      "type": "재개발",
      "stage": "의제처리구역",
      "stage_idx": 0,
      "lat": 37.56791241321871,
      "lng": 126.91533432741997,
      "area_m2": 11326,
      "units": 0,
      "contractor": "",
      "stage_date": "",
      "notes": "",
      "subway": "",
      "hangang": false,
      "completion_est": "",
      "ref_note": ""
    },
    {
      "region": "서울",
      "id": "api_26",
      "name": "사당3재건축정비사업",
      "district": "동작구",
      "dong": "",
      "type": "재개발",
      "stage": "의제처리구역",
      "stage_idx": 0,
      "lat": 37.5194563071292,
      "lng": 126.93966478885254,
      "area_m2": 30221,
      "units": 0,
      "contractor": "",
      "stage_date": "",
      "notes": "",
      "subway": "",
      "hangang": false,
      "completion_est": "",
      "ref_note": ""
    },
    {
      "region": "서울",
      "id": "api_27",
      "name": "긴등마을 재정비촉진구역",
      "district": "강서구",
      "dong": "",
      "type": "재개발",
      "stage": "의제처리구역",
      "stage_idx": 0,
      "lat": 37.54430746759357,
      "lng": 126.85440157619365,
      "area_m2": 31668,
      "units": 0,
      "contractor": "",
      "stage_date": "",
      "notes": "",
      "subway": "",
      "hangang": false,
      "completion_est": "",
      "ref_note": ""
    },
    {
      "region": "서울",
      "id": "api_29",
      "name": "신용산역 북측 제1구역 도시정비형 재개발구역",
      "district": "용산구",
      "dong": "",
      "type": "재개발",
      "stage": "의제처리구역",
      "stage_idx": 0,
      "lat": 37.53864594196094,
      "lng": 126.98626214033717,
      "area_m2": 14057,
      "units": 0,
      "contractor": "",
      "stage_date": "",
      "notes": "",
      "subway": "",
      "hangang": false,
      "completion_est": "",
      "ref_note": ""
    },
    {
      "region": "서울",
      "id": "api_30",
      "name": "신설 제1 주택정비형 공공재개발사업 ",
      "district": "동대문구",
      "dong": "",
      "type": "재개발",
      "stage": "의제처리구역",
      "stage_idx": 0,
      "lat": 37.576087835851325,
      "lng": 127.04450553489674,
      "area_m2": 11204,
      "units": 0,
      "contractor": "",
      "stage_date": "",
      "notes": "",
      "subway": "",
      "hangang": false,
      "completion_est": "",
      "ref_note": ""
    },
    {
      "region": "서울",
      "id": "api_31",
      "name": "양동구역 제11.12지구",
      "district": "중구",
      "dong": "",
      "type": "재개발",
      "stage": "의제처리구역",
      "stage_idx": 0,
      "lat": 37.568199073118585,
      "lng": 126.99537572461719,
      "area_m2": 3565,
      "units": 0,
      "contractor": "",
      "stage_date": "",
      "notes": "",
      "subway": "",
      "hangang": false,
      "completion_est": "",
      "ref_note": ""
    },
    {
      "region": "서울",
      "id": "api_32",
      "name": "신당 제8구역 주택재개발정비사업",
      "district": "중구",
      "dong": "",
      "type": "재개발",
      "stage": "의제처리구역",
      "stage_idx": 0,
      "lat": 37.56167944951545,
      "lng": 127.00200636792177,
      "area_m2": 58439,
      "units": 0,
      "contractor": "",
      "stage_date": "",
      "notes": "",
      "subway": "",
      "hangang": false,
      "completion_est": "",
      "ref_note": ""
    },
    {
      "region": "서울",
      "id": "api_33",
      "name": "장위6구역 ",
      "district": "성북구",
      "dong": "",
      "type": "재개발",
      "stage": "의제처리구역",
      "stage_idx": 0,
      "lat": 37.58468970381473,
      "lng": 127.00941011551413,
      "area_m2": 105163,
      "units": 0,
      "contractor": "",
      "stage_date": "",
      "notes": "",
      "subway": "",
      "hangang": false,
      "completion_est": "",
      "ref_note": ""
    },
    {
      "region": "서울",
      "id": "api_34",
      "name": "한남4 재정비촉진구역 ",
      "district": "용산구",
      "dong": "",
      "type": "재개발",
      "stage": "의제처리구역",
      "stage_idx": 0,
      "lat": 37.52545071072271,
      "lng": 126.9782555864859,
      "area_m2": 162163,
      "units": 0,
      "contractor": "",
      "stage_date": "",
      "notes": "",
      "subway": "",
      "hangang": false,
      "completion_est": "",
      "ref_note": ""
    },
    {
      "region": "서울",
      "id": "api_35",
      "name": "마포로5 도시정비형 재개발구역",
      "district": "중구",
      "dong": "",
      "type": "재개발",
      "stage": "의제처리구역",
      "stage_idx": 0,
      "lat": 37.569376249770016,
      "lng": 126.99610020156415,
      "area_m2": 61730,
      "units": 0,
      "contractor": "",
      "stage_date": "",
      "notes": "",
      "subway": "",
      "hangang": false,
      "completion_est": "",
      "ref_note": ""
    },
    {
      "region": "서울",
      "id": "api_36",
      "name": "마포로5 도시정비형 재개발구역 제9-1지구",
      "district": "중구",
      "dong": "",
      "type": "재개발",
      "stage": "의제처리구역",
      "stage_idx": 0,
      "lat": 37.56220927820114,
      "lng": 126.9990219275128,
      "area_m2": 1938,
      "units": 0,
      "contractor": "",
      "stage_date": "",
      "notes": "",
      "subway": "",
      "hangang": false,
      "completion_est": "",
      "ref_note": ""
    },
    {
      "region": "서울",
      "id": "api_37",
      "name": "금호 제14-1 주택재개발 정비사업",
      "district": "성동구",
      "dong": "",
      "type": "재개발",
      "stage": "의제처리구역",
      "stage_idx": 0,
      "lat": 37.56594475952213,
      "lng": 127.0280276242565,
      "area_m2": 5127,
      "units": 0,
      "contractor": "",
      "stage_date": "",
      "notes": "",
      "subway": "",
      "hangang": false,
      "completion_est": "",
      "ref_note": ""
    },
    {
      "region": "서울",
      "id": "api_38",
      "name": "은마아파트 재건축 정비구역 ",
      "district": "강남구",
      "dong": "",
      "type": "재개발",
      "stage": "의제처리구역",
      "stage_idx": 0,
      "lat": 37.52331393752794,
      "lng": 127.03793082654114,
      "area_m2": 0,
      "units": 0,
      "contractor": "",
      "stage_date": "",
      "notes": "",
      "subway": "",
      "hangang": false,
      "completion_est": "",
      "ref_note": ""
    },
    {
      "region": "서울",
      "id": "api_39",
      "name": "양평제12 도시환경정비구역",
      "district": "영등포구",
      "dong": "",
      "type": "재개발",
      "stage": "의제처리구역",
      "stage_idx": 0,
      "lat": 37.53169970865439,
      "lng": 126.89489397354623,
      "area_m2": 37561,
      "units": 0,
      "contractor": "",
      "stage_date": "",
      "notes": "",
      "subway": "",
      "hangang": false,
      "completion_est": "",
      "ref_note": ""
    },
    {
      "region": "서울",
      "id": "api_42",
      "name": "면목4 주택재건축정비구역",
      "district": "중랑구",
      "dong": "",
      "type": "재개발",
      "stage": "의제처리구역",
      "stage_idx": 0,
      "lat": 37.60561440080945,
      "lng": 127.08510879816573,
      "area_m2": 14918,
      "units": 0,
      "contractor": "",
      "stage_date": "",
      "notes": "",
      "subway": "",
      "hangang": false,
      "completion_est": "",
      "ref_note": ""
    },
    {
      "region": "서울",
      "id": "api_43",
      "name": "개포주공4단지 주택재건축정비사업",
      "district": "강남구",
      "dong": "",
      "type": "재개발",
      "stage": "의제처리구역",
      "stage_idx": 0,
      "lat": 37.515578756099295,
      "lng": 127.04158450648087,
      "area_m2": 179794,
      "units": 0,
      "contractor": "",
      "stage_date": "",
      "notes": "",
      "subway": "",
      "hangang": false,
      "completion_est": "",
      "ref_note": ""
    },
    {
      "region": "서울",
      "id": "api_44",
      "name": "잠실우성4차아파트 주택재건축 정비구역",
      "district": "송파구",
      "dong": "",
      "type": "재개발",
      "stage": "의제처리구역",
      "stage_idx": 0,
      "lat": 37.508941679466496,
      "lng": 127.11029074924444,
      "area_m2": 31961,
      "units": 0,
      "contractor": "",
      "stage_date": "",
      "notes": "",
      "subway": "",
      "hangang": false,
      "completion_est": "",
      "ref_note": ""
    },
    {
      "region": "서울",
      "id": "api_45",
      "name": "홍은제1 주택재건축 정비사업",
      "district": "서대문구",
      "dong": "",
      "type": "재개발",
      "stage": "의제처리구역",
      "stage_idx": 0,
      "lat": 37.57136570998838,
      "lng": 126.94125381189265,
      "area_m2": 19070,
      "units": 0,
      "contractor": "",
      "stage_date": "",
      "notes": "",
      "subway": "",
      "hangang": false,
      "completion_est": "",
      "ref_note": ""
    },
    {
      "region": "서울",
      "id": "api_47",
      "name": "홍은 제2주택재건축 정비구역",
      "district": "서대문구",
      "dong": "",
      "type": "재개발",
      "stage": "의제처리구역",
      "stage_idx": 0,
      "lat": 37.57391449284709,
      "lng": 126.93274863602419,
      "area_m2": 33199,
      "units": 0,
      "contractor": "",
      "stage_date": "",
      "notes": "",
      "subway": "",
      "hangang": false,
      "completion_est": "",
      "ref_note": ""
    },
    {
      "region": "서울",
      "id": "api_48",
      "name": "용두제6구역 주택재개발정비사업",
      "district": "동대문구",
      "dong": "",
      "type": "재개발",
      "stage": "의제처리구역",
      "stage_idx": 0,
      "lat": 37.5662390450623,
      "lng": 127.03345625917272,
      "area_m2": 53370,
      "units": 0,
      "contractor": "",
      "stage_date": "",
      "notes": "",
      "subway": "",
      "hangang": false,
      "completion_est": "",
      "ref_note": ""
    },
    {
      "region": "서울",
      "id": "api_49",
      "name": "중화동 우성타운 재건축정비구역 ",
      "district": "중랑구",
      "dong": "",
      "type": "재개발",
      "stage": "의제처리구역",
      "stage_idx": 0,
      "lat": 37.608267663143806,
      "lng": 127.09600804401032,
      "area_m2": 0,
      "units": 0,
      "contractor": "",
      "stage_date": "",
      "notes": "",
      "subway": "",
      "hangang": false,
      "completion_est": "",
      "ref_note": ""
    },
    {
      "region": "서울",
      "id": "api_50",
      "name": "사당3 재건축정비사업",
      "district": "동작구",
      "dong": "",
      "type": "재개발",
      "stage": "의제처리구역",
      "stage_idx": 0,
      "lat": 37.52036566927701,
      "lng": 126.94226278451688,
      "area_m2": 30061,
      "units": 0,
      "contractor": "",
      "stage_date": "",
      "notes": "",
      "subway": "",
      "hangang": false,
      "completion_est": "",
      "ref_note": ""
    },
    {
      "region": "서울",
      "id": "api_51",
      "name": "증산2재정비촉진구역",
      "district": "은평구",
      "dong": "",
      "type": "재개발",
      "stage": "의제처리구역",
      "stage_idx": 0,
      "lat": 37.60639715428234,
      "lng": 126.923227905682,
      "area_m2": 78755,
      "units": 0,
      "contractor": "",
      "stage_date": "",
      "notes": "",
      "subway": "",
      "hangang": false,
      "completion_est": "",
      "ref_note": ""
    },
    {
      "region": "서울",
      "id": "api_52",
      "name": "수색7재정비촉진구역 ",
      "district": "은평구",
      "dong": "",
      "type": "재개발",
      "stage": "의제처리구역",
      "stage_idx": 0,
      "lat": 37.61031191216056,
      "lng": 126.92430078559354,
      "area_m2": 31402,
      "units": 0,
      "contractor": "",
      "stage_date": "",
      "notes": "",
      "subway": "",
      "hangang": false,
      "completion_est": "",
      "ref_note": ""
    },
    {
      "region": "서울",
      "id": "api_53",
      "name": "수색13 주택재개발사업 ",
      "district": "은평구",
      "dong": "",
      "type": "재개발",
      "stage": "의제처리구역",
      "stage_idx": 0,
      "lat": 37.60755944290759,
      "lng": 126.9337680170872,
      "area_m2": 69681,
      "units": 0,
      "contractor": "",
      "stage_date": "",
      "notes": "",
      "subway": "",
      "hangang": false,
      "completion_est": "",
      "ref_note": ""
    },
    {
      "region": "서울",
      "id": "api_54",
      "name": "역삼동 758번지일대 주택재건축정비사업",
      "district": "강남구",
      "dong": "",
      "type": "재개발",
      "stage": "의제처리구역",
      "stage_idx": 0,
      "lat": 37.51845515837848,
      "lng": 127.03887689154149,
      "area_m2": 12263,
      "units": 0,
      "contractor": "",
      "stage_date": "",
      "notes": "",
      "subway": "",
      "hangang": false,
      "completion_est": "",
      "ref_note": ""
    },
    {
      "region": "서울",
      "id": "api_55",
      "name": "수색9 재정비촉진구역 주택재개발사업 ",
      "district": "은평구",
      "dong": "",
      "type": "재개발",
      "stage": "의제처리구역",
      "stage_idx": 0,
      "lat": 37.609354644683464,
      "lng": 126.92451235572767,
      "area_m2": 36348,
      "units": 0,
      "contractor": "",
      "stage_date": "",
      "notes": "",
      "subway": "",
      "hangang": false,
      "completion_est": "",
      "ref_note": ""
    },
    {
      "region": "서울",
      "id": "api_56",
      "name": "제기1주거환경개선지구",
      "district": "동대문구",
      "dong": "",
      "type": "재개발",
      "stage": "의제처리구역",
      "stage_idx": 0,
      "lat": 37.56579495494688,
      "lng": 127.03912856558959,
      "area_m2": 9945,
      "units": 0,
      "contractor": "",
      "stage_date": "",
      "notes": "",
      "subway": "",
      "hangang": false,
      "completion_est": "",
      "ref_note": ""
    },
    {
      "region": "서울",
      "id": "api_60",
      "name": "1-1구역",
      "district": "용산구",
      "dong": "",
      "type": "재개발",
      "stage": "의제처리구역",
      "stage_idx": 0,
      "lat": 37.533324461893976,
      "lng": 126.98035855285983,
      "area_m2": 2749,
      "units": 0,
      "contractor": "",
      "stage_date": "",
      "notes": "",
      "subway": "",
      "hangang": false,
      "completion_est": "",
      "ref_note": ""
    },
    {
      "region": "서울",
      "id": "api_61",
      "name": "1-2구역",
      "district": "용산구",
      "dong": "",
      "type": "재개발",
      "stage": "의제처리구역",
      "stage_idx": 0,
      "lat": 37.526368700839754,
      "lng": 126.96881452878746,
      "area_m2": 8527,
      "units": 0,
      "contractor": "",
      "stage_date": "",
      "notes": "",
      "subway": "",
      "hangang": false,
      "completion_est": "",
      "ref_note": ""
    },
    {
      "region": "서울",
      "id": "api_62",
      "name": "2구역",
      "district": "용산구",
      "dong": "",
      "type": "재개발",
      "stage": "의제처리구역",
      "stage_idx": 0,
      "lat": 37.53391166047451,
      "lng": 126.98511503689133,
      "area_m2": 8705,
      "units": 0,
      "contractor": "",
      "stage_date": "",
      "notes": "",
      "subway": "",
      "hangang": false,
      "completion_est": "",
      "ref_note": ""
    },
    {
      "region": "서울",
      "id": "api_64",
      "name": "강북3 재정비촉진구역",
      "district": "강북구",
      "dong": "",
      "type": "재개발",
      "stage": "의제처리구역",
      "stage_idx": 0,
      "lat": 37.64758913961811,
      "lng": 127.02460010340842,
      "area_m2": 0,
      "units": 0,
      "contractor": "",
      "stage_date": "",
      "notes": "",
      "subway": "",
      "hangang": false,
      "completion_est": "",
      "ref_note": ""
    },
    {
      "region": "서울",
      "id": "api_65",
      "name": "가락프라자아파트 주택재건축사업",
      "district": "송파구",
      "dong": "",
      "type": "재개발",
      "stage": "의제처리구역",
      "stage_idx": 0,
      "lat": 37.513202697736915,
      "lng": 127.10212254214979,
      "area_m2": 45808,
      "units": 0,
      "contractor": "",
      "stage_date": "",
      "notes": "",
      "subway": "",
      "hangang": false,
      "completion_est": "",
      "ref_note": ""
    },
    {
      "region": "서울",
      "id": "api_66",
      "name": "길음5재정비촉진구역(주택정비형재개발사업)",
      "district": "성북구",
      "dong": "",
      "type": "재개발",
      "stage": "의제처리구역",
      "stage_idx": 0,
      "lat": 37.59782619369825,
      "lng": 127.01300456675595,
      "area_m2": 35388,
      "units": 0,
      "contractor": "",
      "stage_date": "",
      "notes": "",
      "subway": "",
      "hangang": false,
      "completion_est": "",
      "ref_note": ""
    },
    {
      "region": "서울",
      "id": "api_67",
      "name": "홍은 제2주택재건축 정비구역",
      "district": "서대문구",
      "dong": "",
      "type": "재개발",
      "stage": "의제처리구역",
      "stage_idx": 0,
      "lat": 37.57528413449052,
      "lng": 126.93138958901399,
      "area_m2": 34387,
      "units": 0,
      "contractor": "",
      "stage_date": "",
      "notes": "",
      "subway": "",
      "hangang": false,
      "completion_est": "",
      "ref_note": ""
    },
    {
      "region": "서울",
      "id": "api_69",
      "name": "고척동 한효아파트 재건축정비구역 ",
      "district": "구로구",
      "dong": "",
      "type": "재개발",
      "stage": "의제처리구역",
      "stage_idx": 0,
      "lat": 37.50117904163538,
      "lng": 126.8816743248301,
      "area_m2": 0,
      "units": 0,
      "contractor": "",
      "stage_date": "",
      "notes": "",
      "subway": "",
      "hangang": false,
      "completion_est": "",
      "ref_note": ""
    },
    {
      "region": "서울",
      "id": "api_71",
      "name": "3구역",
      "district": "용산구",
      "dong": "",
      "type": "재개발",
      "stage": "의제처리구역",
      "stage_idx": 0,
      "lat": 37.52678232469223,
      "lng": 126.97684673933375,
      "area_m2": 11961,
      "units": 0,
      "contractor": "",
      "stage_date": "",
      "notes": "",
      "subway": "",
      "hangang": false,
      "completion_est": "",
      "ref_note": ""
    },
    {
      "region": "서울",
      "id": "api_72",
      "name": "노량진5재정비촉진구역",
      "district": "동작구",
      "dong": "",
      "type": "재개발",
      "stage": "의제처리구역",
      "stage_idx": 0,
      "lat": 37.51646537438092,
      "lng": 126.93737660748803,
      "area_m2": 38017,
      "units": 0,
      "contractor": "",
      "stage_date": "",
      "notes": "",
      "subway": "",
      "hangang": false,
      "completion_est": "",
      "ref_note": ""
    },
    {
      "region": "서울",
      "id": "api_73",
      "name": "노량진8재정비촉진구역",
      "district": "동작구",
      "dong": "",
      "type": "재개발",
      "stage": "의제처리구역",
      "stage_idx": 0,
      "lat": 37.512653365788026,
      "lng": 126.92949886947079,
      "area_m2": 55742,
      "units": 0,
      "contractor": "",
      "stage_date": "",
      "notes": "",
      "subway": "",
      "hangang": false,
      "completion_est": "",
      "ref_note": ""
    },
    {
      "region": "서울",
      "id": "api_75",
      "name": "문래동2가A 도시정비형  재개발구역 4지구",
      "district": "영등포구",
      "dong": "",
      "type": "재개발",
      "stage": "의제처리구역",
      "stage_idx": 0,
      "lat": 37.52387359230249,
      "lng": 126.89085720295685,
      "area_m2": 3214,
      "units": 0,
      "contractor": "",
      "stage_date": "",
      "notes": "",
      "subway": "",
      "hangang": false,
      "completion_est": "",
      "ref_note": ""
    },
    {
      "region": "서울",
      "id": "api_78",
      "name": "마포로3구역",
      "district": "마포구",
      "dong": "",
      "type": "재개발",
      "stage": "의제처리구역",
      "stage_idx": 0,
      "lat": 37.55848365058032,
      "lng": 126.91018377790624,
      "area_m2": 40044,
      "units": 0,
      "contractor": "",
      "stage_date": "",
      "notes": "",
      "subway": "",
      "hangang": false,
      "completion_est": "",
      "ref_note": ""
    },
    {
      "region": "서울",
      "id": "api_79",
      "name": "4-2지구",
      "district": "마포구",
      "dong": "",
      "type": "재개발",
      "stage": "의제처리구역",
      "stage_idx": 0,
      "lat": 37.56203950952624,
      "lng": 126.91535384323346,
      "area_m2": 1192,
      "units": 0,
      "contractor": "",
      "stage_date": "",
      "notes": "",
      "subway": "",
      "hangang": false,
      "completion_est": "",
      "ref_note": ""
    },
    {
      "region": "서울",
      "id": "api_80",
      "name": "흑석9재정비촉진구역",
      "district": "동작구",
      "dong": "",
      "type": "재개발",
      "stage": "의제처리구역",
      "stage_idx": 0,
      "lat": 37.50462394141787,
      "lng": 126.93461690014568,
      "area_m2": 94577,
      "units": 0,
      "contractor": "",
      "stage_date": "",
      "notes": "",
      "subway": "",
      "hangang": false,
      "completion_est": "",
      "ref_note": ""
    },
    {
      "region": "서울",
      "id": "api_81",
      "name": "문래동1가A 도시정비형 재개발구역",
      "district": "영등포구",
      "dong": "",
      "type": "재개발",
      "stage": "의제처리구역",
      "stage_idx": 0,
      "lat": 37.51989791857129,
      "lng": 126.89442778515864,
      "area_m2": 45884,
      "units": 0,
      "contractor": "",
      "stage_date": "",
      "notes": "",
      "subway": "",
      "hangang": false,
      "completion_est": "",
      "ref_note": ""
    },
    {
      "region": "서울",
      "id": "api_82",
      "name": "문래동1가B 도시정비형 재개발구역",
      "district": "영등포구",
      "dong": "",
      "type": "재개발",
      "stage": "의제처리구역",
      "stage_idx": 0,
      "lat": 37.52939994899979,
      "lng": 126.8881946551476,
      "area_m2": 27878,
      "units": 0,
      "contractor": "",
      "stage_date": "",
      "notes": "",
      "subway": "",
      "hangang": false,
      "completion_est": "",
      "ref_note": ""
    },
    {
      "region": "서울",
      "id": "api_83",
      "name": "신촌지역 마포4  도시정비형 재개발구역",
      "district": "마포구",
      "dong": "",
      "type": "재개발",
      "stage": "의제처리구역",
      "stage_idx": 0,
      "lat": 37.56397478047521,
      "lng": 126.90942317140758,
      "area_m2": 50515,
      "units": 0,
      "contractor": "",
      "stage_date": "",
      "notes": "",
      "subway": "",
      "hangang": false,
      "completion_est": "",
      "ref_note": ""
    },
    {
      "region": "서울",
      "id": "api_84",
      "name": "상봉10재정비촉진구역",
      "district": "중랑구",
      "dong": "",
      "type": "재개발",
      "stage": "의제처리구역",
      "stage_idx": 0,
      "lat": 37.60129484352167,
      "lng": 127.08931721262995,
      "area_m2": 0,
      "units": 0,
      "contractor": "",
      "stage_date": "",
      "notes": "",
      "subway": "",
      "hangang": false,
      "completion_est": "",
      "ref_note": ""
    },
    {
      "region": "서울",
      "id": "api_85",
      "name": "무교다동 11지구",
      "district": "중구",
      "dong": "",
      "type": "재개발",
      "stage": "의제처리구역",
      "stage_idx": 0,
      "lat": 37.56159526068146,
      "lng": 127.00338449477499,
      "area_m2": 1370,
      "units": 0,
      "contractor": "",
      "stage_date": "",
      "notes": "",
      "subway": "",
      "hangang": false,
      "completion_est": "",
      "ref_note": ""
    },
    {
      "region": "서울",
      "id": "api_86",
      "name": "무교다동 23-1지구",
      "district": "중구",
      "dong": "",
      "type": "재개발",
      "stage": "의제처리구역",
      "stage_idx": 0,
      "lat": 37.57243469975204,
      "lng": 127.00532862928232,
      "area_m2": 1330,
      "units": 0,
      "contractor": "",
      "stage_date": "",
      "notes": "",
      "subway": "",
      "hangang": false,
      "completion_est": "",
      "ref_note": ""
    },
    {
      "region": "서울",
      "id": "api_87",
      "name": "무교다동 23-9지구 ",
      "district": "중구",
      "dong": "",
      "type": "재개발",
      "stage": "의제처리구역",
      "stage_idx": 0,
      "lat": 37.554107136368025,
      "lng": 127.00358267129121,
      "area_m2": 1330,
      "units": 0,
      "contractor": "",
      "stage_date": "",
      "notes": "",
      "subway": "",
      "hangang": false,
      "completion_est": "",
      "ref_note": ""
    },
    {
      "region": "서울",
      "id": "api_88",
      "name": "무교다동 24-6지구 ",
      "district": "중구",
      "dong": "",
      "type": "재개발",
      "stage": "의제처리구역",
      "stage_idx": 0,
      "lat": 37.570688669093265,
      "lng": 127.00361981867657,
      "area_m2": 1353,
      "units": 0,
      "contractor": "",
      "stage_date": "",
      "notes": "",
      "subway": "",
      "hangang": false,
      "completion_est": "",
      "ref_note": ""
    },
    {
      "region": "서울",
      "id": "api_89",
      "name": "무교다동 24-4지구 ",
      "district": "중구",
      "dong": "",
      "type": "재개발",
      "stage": "의제처리구역",
      "stage_idx": 0,
      "lat": 37.56240690971778,
      "lng": 126.99515422143675,
      "area_m2": 1353,
      "units": 0,
      "contractor": "",
      "stage_date": "",
      "notes": "",
      "subway": "",
      "hangang": false,
      "completion_est": "",
      "ref_note": ""
    },
    {
      "region": "서울",
      "id": "api_90",
      "name": "무교다동구역 제16지구",
      "district": "중구",
      "dong": "",
      "type": "재개발",
      "stage": "의제처리구역",
      "stage_idx": 0,
      "lat": 37.56046232949789,
      "lng": 126.99348208535287,
      "area_m2": 2812,
      "units": 0,
      "contractor": "",
      "stage_date": "",
      "notes": "",
      "subway": "",
      "hangang": false,
      "completion_est": "",
      "ref_note": ""
    },
    {
      "region": "서울",
      "id": "api_92",
      "name": "무교다동 24-2지구 ",
      "district": "중구",
      "dong": "",
      "type": "재개발",
      "stage": "의제처리구역",
      "stage_idx": 0,
      "lat": 37.554932491187785,
      "lng": 126.99597846824359,
      "area_m2": 1353,
      "units": 0,
      "contractor": "",
      "stage_date": "",
      "notes": "",
      "subway": "",
      "hangang": false,
      "completion_est": "",
      "ref_note": ""
    },
    {
      "region": "서울",
      "id": "api_93",
      "name": "무교다동 23-12지구 ",
      "district": "중구",
      "dong": "",
      "type": "재개발",
      "stage": "의제처리구역",
      "stage_idx": 0,
      "lat": 37.559735588521946,
      "lng": 126.9975891363268,
      "area_m2": 1330,
      "units": 0,
      "contractor": "",
      "stage_date": "",
      "notes": "",
      "subway": "",
      "hangang": false,
      "completion_est": "",
      "ref_note": ""
    },
    {
      "region": "서울",
      "id": "api_94",
      "name": "무교다동 22-3지구 ",
      "district": "중구",
      "dong": "",
      "type": "재개발",
      "stage": "의제처리구역",
      "stage_idx": 0,
      "lat": 37.56050745496509,
      "lng": 126.99887423704803,
      "area_m2": 1057,
      "units": 0,
      "contractor": "",
      "stage_date": "",
      "notes": "",
      "subway": "",
      "hangang": false,
      "completion_est": "",
      "ref_note": ""
    },
    {
      "region": "서울",
      "id": "api_95",
      "name": "무교다동 23-8지구 ",
      "district": "중구",
      "dong": "",
      "type": "재개발",
      "stage": "의제처리구역",
      "stage_idx": 0,
      "lat": 37.55923078123184,
      "lng": 127.00488236723007,
      "area_m2": 1330,
      "units": 0,
      "contractor": "",
      "stage_date": "",
      "notes": "",
      "subway": "",
      "hangang": false,
      "completion_est": "",
      "ref_note": ""
    },
    {
      "region": "서울",
      "id": "api_98",
      "name": "신정2재정비촉진구역",
      "district": "양천구",
      "dong": "",
      "type": "재개발",
      "stage": "의제처리구역",
      "stage_idx": 0,
      "lat": 37.52148749803057,
      "lng": 126.86608011640014,
      "area_m2": 105685,
      "units": 0,
      "contractor": "",
      "stage_date": "",
      "notes": "",
      "subway": "",
      "hangang": false,
      "completion_est": "",
      "ref_note": ""
    },
    {
      "region": "서울",
      "id": "api_509",
      "name": "유원제일2차아파트 재건축정비사업",
      "district": "영등포구",
      "dong": "",
      "type": "재개발",
      "stage": "의제처리구역",
      "stage_idx": 0,
      "lat": 37.530890493320456,
      "lng": 126.89011648787898,
      "area_m2": 28654,
      "units": 0,
      "contractor": "",
      "stage_date": "",
      "notes": "",
      "subway": "",
      "hangang": false,
      "completion_est": "",
      "ref_note": ""
    },
    {
      "region": "서울",
      "id": "api_510",
      "name": "마포로1구역 제48지구 도시정비형 재개발사업 ",
      "district": "마포구",
      "dong": "",
      "type": "재개발",
      "stage": "의제처리구역",
      "stage_idx": 0,
      "lat": 37.55780654705489,
      "lng": 126.91245612889259,
      "area_m2": 3802,
      "units": 0,
      "contractor": "",
      "stage_date": "",
      "notes": "",
      "subway": "",
      "hangang": false,
      "completion_est": "",
      "ref_note": ""
    },
    {
      "region": "서울",
      "id": "api_511",
      "name": "흑석4재정비촉진구역",
      "district": "동작구",
      "dong": "",
      "type": "재개발",
      "stage": "의제처리구역",
      "stage_idx": 0,
      "lat": 37.51783803281647,
      "lng": 126.94117070819729,
      "area_m2": 56622,
      "units": 0,
      "contractor": "",
      "stage_date": "",
      "notes": "",
      "subway": "",
      "hangang": false,
      "completion_est": "",
      "ref_note": ""
    },
    {
      "region": "서울",
      "id": "api_512",
      "name": "주택재건축정비구역",
      "district": "강동구",
      "dong": "",
      "type": "재개발",
      "stage": "의제처리구역",
      "stage_idx": 0,
      "lat": 37.52513718384941,
      "lng": 127.13277489569947,
      "area_m2": 12181,
      "units": 0,
      "contractor": "",
      "stage_date": "",
      "notes": "",
      "subway": "",
      "hangang": false,
      "completion_est": "",
      "ref_note": ""
    },
    {
      "region": "서울",
      "id": "api_565",
      "name": "무교다동 8지구",
      "district": "중구",
      "dong": "",
      "type": "재개발",
      "stage": "의제처리구역",
      "stage_idx": 0,
      "lat": 37.5582171252854,
      "lng": 127.00572607827999,
      "area_m2": 1386,
      "units": 0,
      "contractor": "",
      "stage_date": "",
      "notes": "",
      "subway": "",
      "hangang": false,
      "completion_est": "",
      "ref_note": ""
    },
    {
      "region": "서울",
      "id": "api_566",
      "name": "무교다동 23-11지구 ",
      "district": "중구",
      "dong": "",
      "type": "재개발",
      "stage": "의제처리구역",
      "stage_idx": 0,
      "lat": 37.55748894210316,
      "lng": 126.99973790029274,
      "area_m2": 1330,
      "units": 0,
      "contractor": "",
      "stage_date": "",
      "notes": "",
      "subway": "",
      "hangang": false,
      "completion_est": "",
      "ref_note": ""
    },
    {
      "region": "서울",
      "id": "api_567",
      "name": "마포지역 도시환경 정비사업구역",
      "district": "서대문구",
      "dong": "",
      "type": "재개발",
      "stage": "의제처리구역",
      "stage_idx": 0,
      "lat": 37.577871986646024,
      "lng": 126.94583531084888,
      "area_m2": 6244,
      "units": 0,
      "contractor": "",
      "stage_date": "",
      "notes": "",
      "subway": "",
      "hangang": false,
      "completion_est": "",
      "ref_note": ""
    },
    {
      "region": "서울",
      "id": "api_568",
      "name": "신촌지역(마포)1-2지구 도시정비형 재개발구역",
      "district": "마포구",
      "dong": "",
      "type": "재개발",
      "stage": "의제처리구역",
      "stage_idx": 0,
      "lat": 37.56211008187468,
      "lng": 126.90959042912326,
      "area_m2": 1427,
      "units": 0,
      "contractor": "",
      "stage_date": "",
      "notes": "",
      "subway": "",
      "hangang": false,
      "completion_est": "",
      "ref_note": ""
    },
    {
      "region": "서울",
      "id": "api_569",
      "name": "사당3 재건축정비사업",
      "district": "동작구",
      "dong": "",
      "type": "재개발",
      "stage": "의제처리구역",
      "stage_idx": 0,
      "lat": 37.51374395234056,
      "lng": 126.94182566514343,
      "area_m2": 30100,
      "units": 0,
      "contractor": "",
      "stage_date": "",
      "notes": "",
      "subway": "",
      "hangang": false,
      "completion_est": "",
      "ref_note": ""
    },
    {
      "region": "서울",
      "id": "api_570",
      "name": "마포로5구역",
      "district": "서대문구",
      "dong": "",
      "type": "재개발",
      "stage": "의제처리구역",
      "stage_idx": 0,
      "lat": 37.57538461726518,
      "lng": 126.9446381277172,
      "area_m2": 61194,
      "units": 0,
      "contractor": "",
      "stage_date": "",
      "notes": "",
      "subway": "",
      "hangang": false,
      "completion_est": "",
      "ref_note": ""
    },
    {
      "region": "서울",
      "id": "api_571",
      "name": "마포로5-2",
      "district": "서대문구",
      "dong": "",
      "type": "재개발",
      "stage": "의제처리구역",
      "stage_idx": 0,
      "lat": 37.57971040930626,
      "lng": 126.93593326284137,
      "area_m2": 4565,
      "units": 0,
      "contractor": "",
      "stage_date": "",
      "notes": "",
      "subway": "",
      "hangang": false,
      "completion_est": "",
      "ref_note": ""
    },
    {
      "region": "서울",
      "id": "api_572",
      "name": "마포로5-3",
      "district": "서대문구",
      "dong": "",
      "type": "재개발",
      "stage": "의제처리구역",
      "stage_idx": 0,
      "lat": 37.58851868081128,
      "lng": 126.93506333979515,
      "area_m2": 0,
      "units": 0,
      "contractor": "",
      "stage_date": "",
      "notes": "",
      "subway": "",
      "hangang": false,
      "completion_est": "",
      "ref_note": ""
    },
    {
      "region": "서울",
      "id": "api_573",
      "name": "마포로5-3-1",
      "district": "서대문구",
      "dong": "",
      "type": "재개발",
      "stage": "의제처리구역",
      "stage_idx": 0,
      "lat": 37.57413439824944,
      "lng": 126.92845315691169,
      "area_m2": 0,
      "units": 0,
      "contractor": "",
      "stage_date": "",
      "notes": "",
      "subway": "",
      "hangang": false,
      "completion_est": "",
      "ref_note": ""
    },
    {
      "region": "서울",
      "id": "api_574",
      "name": "마포로5-4",
      "district": "서대문구",
      "dong": "",
      "type": "재개발",
      "stage": "의제처리구역",
      "stage_idx": 0,
      "lat": 37.57224775011736,
      "lng": 126.94671318178162,
      "area_m2": 0,
      "units": 0,
      "contractor": "",
      "stage_date": "",
      "notes": "",
      "subway": "",
      "hangang": false,
      "completion_est": "",
      "ref_note": ""
    },
    {
      "region": "서울",
      "id": "api_575",
      "name": "마포로5-8",
      "district": "서대문구",
      "dong": "",
      "type": "재개발",
      "stage": "의제처리구역",
      "stage_idx": 0,
      "lat": 37.58305599710725,
      "lng": 126.93722389581758,
      "area_m2": 0,
      "units": 0,
      "contractor": "",
      "stage_date": "",
      "notes": "",
      "subway": "",
      "hangang": false,
      "completion_est": "",
      "ref_note": ""
    },
    {
      "region": "서울",
      "id": "api_576",
      "name": "효창제6구역 주택재개발정비사업",
      "district": "용산구",
      "dong": "",
      "type": "재개발",
      "stage": "의제처리구역",
      "stage_idx": 0,
      "lat": 37.52847049678697,
      "lng": 126.9840580454244,
      "area_m2": 18397,
      "units": 0,
      "contractor": "",
      "stage_date": "",
      "notes": "",
      "subway": "",
      "hangang": false,
      "completion_est": "",
      "ref_note": ""
    },
    {
      "region": "서울",
      "id": "api_577",
      "name": "연신내구역 도시정비형 재개발사업",
      "district": "은평구",
      "dong": "",
      "type": "재개발",
      "stage": "의제처리구역",
      "stage_idx": 0,
      "lat": 37.595264620270996,
      "lng": 126.93003187431555,
      "area_m2": 8699,
      "units": 0,
      "contractor": "",
      "stage_date": "",
      "notes": "",
      "subway": "",
      "hangang": false,
      "completion_est": "",
      "ref_note": ""
    },
    {
      "region": "서울",
      "id": "api_578",
      "name": "잠실주공5단지아파트 재건축사업 정비구역",
      "district": "송파구",
      "dong": "",
      "type": "재개발",
      "stage": "의제처리구역",
      "stage_idx": 0,
      "lat": 37.51023999137204,
      "lng": 127.1040456176456,
      "area_m2": 353987,
      "units": 0,
      "contractor": "",
      "stage_date": "",
      "notes": "",
      "subway": "",
      "hangang": false,
      "completion_est": "",
      "ref_note": ""
    },
    {
      "region": "서울",
      "id": "api_579",
      "name": "잠실우성4차아파트주택재건축정비구역",
      "district": "송파구",
      "dong": "",
      "type": "재개발",
      "stage": "의제처리구역",
      "stage_idx": 0,
      "lat": 37.512746288976736,
      "lng": 127.1035743492853,
      "area_m2": 31630,
      "units": 0,
      "contractor": "",
      "stage_date": "",
      "notes": "",
      "subway": "",
      "hangang": false,
      "completion_est": "",
      "ref_note": ""
    },
    {
      "region": "서울",
      "id": "api_580",
      "name": "신촌지역(마포) 4-9지구 도시정비형 재개발구역 ",
      "district": "마포구",
      "dong": "",
      "type": "재개발",
      "stage": "의제처리구역",
      "stage_idx": 0,
      "lat": 37.55770018994316,
      "lng": 126.90123015376861,
      "area_m2": 4827,
      "units": 0,
      "contractor": "",
      "stage_date": "",
      "notes": "",
      "subway": "",
      "hangang": false,
      "completion_est": "",
      "ref_note": ""
    },
    {
      "region": "서울",
      "id": "api_581",
      "name": "미장세림아파트 주택재건축사업",
      "district": "성동구",
      "dong": "",
      "type": "재개발",
      "stage": "의제처리구역",
      "stage_idx": 0,
      "lat": 37.569354513297895,
      "lng": 127.02759719024823,
      "area_m2": 0,
      "units": 0,
      "contractor": "",
      "stage_date": "",
      "notes": "",
      "subway": "",
      "hangang": false,
      "completion_est": "",
      "ref_note": ""
    },
    {
      "region": "서울",
      "id": "api_582",
      "name": "청담삼익아파트 재건축사업",
      "district": "강남구",
      "dong": "",
      "type": "재개발",
      "stage": "의제처리구역",
      "stage_idx": 0,
      "lat": 37.50958701068557,
      "lng": 127.04903442248711,
      "area_m2": 0,
      "units": 0,
      "contractor": "",
      "stage_date": "",
      "notes": "",
      "subway": "",
      "hangang": false,
      "completion_est": "",
      "ref_note": ""
    },
    {
      "region": "서울",
      "id": "api_583",
      "name": "합정7재정비촉진구역",
      "district": "마포구",
      "dong": "",
      "type": "재개발",
      "stage": "의제처리구역",
      "stage_idx": 0,
      "lat": 37.563082653317196,
      "lng": 126.90496489318313,
      "area_m2": 0,
      "units": 0,
      "contractor": "",
      "stage_date": "",
      "notes": "",
      "subway": "",
      "hangang": false,
      "completion_est": "",
      "ref_note": ""
    },
    {
      "region": "서울",
      "id": "api_584",
      "name": "강동역 역세권 활성화 도시정비형 재개발 정비구역",
      "district": "강동구",
      "dong": "",
      "type": "재개발",
      "stage": "의제처리구역",
      "stage_idx": 0,
      "lat": 37.534563707390454,
      "lng": 127.1243948885691,
      "area_m2": 0,
      "units": 0,
      "contractor": "",
      "stage_date": "",
      "notes": "",
      "subway": "",
      "hangang": false,
      "completion_est": "",
      "ref_note": ""
    },
    {
      "region": "서울",
      "id": "api_585",
      "name": "여의도 공작아파트 재건축정비사업 ",
      "district": "영등포구",
      "dong": "",
      "type": "재개발",
      "stage": "의제처리구역",
      "stage_idx": 0,
      "lat": 37.531357556389864,
      "lng": 126.90649292312648,
      "area_m2": 0,
      "units": 0,
      "contractor": "",
      "stage_date": "",
      "notes": "",
      "subway": "",
      "hangang": false,
      "completion_est": "",
      "ref_note": ""
    },
    {
      "region": "서울",
      "id": "api_586",
      "name": "제기 제6구역 주택재개발정비구역",
      "district": "동대문구",
      "dong": "",
      "type": "재개발",
      "stage": "의제처리구역",
      "stage_idx": 0,
      "lat": 37.58341791050828,
      "lng": 127.04294237706034,
      "area_m2": 24320,
      "units": 0,
      "contractor": "",
      "stage_date": "",
      "notes": "",
      "subway": "",
      "hangang": false,
      "completion_est": "",
      "ref_note": ""
    },
    {
      "region": "서울",
      "id": "api_590",
      "name": "봉천제12-2 주택재개발정비사업",
      "district": "관악구",
      "dong": "",
      "type": "재개발",
      "stage": "의제처리구역",
      "stage_idx": 0,
      "lat": 37.471960138825985,
      "lng": 126.94877747892345,
      "area_m2": 80917,
      "units": 0,
      "contractor": "",
      "stage_date": "",
      "notes": "",
      "subway": "",
      "hangang": false,
      "completion_est": "",
      "ref_note": ""
    },
    {
      "region": "서울",
      "id": "api_599",
      "name": "공평구역",
      "district": "종로구",
      "dong": "",
      "type": "재개발",
      "stage": "의제처리구역",
      "stage_idx": 0,
      "lat": 37.591993413201415,
      "lng": 126.9856022994133,
      "area_m2": 95028,
      "units": 0,
      "contractor": "",
      "stage_date": "",
      "notes": "",
      "subway": "",
      "hangang": false,
      "completion_est": "",
      "ref_note": ""
    },
    {
      "region": "서울",
      "id": "api_600",
      "name": "공평구역<15.16지구>",
      "district": "종로구",
      "dong": "",
      "type": "재개발",
      "stage": "의제처리구역",
      "stage_idx": 0,
      "lat": 37.58840333230172,
      "lng": 126.98896373571658,
      "area_m2": 12854,
      "units": 0,
      "contractor": "",
      "stage_date": "",
      "notes": "",
      "subway": "",
      "hangang": false,
      "completion_est": "",
      "ref_note": ""
    },
    {
      "region": "서울",
      "id": "api_601",
      "name": "돈의문3재정비촉진구역",
      "district": "종로구",
      "dong": "",
      "type": "재개발",
      "stage": "의제처리구역",
      "stage_idx": 0,
      "lat": 37.594401767714295,
      "lng": 126.97713075595085,
      "area_m2": 8844,
      "units": 0,
      "contractor": "",
      "stage_date": "",
      "notes": "",
      "subway": "",
      "hangang": false,
      "completion_est": "",
      "ref_note": ""
    },
    {
      "region": "서울",
      "id": "api_618",
      "name": "영등포1-3재정비촉진구역",
      "district": "영등포구",
      "dong": "",
      "type": "재개발",
      "stage": "의제처리구역",
      "stage_idx": 0,
      "lat": 37.520972316896774,
      "lng": 126.88862570503623,
      "area_m2": 8407,
      "units": 0,
      "contractor": "",
      "stage_date": "",
      "notes": "",
      "subway": "",
      "hangang": false,
      "completion_est": "",
      "ref_note": ""
    },
    {
      "region": "서울",
      "id": "api_630",
      "name": "삼선제5구역 주택재개발 정비사업",
      "district": "성북구",
      "dong": "",
      "type": "재개발",
      "stage": "의제처리구역",
      "stage_idx": 0,
      "lat": 37.594939400299296,
      "lng": 127.00685638080463,
      "area_m2": 63780,
      "units": 0,
      "contractor": "",
      "stage_date": "",
      "notes": "",
      "subway": "",
      "hangang": false,
      "completion_est": "",
      "ref_note": ""
    },
    {
      "region": "서울",
      "id": "api_631",
      "name": "영천구역 주택재개발정비구역",
      "district": "서대문구",
      "dong": "",
      "type": "재개발",
      "stage": "의제처리구역",
      "stage_idx": 0,
      "lat": 37.574742827864014,
      "lng": 126.92736784216046,
      "area_m2": 11154,
      "units": 0,
      "contractor": "",
      "stage_date": "",
      "notes": "",
      "subway": "",
      "hangang": false,
      "completion_est": "",
      "ref_note": ""
    },
    {
      "region": "서울",
      "id": "api_632",
      "name": "마포로5 도시정비형 재개발구역 9-1지구",
      "district": "중구",
      "dong": "",
      "type": "재개발",
      "stage": "의제처리구역",
      "stage_idx": 0,
      "lat": 37.55855453279371,
      "lng": 127.00131140886691,
      "area_m2": 1936,
      "units": 0,
      "contractor": "",
      "stage_date": "",
      "notes": "",
      "subway": "",
      "hangang": false,
      "completion_est": "",
      "ref_note": ""
    },
    {
      "region": "서울",
      "id": "api_633",
      "name": "수색4재정비촉진구역",
      "district": "은평구",
      "dong": "",
      "type": "재개발",
      "stage": "의제처리구역",
      "stage_idx": 0,
      "lat": 37.608851810217935,
      "lng": 126.92355051255957,
      "area_m2": 61898,
      "units": 0,
      "contractor": "",
      "stage_date": "",
      "notes": "",
      "subway": "",
      "hangang": false,
      "completion_est": "",
      "ref_note": ""
    },
    {
      "region": "서울",
      "id": "api_634",
      "name": "가락상아1차 아파트 재건축 정비사업",
      "district": "송파구",
      "dong": "",
      "type": "재개발",
      "stage": "의제처리구역",
      "stage_idx": 0,
      "lat": 37.50918078809881,
      "lng": 127.1132405668038,
      "area_m2": 13580,
      "units": 0,
      "contractor": "",
      "stage_date": "",
      "notes": "",
      "subway": "",
      "hangang": false,
      "completion_est": "",
      "ref_note": ""
    },
    {
      "region": "서울",
      "id": "api_635",
      "name": "오류동 현대연립 재건축 정비사업",
      "district": "구로구",
      "dong": "",
      "type": "재개발",
      "stage": "의제처리구역",
      "stage_idx": 0,
      "lat": 37.493383039619324,
      "lng": 126.88794642495836,
      "area_m2": 23223,
      "units": 0,
      "contractor": "",
      "stage_date": "",
      "notes": "",
      "subway": "",
      "hangang": false,
      "completion_est": "",
      "ref_note": ""
    },
    {
      "region": "서울",
      "id": "api_639",
      "name": "미아3 재정비촉진구역 ",
      "district": "강북구",
      "dong": "",
      "type": "재개발",
      "stage": "의제처리구역",
      "stage_idx": 0,
      "lat": 37.64463289733468,
      "lng": 127.02998947674196,
      "area_m2": 57558,
      "units": 0,
      "contractor": "",
      "stage_date": "",
      "notes": "",
      "subway": "",
      "hangang": false,
      "completion_est": "",
      "ref_note": ""
    },
    {
      "region": "서울",
      "id": "api_640",
      "name": "미아9-2 주택재건축정비사업",
      "district": "강북구",
      "dong": "",
      "type": "재개발",
      "stage": "의제처리구역",
      "stage_idx": 0,
      "lat": 37.64575660356942,
      "lng": 127.03074021062007,
      "area_m2": 102518,
      "units": 0,
      "contractor": "",
      "stage_date": "",
      "notes": "",
      "subway": "",
      "hangang": false,
      "completion_est": "",
      "ref_note": ""
    },
    {
      "region": "서울",
      "id": "api_641",
      "name": "거여2재정비촉진구역 (주택재개발사업)",
      "district": "송파구",
      "dong": "",
      "type": "재개발",
      "stage": "의제처리구역",
      "stage_idx": 0,
      "lat": 37.52262975856825,
      "lng": 127.10574994012607,
      "area_m2": 160288,
      "units": 0,
      "contractor": "",
      "stage_date": "",
      "notes": "",
      "subway": "",
      "hangang": false,
      "completion_est": "",
      "ref_note": ""
    },
    {
      "region": "서울",
      "id": "api_642",
      "name": "개봉5 주택재건축 정비구역",
      "district": "구로구",
      "dong": "",
      "type": "재개발",
      "stage": "의제처리구역",
      "stage_idx": 0,
      "lat": 37.486507310282235,
      "lng": 126.8877508685927,
      "area_m2": 13099,
      "units": 0,
      "contractor": "",
      "stage_date": "",
      "notes": "",
      "subway": "",
      "hangang": false,
      "completion_est": "",
      "ref_note": ""
    },
    {
      "region": "서울",
      "id": "api_643",
      "name": "대흥제2구역 주택재개발사업",
      "district": "마포구",
      "dong": "",
      "type": "재개발",
      "stage": "의제처리구역",
      "stage_idx": 0,
      "lat": 37.55972034997034,
      "lng": 126.90542494544316,
      "area_m2": 61077,
      "units": 0,
      "contractor": "",
      "stage_date": "",
      "notes": "",
      "subway": "",
      "hangang": false,
      "completion_est": "",
      "ref_note": ""
    },
    {
      "region": "서울",
      "id": "api_644",
      "name": "중앙동 새싹마을 관리형 주거환경개선사업",
      "district": "관악구",
      "dong": "",
      "type": "재개발",
      "stage": "의제처리구역",
      "stage_idx": 0,
      "lat": 37.48062146392754,
      "lng": 126.9548553920394,
      "area_m2": 0,
      "units": 0,
      "contractor": "",
      "stage_date": "",
      "notes": "",
      "subway": "",
      "hangang": false,
      "completion_est": "",
      "ref_note": ""
    },
    {
      "region": "서울",
      "id": "api_645",
      "name": "신수2 주택재건축 정비구역",
      "district": "마포구",
      "dong": "",
      "type": "재개발",
      "stage": "의제처리구역",
      "stage_idx": 0,
      "lat": 37.55822790520761,
      "lng": 126.89946119556814,
      "area_m2": 17264,
      "units": 0,
      "contractor": "",
      "stage_date": "",
      "notes": "",
      "subway": "",
      "hangang": false,
      "completion_est": "",
      "ref_note": ""
    },
    {
      "region": "서울",
      "id": "api_646",
      "name": "영등포1-13재정비촉진구역",
      "district": "영등포구",
      "dong": "",
      "type": "재개발",
      "stage": "의제처리구역",
      "stage_idx": 0,
      "lat": 37.517231756984174,
      "lng": 126.89203401542815,
      "area_m2": 27049,
      "units": 0,
      "contractor": "",
      "stage_date": "",
      "notes": "",
      "subway": "",
      "hangang": false,
      "completion_est": "",
      "ref_note": ""
    },
    {
      "region": "서울",
      "id": "api_647",
      "name": "서울역-서대문 1.2 도시정비형 재개발구역",
      "district": "중구",
      "dong": "",
      "type": "재개발",
      "stage": "의제처리구역",
      "stage_idx": 0,
      "lat": 37.55615958205181,
      "lng": 126.98993124111682,
      "area_m2": 80719,
      "units": 0,
      "contractor": "",
      "stage_date": "",
      "notes": "",
      "subway": "",
      "hangang": false,
      "completion_est": "",
      "ref_note": ""
    },
    {
      "region": "서울",
      "id": "api_648",
      "name": "서울역-서대문 1,2 ",
      "district": "중구",
      "dong": "",
      "type": "재개발",
      "stage": "의제처리구역",
      "stage_idx": 0,
      "lat": 37.55557247330731,
      "lng": 127.00724999939553,
      "area_m2": 22029,
      "units": 0,
      "contractor": "",
      "stage_date": "",
      "notes": "",
      "subway": "",
      "hangang": false,
      "completion_est": "",
      "ref_note": ""
    },
    {
      "region": "서울",
      "id": "api_649",
      "name": "서울역-서대문 1.2",
      "district": "중구",
      "dong": "",
      "type": "재개발",
      "stage": "의제처리구역",
      "stage_idx": 0,
      "lat": 37.56016039681377,
      "lng": 127.00568373563303,
      "area_m2": 1109,
      "units": 0,
      "contractor": "",
      "stage_date": "",
      "notes": "",
      "subway": "",
      "hangang": false,
      "completion_est": "",
      "ref_note": ""
    },
    {
      "region": "서울",
      "id": "api_650",
      "name": "서울역-서대문 1.2",
      "district": "중구",
      "dong": "",
      "type": "재개발",
      "stage": "의제처리구역",
      "stage_idx": 0,
      "lat": 37.571558661657726,
      "lng": 126.9942036857216,
      "area_m2": 1109,
      "units": 0,
      "contractor": "",
      "stage_date": "",
      "notes": "",
      "subway": "",
      "hangang": false,
      "completion_est": "",
      "ref_note": ""
    },
    {
      "region": "서울",
      "id": "api_651",
      "name": "서울역-서대문 1.2",
      "district": "중구",
      "dong": "",
      "type": "재개발",
      "stage": "의제처리구역",
      "stage_idx": 0,
      "lat": 37.55421108054536,
      "lng": 127.0063790271269,
      "area_m2": 1109,
      "units": 0,
      "contractor": "",
      "stage_date": "",
      "notes": "",
      "subway": "",
      "hangang": false,
      "completion_est": "",
      "ref_note": ""
    },
    {
      "region": "서울",
      "id": "api_716",
      "name": "서울역-서대문 1.2",
      "district": "중구",
      "dong": "",
      "type": "재개발",
      "stage": "의제처리구역",
      "stage_idx": 0,
      "lat": 37.56283146893576,
      "lng": 127.00767775453053,
      "area_m2": 6588,
      "units": 0,
      "contractor": "",
      "stage_date": "",
      "notes": "",
      "subway": "",
      "hangang": false,
      "completion_est": "",
      "ref_note": ""
    },
    {
      "region": "서울",
      "id": "api_717",
      "name": "서울역-서대문 1.2구역 제1지구",
      "district": "중구",
      "dong": "",
      "type": "재개발",
      "stage": "의제처리구역",
      "stage_idx": 0,
      "lat": 37.57131568896177,
      "lng": 126.995376507414,
      "area_m2": 16316,
      "units": 0,
      "contractor": "",
      "stage_date": "",
      "notes": "",
      "subway": "",
      "hangang": false,
      "completion_est": "",
      "ref_note": ""
    },
    {
      "region": "서울",
      "id": "api_718",
      "name": "영천구역 주택재개발정비구역",
      "district": "서대문구",
      "dong": "",
      "type": "재개발",
      "stage": "의제처리구역",
      "stage_idx": 0,
      "lat": 37.569456119972635,
      "lng": 126.92686646718997,
      "area_m2": 10948,
      "units": 0,
      "contractor": "",
      "stage_date": "",
      "notes": "",
      "subway": "",
      "hangang": false,
      "completion_est": "",
      "ref_note": ""
    },
    {
      "region": "서울",
      "id": "api_719",
      "name": "을지로2가 1.3.6.18",
      "district": "중구",
      "dong": "",
      "type": "재개발",
      "stage": "의제처리구역",
      "stage_idx": 0,
      "lat": 37.57187567595338,
      "lng": 126.99689033442421,
      "area_m2": 0,
      "units": 0,
      "contractor": "",
      "stage_date": "",
      "notes": "",
      "subway": "",
      "hangang": false,
      "completion_est": "",
      "ref_note": ""
    },
    {
      "region": "서울",
      "id": "api_720",
      "name": "을지로2가 2",
      "district": "중구",
      "dong": "",
      "type": "재개발",
      "stage": "의제처리구역",
      "stage_idx": 0,
      "lat": 37.55917826046629,
      "lng": 127.00356872114885,
      "area_m2": 3473,
      "units": 0,
      "contractor": "",
      "stage_date": "",
      "notes": "",
      "subway": "",
      "hangang": false,
      "completion_est": "",
      "ref_note": ""
    },
    {
      "region": "서울",
      "id": "api_721",
      "name": "을지로2가 18-1",
      "district": "중구",
      "dong": "",
      "type": "재개발",
      "stage": "의제처리구역",
      "stage_idx": 0,
      "lat": 37.55746042555559,
      "lng": 126.98957407265755,
      "area_m2": 1477,
      "units": 0,
      "contractor": "",
      "stage_date": "",
      "notes": "",
      "subway": "",
      "hangang": false,
      "completion_est": "",
      "ref_note": ""
    },
    {
      "region": "서울",
      "id": "api_722",
      "name": "을지로2가 18-2",
      "district": "중구",
      "dong": "",
      "type": "재개발",
      "stage": "의제처리구역",
      "stage_idx": 0,
      "lat": 37.564833870780475,
      "lng": 127.00147666538801,
      "area_m2": 1477,
      "units": 0,
      "contractor": "",
      "stage_date": "",
      "notes": "",
      "subway": "",
      "hangang": false,
      "completion_est": "",
      "ref_note": ""
    },
    {
      "region": "서울",
      "id": "api_857",
      "name": "주택재개발사업",
      "district": "동작구",
      "dong": "",
      "type": "재개발",
      "stage": "의제처리구역",
      "stage_idx": 0,
      "lat": 37.51911671138458,
      "lng": 126.92979277900253,
      "area_m2": 35303,
      "units": 0,
      "contractor": "",
      "stage_date": "",
      "notes": "",
      "subway": "",
      "hangang": false,
      "completion_est": "",
      "ref_note": ""
    },
    {
      "region": "서울",
      "id": "api_864",
      "name": "상아.현대아파트 주택재건축사업",
      "district": "영등포구",
      "dong": "",
      "type": "재개발",
      "stage": "의제처리구역",
      "stage_idx": 0,
      "lat": 37.51868407315915,
      "lng": 126.88906969228705,
      "area_m2": 29428,
      "units": 0,
      "contractor": "",
      "stage_date": "",
      "notes": "",
      "subway": "",
      "hangang": false,
      "completion_est": "",
      "ref_note": ""
    },
    {
      "region": "서울",
      "id": "api_865",
      "name": "남구로역세권 공공임대주택 도시정비형 재개발정비구역",
      "district": "구로구",
      "dong": "",
      "type": "재개발",
      "stage": "의제처리구역",
      "stage_idx": 0,
      "lat": 37.499648279838055,
      "lng": 126.88747389106838,
      "area_m2": 0,
      "units": 0,
      "contractor": "",
      "stage_date": "",
      "notes": "",
      "subway": "",
      "hangang": false,
      "completion_est": "",
      "ref_note": ""
    },
    {
      "region": "서울",
      "id": "api_867",
      "name": "국화아파트 재건축정비구역",
      "district": "영등포구",
      "dong": "",
      "type": "재개발",
      "stage": "의제처리구역",
      "stage_idx": 0,
      "lat": 37.5240746254961,
      "lng": 126.89295776927088,
      "area_m2": 0,
      "units": 0,
      "contractor": "",
      "stage_date": "",
      "notes": "",
      "subway": "",
      "hangang": false,
      "completion_est": "",
      "ref_note": ""
    },
    {
      "region": "서울",
      "id": "api_869",
      "name": "서울역-서대문 1.2",
      "district": "중구",
      "dong": "",
      "type": "재개발",
      "stage": "의제처리구역",
      "stage_idx": 0,
      "lat": 37.570387543529826,
      "lng": 126.9973449018873,
      "area_m2": 1109,
      "units": 0,
      "contractor": "",
      "stage_date": "",
      "notes": "",
      "subway": "",
      "hangang": false,
      "completion_est": "",
      "ref_note": ""
    },
    {
      "region": "서울",
      "id": "api_870",
      "name": "문래동2·3가B 도시정비형 재개발구역 ",
      "district": "영등포구",
      "dong": "",
      "type": "재개발",
      "stage": "의제처리구역",
      "stage_idx": 0,
      "lat": 37.536038069281076,
      "lng": 126.89691560421929,
      "area_m2": 0,
      "units": 0,
      "contractor": "",
      "stage_date": "",
      "notes": "",
      "subway": "",
      "hangang": false,
      "completion_est": "",
      "ref_note": ""
    },
    {
      "region": "서울",
      "id": "api_874",
      "name": "서소문5",
      "district": "중구",
      "dong": "",
      "type": "재개발",
      "stage": "의제처리구역",
      "stage_idx": 0,
      "lat": 37.56146208714412,
      "lng": 127.00463976909786,
      "area_m2": 2917,
      "units": 0,
      "contractor": "",
      "stage_date": "",
      "notes": "",
      "subway": "",
      "hangang": false,
      "completion_est": "",
      "ref_note": ""
    },
    {
      "region": "서울",
      "id": "api_875",
      "name": "서소문6",
      "district": "중구",
      "dong": "",
      "type": "재개발",
      "stage": "의제처리구역",
      "stage_idx": 0,
      "lat": 37.56939393505056,
      "lng": 127.00500306837618,
      "area_m2": 2594,
      "units": 0,
      "contractor": "",
      "stage_date": "",
      "notes": "",
      "subway": "",
      "hangang": false,
      "completion_est": "",
      "ref_note": ""
    },
    {
      "region": "서울",
      "id": "api_876",
      "name": "서소문8-1",
      "district": "중구",
      "dong": "",
      "type": "재개발",
      "stage": "의제처리구역",
      "stage_idx": 0,
      "lat": 37.562003975211226,
      "lng": 127.00281134167757,
      "area_m2": 694,
      "units": 0,
      "contractor": "",
      "stage_date": "",
      "notes": "",
      "subway": "",
      "hangang": false,
      "completion_est": "",
      "ref_note": ""
    },
    {
      "region": "서울",
      "id": "api_877",
      "name": "서소문8-2",
      "district": "중구",
      "dong": "",
      "type": "재개발",
      "stage": "의제처리구역",
      "stage_idx": 0,
      "lat": 37.567873363639855,
      "lng": 127.00273341384039,
      "area_m2": 1208,
      "units": 0,
      "contractor": "",
      "stage_date": "",
      "notes": "",
      "subway": "",
      "hangang": false,
      "completion_est": "",
      "ref_note": ""
    },
    {
      "region": "서울",
      "id": "api_878",
      "name": "서소문9",
      "district": "중구",
      "dong": "",
      "type": "재개발",
      "stage": "의제처리구역",
      "stage_idx": 0,
      "lat": 37.57146772257705,
      "lng": 127.00621343064063,
      "area_m2": 4253,
      "units": 0,
      "contractor": "",
      "stage_date": "",
      "notes": "",
      "subway": "",
      "hangang": false,
      "completion_est": "",
      "ref_note": ""
    },
    {
      "region": "서울",
      "id": "api_895",
      "name": "신길우성2차·우창아파트 재건축 정비사업",
      "district": "영등포구",
      "dong": "",
      "type": "재개발",
      "stage": "의제처리구역",
      "stage_idx": 0,
      "lat": 37.526299229117726,
      "lng": 126.906415324755,
      "area_m2": 0,
      "units": 0,
      "contractor": "",
      "stage_date": "",
      "notes": "",
      "subway": "",
      "hangang": false,
      "completion_est": "",
      "ref_note": ""
    },
    {
      "region": "서울",
      "id": "api_896",
      "name": "제기 도시정비형 재개발구역",
      "district": "동대문구",
      "dong": "",
      "type": "재개발",
      "stage": "의제처리구역",
      "stage_idx": 0,
      "lat": 37.57766424127439,
      "lng": 127.03330314661734,
      "area_m2": 124640,
      "units": 0,
      "contractor": "",
      "stage_date": "",
      "notes": "",
      "subway": "",
      "hangang": false,
      "completion_est": "",
      "ref_note": ""
    },
    {
      "region": "서울",
      "id": "api_898",
      "name": "신정1재정비촉진구역",
      "district": "양천구",
      "dong": "",
      "type": "재개발",
      "stage": "의제처리구역",
      "stage_idx": 0,
      "lat": 37.511426485519515,
      "lng": 126.86111291590798,
      "area_m2": 254260,
      "units": 0,
      "contractor": "",
      "stage_date": "",
      "notes": "",
      "subway": "",
      "hangang": false,
      "completion_est": "",
      "ref_note": ""
    },
    {
      "region": "서울",
      "id": "api_899",
      "name": "천왕역세권 공공임대주택 건립관련 도시환경정비사업",
      "district": "구로구",
      "dong": "",
      "type": "재개발",
      "stage": "의제처리구역",
      "stage_idx": 0,
      "lat": 37.504273817810905,
      "lng": 126.8927524351983,
      "area_m2": 10451,
      "units": 0,
      "contractor": "",
      "stage_date": "",
      "notes": "",
      "subway": "",
      "hangang": false,
      "completion_est": "",
      "ref_note": ""
    },
    {
      "region": "서울",
      "id": "api_900",
      "name": "둔촌동 삼익빌라 주택재건축정비사업",
      "district": "강동구",
      "dong": "",
      "type": "재개발",
      "stage": "의제처리구역",
      "stage_idx": 0,
      "lat": 37.53898687308768,
      "lng": 127.13091487026499,
      "area_m2": 9914,
      "units": 0,
      "contractor": "",
      "stage_date": "",
      "notes": "",
      "subway": "",
      "hangang": false,
      "completion_est": "",
      "ref_note": ""
    },
    {
      "region": "서울",
      "id": "api_901",
      "name": "면목3 주택재건축구역",
      "district": "중랑구",
      "dong": "",
      "type": "재개발",
      "stage": "의제처리구역",
      "stage_idx": 0,
      "lat": 37.59683116360319,
      "lng": 127.08513672588354,
      "area_m2": 68255,
      "units": 0,
      "contractor": "",
      "stage_date": "",
      "notes": "",
      "subway": "",
      "hangang": false,
      "completion_est": "",
      "ref_note": ""
    },
    {
      "region": "서울",
      "id": "api_902",
      "name": "이문1재정비촉진구역",
      "district": "동대문구",
      "dong": "",
      "type": "재개발",
      "stage": "의제처리구역",
      "stage_idx": 0,
      "lat": 37.58349440972572,
      "lng": 127.03118781502513,
      "area_m2": 144964,
      "units": 0,
      "contractor": "",
      "stage_date": "",
      "notes": "",
      "subway": "",
      "hangang": false,
      "completion_est": "",
      "ref_note": ""
    },
    {
      "region": "서울",
      "id": "api_903",
      "name": "이문3(3-1) 재정비촉진구역",
      "district": "동대문구",
      "dong": "",
      "type": "재개발",
      "stage": "의제처리구역",
      "stage_idx": 0,
      "lat": 37.58187873601681,
      "lng": 127.04276824747055,
      "area_m2": 133505,
      "units": 0,
      "contractor": "",
      "stage_date": "",
      "notes": "",
      "subway": "",
      "hangang": false,
      "completion_est": "",
      "ref_note": ""
    },
    {
      "region": "서울",
      "id": "api_905",
      "name": "장위10구역 ",
      "district": "성북구",
      "dong": "",
      "type": "재개발",
      "stage": "의제처리구역",
      "stage_idx": 0,
      "lat": 37.59302552846605,
      "lng": 127.02169656374106,
      "area_m2": 94072,
      "units": 0,
      "contractor": "",
      "stage_date": "",
      "notes": "",
      "subway": "",
      "hangang": false,
      "completion_est": "",
      "ref_note": ""
    },
    {
      "region": "서울",
      "id": "api_906",
      "name": "오류2동 147번지 일대 주거환경관리 정비구역 ",
      "district": "구로구",
      "dong": "",
      "type": "재개발",
      "stage": "의제처리구역",
      "stage_idx": 0,
      "lat": 37.4854411559744,
      "lng": 126.88743695785108,
      "area_m2": 178630,
      "units": 0,
      "contractor": "",
      "stage_date": "",
      "notes": "",
      "subway": "",
      "hangang": false,
      "completion_est": "",
      "ref_note": ""
    },
    {
      "region": "서울",
      "id": "api_907",
      "name": "신길10재정비촉진구역",
      "district": "영등포구",
      "dong": "",
      "type": "재개발",
      "stage": "의제처리구역",
      "stage_idx": 0,
      "lat": 37.51749464283985,
      "lng": 126.89912538964823,
      "area_m2": 32234,
      "units": 0,
      "contractor": "",
      "stage_date": "",
      "notes": "",
      "subway": "",
      "hangang": false,
      "completion_est": "",
      "ref_note": ""
    },
    {
      "region": "서울",
      "id": "api_908",
      "name": "신문로제2구역 제8지구 도시정비형 재개발사업",
      "district": "종로구",
      "dong": "",
      "type": "재개발",
      "stage": "의제처리구역",
      "stage_idx": 0,
      "lat": 37.58268106397263,
      "lng": 126.97022343023099,
      "area_m2": 7052,
      "units": 0,
      "contractor": "",
      "stage_date": "",
      "notes": "",
      "subway": "",
      "hangang": false,
      "completion_est": "",
      "ref_note": ""
    },
    {
      "region": "서울",
      "id": "api_909",
      "name": "홍은제14 주택재개발정비구역",
      "district": "서대문구",
      "dong": "",
      "type": "재개발",
      "stage": "의제처리구역",
      "stage_idx": 0,
      "lat": 37.57226926530593,
      "lng": 126.93391748710695,
      "area_m2": 22882,
      "units": 0,
      "contractor": "",
      "stage_date": "",
      "notes": "",
      "subway": "",
      "hangang": false,
      "completion_est": "",
      "ref_note": ""
    },
    {
      "region": "서울",
      "id": "api_910",
      "name": "상봉7재정비촉진구역",
      "district": "중랑구",
      "dong": "",
      "type": "재개발",
      "stage": "의제처리구역",
      "stage_idx": 0,
      "lat": 37.60182799517819,
      "lng": 127.09038678763488,
      "area_m2": 14990,
      "units": 0,
      "contractor": "",
      "stage_date": "",
      "notes": "",
      "subway": "",
      "hangang": false,
      "completion_est": "",
      "ref_note": ""
    },
    {
      "region": "서울",
      "id": "api_935",
      "name": "순화 도시정비형 재개발구역",
      "district": "중구",
      "dong": "",
      "type": "재개발",
      "stage": "의제처리구역",
      "stage_idx": 0,
      "lat": 37.555391468245936,
      "lng": 127.0071550772029,
      "area_m2": 15092,
      "units": 0,
      "contractor": "",
      "stage_date": "",
      "notes": "",
      "subway": "",
      "hangang": false,
      "completion_est": "",
      "ref_note": ""
    },
    {
      "region": "서울",
      "id": "api_936",
      "name": "순화 도시정비형 재개발구역 제1-2지구",
      "district": "중구",
      "dong": "",
      "type": "재개발",
      "stage": "의제처리구역",
      "stage_idx": 0,
      "lat": 37.57263734981006,
      "lng": 126.99863688404979,
      "area_m2": 1979,
      "units": 0,
      "contractor": "",
      "stage_date": "",
      "notes": "",
      "subway": "",
      "hangang": false,
      "completion_est": "",
      "ref_note": ""
    },
    {
      "region": "서울",
      "id": "api_937",
      "name": "삼선제5구역 주택재개발 정비사업",
      "district": "성북구",
      "dong": "",
      "type": "재개발",
      "stage": "의제처리구역",
      "stage_idx": 0,
      "lat": 37.58613539685198,
      "lng": 127.00676451814941,
      "area_m2": 63936,
      "units": 0,
      "contractor": "",
      "stage_date": "",
      "notes": "",
      "subway": "",
      "hangang": false,
      "completion_est": "",
      "ref_note": ""
    },
    {
      "region": "서울",
      "id": "api_938",
      "name": "동선제2구역 주택재개발정비사업",
      "district": "성북구",
      "dong": "",
      "type": "재개발",
      "stage": "의제처리구역",
      "stage_idx": 0,
      "lat": 37.593557197213045,
      "lng": 127.0222072890558,
      "area_m2": 15637,
      "units": 0,
      "contractor": "",
      "stage_date": "",
      "notes": "",
      "subway": "",
      "hangang": false,
      "completion_est": "",
      "ref_note": ""
    },
    {
      "region": "서울",
      "id": "api_940",
      "name": "이문1재정비촉진구역",
      "district": "동대문구",
      "dong": "",
      "type": "재개발",
      "stage": "의제처리구역",
      "stage_idx": 0,
      "lat": 37.575861159903404,
      "lng": 127.03859862301509,
      "area_m2": 144856,
      "units": 0,
      "contractor": "",
      "stage_date": "",
      "notes": "",
      "subway": "",
      "hangang": false,
      "completion_est": "",
      "ref_note": ""
    },
    {
      "region": "서울",
      "id": "api_941",
      "name": "잠실진주아파트 재건축사업",
      "district": "송파구",
      "dong": "",
      "type": "재개발",
      "stage": "의제처리구역",
      "stage_idx": 0,
      "lat": 37.51089916351899,
      "lng": 127.11499601643897,
      "area_m2": 112558,
      "units": 0,
      "contractor": "",
      "stage_date": "",
      "notes": "",
      "subway": "",
      "hangang": false,
      "completion_est": "",
      "ref_note": ""
    },
    {
      "region": "서울",
      "id": "api_942",
      "name": "신촌지역(서대문)도시정비형 재개발구역",
      "district": "서대문구",
      "dong": "",
      "type": "재개발",
      "stage": "의제처리구역",
      "stage_idx": 0,
      "lat": 37.57213058276204,
      "lng": 126.92882621169389,
      "area_m2": 4597,
      "units": 0,
      "contractor": "",
      "stage_date": "",
      "notes": "",
      "subway": "",
      "hangang": false,
      "completion_est": "",
      "ref_note": ""
    },
    {
      "region": "서울",
      "id": "api_943",
      "name": "문래동1가A 도시정비형 재개발구역 ",
      "district": "영등포구",
      "dong": "",
      "type": "재개발",
      "stage": "의제처리구역",
      "stage_idx": 0,
      "lat": 37.533483034039016,
      "lng": 126.90570067603615,
      "area_m2": 0,
      "units": 0,
      "contractor": "",
      "stage_date": "",
      "notes": "",
      "subway": "",
      "hangang": false,
      "completion_est": "",
      "ref_note": ""
    },
    {
      "region": "서울",
      "id": "api_944",
      "name": "문래동1가B 도시정비형 재개발구역 ",
      "district": "영등포구",
      "dong": "",
      "type": "재개발",
      "stage": "의제처리구역",
      "stage_idx": 0,
      "lat": 37.5196012222551,
      "lng": 126.8914794528982,
      "area_m2": 0,
      "units": 0,
      "contractor": "",
      "stage_date": "",
      "notes": "",
      "subway": "",
      "hangang": false,
      "completion_est": "",
      "ref_note": ""
    },
    {
      "region": "서울",
      "id": "api_964",
      "name": "문래동2가A 도시정비형 재개발구역 ",
      "district": "영등포구",
      "dong": "",
      "type": "재개발",
      "stage": "의제처리구역",
      "stage_idx": 0,
      "lat": 37.51812940724372,
      "lng": 126.90348002346866,
      "area_m2": 0,
      "units": 0,
      "contractor": "",
      "stage_date": "",
      "notes": "",
      "subway": "",
      "hangang": false,
      "completion_est": "",
      "ref_note": ""
    },
    {
      "region": "서울",
      "id": "api_965",
      "name": "문래동2가B 도시정비형 재개발구역 ",
      "district": "영등포구",
      "dong": "",
      "type": "재개발",
      "stage": "의제처리구역",
      "stage_idx": 0,
      "lat": 37.52451161419633,
      "lng": 126.88996431407732,
      "area_m2": 0,
      "units": 0,
      "contractor": "",
      "stage_date": "",
      "notes": "",
      "subway": "",
      "hangang": false,
      "completion_est": "",
      "ref_note": ""
    },
    {
      "region": "서울",
      "id": "api_966",
      "name": "문래동4가 도시환경정비구역",
      "district": "영등포구",
      "dong": "",
      "type": "재개발",
      "stage": "의제처리구역",
      "stage_idx": 0,
      "lat": 37.52444031628708,
      "lng": 126.88809358110008,
      "area_m2": 94087,
      "units": 0,
      "contractor": "",
      "stage_date": "",
      "notes": "",
      "subway": "",
      "hangang": false,
      "completion_est": "",
      "ref_note": ""
    },
    {
      "region": "서울",
      "id": "api_967",
      "name": "북아현2 재정비촉진구역 ",
      "district": "서대문구",
      "dong": "",
      "type": "재개발",
      "stage": "의제처리구역",
      "stage_idx": 0,
      "lat": 37.58395041574485,
      "lng": 126.92718541953307,
      "area_m2": 124270,
      "units": 0,
      "contractor": "",
      "stage_date": "",
      "notes": "",
      "subway": "",
      "hangang": false,
      "completion_est": "",
      "ref_note": ""
    },
    {
      "region": "서울",
      "id": "api_968",
      "name": "효창제6구역주택재개발정비사업",
      "district": "용산구",
      "dong": "",
      "type": "재개발",
      "stage": "의제처리구역",
      "stage_idx": 0,
      "lat": 37.530606813898316,
      "lng": 126.98070369819405,
      "area_m2": 18171,
      "units": 0,
      "contractor": "",
      "stage_date": "",
      "notes": "",
      "subway": "",
      "hangang": false,
      "completion_est": "",
      "ref_note": ""
    },
    {
      "region": "서울",
      "id": "api_969",
      "name": "방화5재정비촉진구역 (주택재건축사업) ",
      "district": "강서구",
      "dong": "",
      "type": "재개발",
      "stage": "의제처리구역",
      "stage_idx": 0,
      "lat": 37.555800475505315,
      "lng": 126.84715749043932,
      "area_m2": 99520,
      "units": 0,
      "contractor": "",
      "stage_date": "",
      "notes": "",
      "subway": "",
      "hangang": false,
      "completion_est": "",
      "ref_note": ""
    },
    {
      "region": "서울",
      "id": "api_971",
      "name": "수색4재정비촉진구역(주택재개발사업)",
      "district": "은평구",
      "dong": "",
      "type": "재개발",
      "stage": "의제처리구역",
      "stage_idx": 0,
      "lat": 37.59686535347415,
      "lng": 126.93492683471999,
      "area_m2": 61889,
      "units": 0,
      "contractor": "",
      "stage_date": "",
      "notes": "",
      "subway": "",
      "hangang": false,
      "completion_est": "",
      "ref_note": ""
    },
    {
      "region": "서울",
      "id": "api_972",
      "name": "가재울6 재정비촉진구역",
      "district": "서대문구",
      "dong": "",
      "type": "재개발",
      "stage": "의제처리구역",
      "stage_idx": 0,
      "lat": 37.572058926882825,
      "lng": 126.94206612324076,
      "area_m2": 48084,
      "units": 0,
      "contractor": "",
      "stage_date": "",
      "notes": "",
      "subway": "",
      "hangang": false,
      "completion_est": "",
      "ref_note": ""
    },
    {
      "region": "서울",
      "id": "api_987",
      "name": "도시정비형 재개발사업구역",
      "district": "중구",
      "dong": "",
      "type": "재개발",
      "stage": "의제처리구역",
      "stage_idx": 0,
      "lat": 37.55976090508852,
      "lng": 127.00332137695918,
      "area_m2": 2918,
      "units": 0,
      "contractor": "",
      "stage_date": "",
      "notes": "",
      "subway": "",
      "hangang": false,
      "completion_est": "",
      "ref_note": ""
    },
    {
      "region": "서울",
      "id": "api_990",
      "name": "중구 다산권 성곽마을 관리형 주거환경개선사업",
      "district": "중구",
      "dong": "",
      "type": "재개발",
      "stage": "의제처리구역",
      "stage_idx": 0,
      "lat": 37.564364110699664,
      "lng": 126.99597645113576,
      "area_m2": 0,
      "units": 0,
      "contractor": "",
      "stage_date": "",
      "notes": "",
      "subway": "",
      "hangang": false,
      "completion_est": "",
      "ref_note": ""
    },
    {
      "region": "서울",
      "id": "api_991",
      "name": "서울특별시 마포구 창전동 27-19호 일대",
      "district": "마포구",
      "dong": "",
      "type": "재개발",
      "stage": "의제처리구역",
      "stage_idx": 0,
      "lat": 37.559558153219925,
      "lng": 126.91528173526851,
      "area_m2": 14770,
      "units": 0,
      "contractor": "",
      "stage_date": "",
      "notes": "",
      "subway": "",
      "hangang": false,
      "completion_est": "",
      "ref_note": ""
    },
    {
      "region": "서울",
      "id": "api_1013",
      "name": "개포시영아파트 중심상가재건축정비사업",
      "district": "강남구",
      "dong": "",
      "type": "재개발",
      "stage": "의제처리구역",
      "stage_idx": 0,
      "lat": 37.52005071902267,
      "lng": 127.04410805957757,
      "area_m2": 0,
      "units": 0,
      "contractor": "",
      "stage_date": "",
      "notes": "",
      "subway": "",
      "hangang": false,
      "completion_est": "",
      "ref_note": ""
    },
    {
      "region": "서울",
      "id": "api_1016",
      "name": "국제빌딩주변 도시정비형 재개발구역",
      "district": "용산구",
      "dong": "",
      "type": "재개발",
      "stage": "의제처리구역",
      "stage_idx": 0,
      "lat": 37.522197059224965,
      "lng": 126.97747467453847,
      "area_m2": 109965,
      "units": 0,
      "contractor": "",
      "stage_date": "",
      "notes": "",
      "subway": "",
      "hangang": false,
      "completion_est": "",
      "ref_note": ""
    },
    {
      "region": "서울",
      "id": "api_1017",
      "name": "4구역",
      "district": "용산구",
      "dong": "",
      "type": "재개발",
      "stage": "의제처리구역",
      "stage_idx": 0,
      "lat": 37.523671688312206,
      "lng": 126.98680427594775,
      "area_m2": 53066,
      "units": 0,
      "contractor": "",
      "stage_date": "",
      "notes": "",
      "subway": "",
      "hangang": false,
      "completion_est": "",
      "ref_note": ""
    },
    {
      "region": "서울",
      "id": "api_1018",
      "name": "응암제11구역 주택재개발정비사업",
      "district": "은평구",
      "dong": "",
      "type": "재개발",
      "stage": "의제처리구역",
      "stage_idx": 0,
      "lat": 37.59570216874975,
      "lng": 126.93047912109867,
      "area_m2": 36242,
      "units": 0,
      "contractor": "",
      "stage_date": "",
      "notes": "",
      "subway": "",
      "hangang": false,
      "completion_est": "",
      "ref_note": ""
    },
    {
      "region": "서울",
      "id": "api_1020",
      "name": "서소문8-3",
      "district": "중구",
      "dong": "",
      "type": "재개발",
      "stage": "의제처리구역",
      "stage_idx": 0,
      "lat": 37.556373692293384,
      "lng": 127.00154888222923,
      "area_m2": 1172,
      "units": 0,
      "contractor": "",
      "stage_date": "",
      "notes": "",
      "subway": "",
      "hangang": false,
      "completion_est": "",
      "ref_note": ""
    },
    {
      "region": "서울",
      "id": "api_1021",
      "name": "갈현제1구역 주택재개발정비사업",
      "district": "은평구",
      "dong": "",
      "type": "재개발",
      "stage": "의제처리구역",
      "stage_idx": 0,
      "lat": 37.610554305023825,
      "lng": 126.93831433149451,
      "area_m2": 238850,
      "units": 0,
      "contractor": "",
      "stage_date": "",
      "notes": "",
      "subway": "",
      "hangang": false,
      "completion_est": "",
      "ref_note": ""
    },
    {
      "region": "서울",
      "id": "api_1022",
      "name": "용답동 108-1번지 일대 주택재개발정비사업",
      "district": "성동구",
      "dong": "",
      "type": "재개발",
      "stage": "의제처리구역",
      "stage_idx": 0,
      "lat": 37.55480096197622,
      "lng": 127.03507575315429,
      "area_m2": 73341,
      "units": 0,
      "contractor": "",
      "stage_date": "",
      "notes": "",
      "subway": "",
      "hangang": false,
      "completion_est": "",
      "ref_note": ""
    },
    {
      "region": "서울",
      "id": "api_1023",
      "name": "노량진6재정비촉진구역 ",
      "district": "동작구",
      "dong": "",
      "type": "재개발",
      "stage": "의제처리구역",
      "stage_idx": 0,
      "lat": 37.5111748361802,
      "lng": 126.93510427488688,
      "area_m2": 72809,
      "units": 0,
      "contractor": "",
      "stage_date": "",
      "notes": "",
      "subway": "",
      "hangang": false,
      "completion_est": "",
      "ref_note": ""
    },
    {
      "region": "서울",
      "id": "api_1038",
      "name": "북아현2 재정비촉진구역 ",
      "district": "서대문구",
      "dong": "",
      "type": "재개발",
      "stage": "의제처리구역",
      "stage_idx": 0,
      "lat": 37.58705689084367,
      "lng": 126.94055406293981,
      "area_m2": 120055,
      "units": 0,
      "contractor": "",
      "stage_date": "",
      "notes": "",
      "subway": "",
      "hangang": false,
      "completion_est": "",
      "ref_note": ""
    },
    {
      "region": "서울",
      "id": "api_1040",
      "name": "한강맨션아파트 주택재건축정비구역",
      "district": "용산구",
      "dong": "",
      "type": "재개발",
      "stage": "의제처리구역",
      "stage_idx": 0,
      "lat": 37.53656986239612,
      "lng": 126.98148054444582,
      "area_m2": 84096,
      "units": 0,
      "contractor": "",
      "stage_date": "",
      "notes": "",
      "subway": "",
      "hangang": false,
      "completion_est": "",
      "ref_note": ""
    },
    {
      "region": "서울",
      "id": "api_1041",
      "name": "상계4재정비촉진구역 ",
      "district": "노원구",
      "dong": "",
      "type": "재개발",
      "stage": "의제처리구역",
      "stage_idx": 0,
      "lat": 37.651299800693565,
      "lng": 127.04815568598245,
      "area_m2": 39960,
      "units": 0,
      "contractor": "",
      "stage_date": "",
      "notes": "",
      "subway": "",
      "hangang": false,
      "completion_est": "",
      "ref_note": ""
    },
    {
      "region": "서울",
      "id": "api_1042",
      "name": "가락삼익맨숀 아파트 재건축정비사업",
      "district": "송파구",
      "dong": "",
      "type": "재개발",
      "stage": "의제처리구역",
      "stage_idx": 0,
      "lat": 37.507153115785776,
      "lng": 127.10311861463776,
      "area_m2": 62059,
      "units": 0,
      "contractor": "",
      "stage_date": "",
      "notes": "",
      "subway": "",
      "hangang": false,
      "completion_est": "",
      "ref_note": ""
    },
    {
      "region": "서울",
      "id": "api_1043",
      "name": "수정아파트 재건축정비사업",
      "district": "양천구",
      "dong": "",
      "type": "재개발",
      "stage": "의제처리구역",
      "stage_idx": 0,
      "lat": 37.517944487811704,
      "lng": 126.86999948038276,
      "area_m2": 0,
      "units": 0,
      "contractor": "",
      "stage_date": "",
      "notes": "",
      "subway": "",
      "hangang": false,
      "completion_est": "",
      "ref_note": ""
    },
    {
      "region": "서울",
      "id": "api_1044",
      "name": "개포시영아파트 주택재건축정비사업",
      "district": "강남구",
      "dong": "",
      "type": "재개발",
      "stage": "의제처리구역",
      "stage_idx": 0,
      "lat": 37.51572251364249,
      "lng": 127.05441563848021,
      "area_m2": 115910,
      "units": 0,
      "contractor": "",
      "stage_date": "",
      "notes": "",
      "subway": "",
      "hangang": false,
      "completion_est": "",
      "ref_note": ""
    },
    {
      "region": "서울",
      "id": "api_1046",
      "name": "월계동 487-17일대 주택재건축 정비사업",
      "district": "노원구",
      "dong": "",
      "type": "재개발",
      "stage": "의제처리구역",
      "stage_idx": 0,
      "lat": 37.655829977551036,
      "lng": 127.06350244598772,
      "area_m2": 14704,
      "units": 0,
      "contractor": "",
      "stage_date": "",
      "notes": "",
      "subway": "",
      "hangang": false,
      "completion_est": "",
      "ref_note": ""
    },
    {
      "region": "서울",
      "id": "api_1047",
      "name": "응암제2구역 주택재개발정비사업",
      "district": "은평구",
      "dong": "",
      "type": "재개발",
      "stage": "의제처리구역",
      "stage_idx": 0,
      "lat": 37.60956852110464,
      "lng": 126.93731213936337,
      "area_m2": 120765,
      "units": 0,
      "contractor": "",
      "stage_date": "",
      "notes": "",
      "subway": "",
      "hangang": false,
      "completion_est": "",
      "ref_note": ""
    },
    {
      "region": "서울",
      "id": "api_1111",
      "name": "가락프라자아파트 주택재건축사업 ",
      "district": "송파구",
      "dong": "",
      "type": "재개발",
      "stage": "의제처리구역",
      "stage_idx": 0,
      "lat": 37.51919309460596,
      "lng": 127.10504740830754,
      "area_m2": 47807,
      "units": 0,
      "contractor": "",
      "stage_date": "",
      "notes": "",
      "subway": "",
      "hangang": false,
      "completion_est": "",
      "ref_note": ""
    },
    {
      "region": "서울",
      "id": "api_1112",
      "name": "월계동 487-17번지 일대 주택재건축정비사업",
      "district": "노원구",
      "dong": "",
      "type": "재개발",
      "stage": "의제처리구역",
      "stage_idx": 0,
      "lat": 37.65584330329793,
      "lng": 127.04722637085003,
      "area_m2": 14704,
      "units": 0,
      "contractor": "",
      "stage_date": "",
      "notes": "",
      "subway": "",
      "hangang": false,
      "completion_est": "",
      "ref_note": ""
    },
    {
      "region": "서울",
      "id": "api_1127",
      "name": "성북제2-신월곡1 결합정비사업",
      "district": "성북구",
      "dong": "",
      "type": "재개발",
      "stage": "의제처리구역",
      "stage_idx": 0,
      "lat": 37.593229107596486,
      "lng": 127.0089811047106,
      "area_m2": 129866,
      "units": 0,
      "contractor": "",
      "stage_date": "",
      "notes": "",
      "subway": "",
      "hangang": false,
      "completion_est": "",
      "ref_note": ""
    },
    {
      "region": "서울",
      "id": "api_1128",
      "name": "연희 제1주택재건축정비구역",
      "district": "서대문구",
      "dong": "",
      "type": "재개발",
      "stage": "의제처리구역",
      "stage_idx": 0,
      "lat": 37.5821453063897,
      "lng": 126.92973530372043,
      "area_m2": 19468,
      "units": 0,
      "contractor": "",
      "stage_date": "",
      "notes": "",
      "subway": "",
      "hangang": false,
      "completion_est": "",
      "ref_note": ""
    },
    {
      "region": "서울",
      "id": "api_1293",
      "name": "대흥제2구역주택재개발사업",
      "district": "마포구",
      "dong": "",
      "type": "재개발",
      "stage": "의제처리구역",
      "stage_idx": 0,
      "lat": 37.57292517179663,
      "lng": 126.90784219287072,
      "area_m2": 62245,
      "units": 0,
      "contractor": "",
      "stage_date": "",
      "notes": "",
      "subway": "",
      "hangang": false,
      "completion_est": "",
      "ref_note": ""
    },
    {
      "region": "서울",
      "id": "api_1542",
      "name": "장위1 재정비촉진구역",
      "district": "성북구",
      "dong": "",
      "type": "재개발",
      "stage": "의제처리구역",
      "stage_idx": 0,
      "lat": 37.58575444599989,
      "lng": 127.02361187858007,
      "area_m2": 80513,
      "units": 0,
      "contractor": "",
      "stage_date": "",
      "notes": "",
      "subway": "",
      "hangang": false,
      "completion_est": "",
      "ref_note": ""
    },
    {
      "region": "서울",
      "id": "api_1976",
      "name": "대흥제2구역 주택재개발사업",
      "district": "마포구",
      "dong": "",
      "type": "재개발",
      "stage": "의제처리구역",
      "stage_idx": 0,
      "lat": 37.56185086357649,
      "lng": 126.90913811603775,
      "area_m2": 62260,
      "units": 0,
      "contractor": "",
      "stage_date": "",
      "notes": "",
      "subway": "",
      "hangang": false,
      "completion_est": "",
      "ref_note": ""
    },
    {
      "region": "서울",
      "id": "api_2055",
      "name": "을지로2가 19-1",
      "district": "중구",
      "dong": "",
      "type": "재개발",
      "stage": "의제처리구역",
      "stage_idx": 0,
      "lat": 37.56986528825003,
      "lng": 126.99618613792754,
      "area_m2": 1477,
      "units": 0,
      "contractor": "",
      "stage_date": "",
      "notes": "",
      "subway": "",
      "hangang": false,
      "completion_est": "",
      "ref_note": ""
    },
    {
      "region": "서울",
      "id": "api_2083",
      "name": "이문4재정비촉진구역",
      "district": "동대문구",
      "dong": "",
      "type": "재개발",
      "stage": "의제처리구역",
      "stage_idx": 0,
      "lat": 37.58027627270189,
      "lng": 127.03850287340765,
      "area_m2": 151388,
      "units": 0,
      "contractor": "",
      "stage_date": "",
      "notes": "",
      "subway": "",
      "hangang": false,
      "completion_est": "",
      "ref_note": ""
    },
    {
      "region": "서울",
      "id": "api_2084",
      "name": "신길14재정비촉진구역",
      "district": "영등포구",
      "dong": "",
      "type": "재개발",
      "stage": "의제처리구역",
      "stage_idx": 0,
      "lat": 37.532441479966245,
      "lng": 126.89573114264145,
      "area_m2": 27844,
      "units": 0,
      "contractor": "",
      "stage_date": "",
      "notes": "",
      "subway": "",
      "hangang": false,
      "completion_est": "",
      "ref_note": ""
    },
    {
      "region": "서울",
      "id": "api_2085",
      "name": "공평지구<H9>",
      "district": "종로구",
      "dong": "",
      "type": "재개발",
      "stage": "의제처리구역",
      "stage_idx": 0,
      "lat": 37.59376254856714,
      "lng": 126.98012136032607,
      "area_m2": 127,
      "units": 0,
      "contractor": "",
      "stage_date": "",
      "notes": "",
      "subway": "",
      "hangang": false,
      "completion_est": "",
      "ref_note": ""
    },
    {
      "region": "서울",
      "id": "api_2086",
      "name": "을지로2가 19-3",
      "district": "중구",
      "dong": "",
      "type": "재개발",
      "stage": "의제처리구역",
      "stage_idx": 0,
      "lat": 37.5666399581282,
      "lng": 127.00560639131885,
      "area_m2": 1477,
      "units": 0,
      "contractor": "",
      "stage_date": "",
      "notes": "",
      "subway": "",
      "hangang": false,
      "completion_est": "",
      "ref_note": ""
    },
    {
      "region": "서울",
      "id": "api_2087",
      "name": "을지로2가 19-4",
      "district": "중구",
      "dong": "",
      "type": "재개발",
      "stage": "의제처리구역",
      "stage_idx": 0,
      "lat": 37.5626589937834,
      "lng": 126.99243374554528,
      "area_m2": 1477,
      "units": 0,
      "contractor": "",
      "stage_date": "",
      "notes": "",
      "subway": "",
      "hangang": false,
      "completion_est": "",
      "ref_note": ""
    },
    {
      "region": "서울",
      "id": "api_2088",
      "name": "을지로2가 20-1",
      "district": "중구",
      "dong": "",
      "type": "재개발",
      "stage": "의제처리구역",
      "stage_idx": 0,
      "lat": 37.56773854163403,
      "lng": 126.99696696528736,
      "area_m2": 0,
      "units": 0,
      "contractor": "",
      "stage_date": "",
      "notes": "",
      "subway": "",
      "hangang": false,
      "completion_est": "",
      "ref_note": ""
    },
    {
      "region": "서울",
      "id": "api_2089",
      "name": "을지로2가 20-2",
      "district": "중구",
      "dong": "",
      "type": "재개발",
      "stage": "의제처리구역",
      "stage_idx": 0,
      "lat": 37.56260344827647,
      "lng": 127.0029728078952,
      "area_m2": 0,
      "units": 0,
      "contractor": "",
      "stage_date": "",
      "notes": "",
      "subway": "",
      "hangang": false,
      "completion_est": "",
      "ref_note": ""
    },
    {
      "region": "서울",
      "id": "api_2090",
      "name": "을지로2가 18-5",
      "district": "중구",
      "dong": "",
      "type": "재개발",
      "stage": "의제처리구역",
      "stage_idx": 0,
      "lat": 37.5589819513434,
      "lng": 126.99104644298674,
      "area_m2": 1477,
      "units": 0,
      "contractor": "",
      "stage_date": "",
      "notes": "",
      "subway": "",
      "hangang": false,
      "completion_est": "",
      "ref_note": ""
    },
    {
      "region": "서울",
      "id": "api_2092",
      "name": "신촌지역(마포) 4-15지구 도시정비형 재개발구역",
      "district": "마포구",
      "dong": "",
      "type": "재개발",
      "stage": "의제처리구역",
      "stage_idx": 0,
      "lat": 37.563198895338715,
      "lng": 126.91661479032842,
      "area_m2": 3258,
      "units": 0,
      "contractor": "",
      "stage_date": "",
      "notes": "",
      "subway": "",
      "hangang": false,
      "completion_est": "",
      "ref_note": ""
    },
    {
      "region": "서울",
      "id": "api_2093",
      "name": "마포로1 도시정비형 재개발구역",
      "district": "마포구",
      "dong": "",
      "type": "재개발",
      "stage": "의제처리구역",
      "stage_idx": 0,
      "lat": 37.55941704599521,
      "lng": 126.90186966412982,
      "area_m2": 249777,
      "units": 0,
      "contractor": "",
      "stage_date": "",
      "notes": "",
      "subway": "",
      "hangang": false,
      "completion_est": "",
      "ref_note": ""
    },
    {
      "region": "서울",
      "id": "api_2094",
      "name": "마포로1 도시정비형 재개발구역 제28.29지구",
      "district": "마포구",
      "dong": "",
      "type": "재개발",
      "stage": "의제처리구역",
      "stage_idx": 0,
      "lat": 37.57213531264736,
      "lng": 126.90830362126245,
      "area_m2": 3749,
      "units": 0,
      "contractor": "",
      "stage_date": "",
      "notes": "",
      "subway": "",
      "hangang": false,
      "completion_est": "",
      "ref_note": ""
    },
    {
      "region": "서울",
      "id": "api_2096",
      "name": "을지로3가 도시정비형 재개발구역 제12지구",
      "district": "중구",
      "dong": "",
      "type": "재개발",
      "stage": "의제처리구역",
      "stage_idx": 0,
      "lat": 37.56046246390602,
      "lng": 126.99955753297927,
      "area_m2": 3924,
      "units": 0,
      "contractor": "",
      "stage_date": "",
      "notes": "",
      "subway": "",
      "hangang": false,
      "completion_est": "",
      "ref_note": ""
    },
    {
      "region": "서울",
      "id": "api_2098",
      "name": "상계주공5단지 재건축정비구역",
      "district": "노원구",
      "dong": "",
      "type": "재개발",
      "stage": "의제처리구역",
      "stage_idx": 0,
      "lat": 37.6484627905574,
      "lng": 127.05738877263386,
      "area_m2": 0,
      "units": 0,
      "contractor": "",
      "stage_date": "",
      "notes": "",
      "subway": "",
      "hangang": false,
      "completion_est": "",
      "ref_note": ""
    },
    {
      "region": "서울",
      "id": "api_2101",
      "name": "고덕주공3단지아파트 주택재건축 정비구역",
      "district": "강동구",
      "dong": "",
      "type": "재개발",
      "stage": "의제처리구역",
      "stage_idx": 0,
      "lat": 37.5310717111517,
      "lng": 127.12523697395301,
      "area_m2": 211408,
      "units": 0,
      "contractor": "",
      "stage_date": "",
      "notes": "",
      "subway": "",
      "hangang": false,
      "completion_est": "",
      "ref_note": ""
    },
    {
      "region": "서울",
      "id": "api_2102",
      "name": "마포로1구역 제12.13지구 도시정비형 재개발사업",
      "district": "마포구",
      "dong": "",
      "type": "재개발",
      "stage": "의제처리구역",
      "stage_idx": 0,
      "lat": 37.56042285636057,
      "lng": 126.90133544524254,
      "area_m2": 2568,
      "units": 0,
      "contractor": "",
      "stage_date": "",
      "notes": "",
      "subway": "",
      "hangang": false,
      "completion_est": "",
      "ref_note": ""
    },
    {
      "region": "서울",
      "id": "api_2103",
      "name": "면목1 역세권 장기전세주택 도시환경정비사업",
      "district": "중랑구",
      "dong": "",
      "type": "재개발",
      "stage": "의제처리구역",
      "stage_idx": 0,
      "lat": 37.60617762937007,
      "lng": 127.09007771076332,
      "area_m2": 3858,
      "units": 0,
      "contractor": "",
      "stage_date": "",
      "notes": "",
      "subway": "",
      "hangang": false,
      "completion_est": "",
      "ref_note": ""
    },
    {
      "region": "서울",
      "id": "api_2104",
      "name": "송파미성아파트 재건축정비구역",
      "district": "송파구",
      "dong": "",
      "type": "재개발",
      "stage": "의제처리구역",
      "stage_idx": 0,
      "lat": 37.511273055657334,
      "lng": 127.10436972319796,
      "area_m2": 0,
      "units": 0,
      "contractor": "",
      "stage_date": "",
      "notes": "",
      "subway": "",
      "hangang": false,
      "completion_est": "",
      "ref_note": ""
    },
    {
      "region": "서울",
      "id": "api_2105",
      "name": "사당2 주택재건축 정비사업",
      "district": "동작구",
      "dong": "",
      "type": "재개발",
      "stage": "의제처리구역",
      "stage_idx": 0,
      "lat": 37.517879004354924,
      "lng": 126.9487750030624,
      "area_m2": 49449,
      "units": 0,
      "contractor": "",
      "stage_date": "",
      "notes": "",
      "subway": "",
      "hangang": false,
      "completion_est": "",
      "ref_note": ""
    },
    {
      "region": "서울",
      "id": "api_2106",
      "name": "신길8재정비촉진구역",
      "district": "영등포구",
      "dong": "",
      "type": "재개발",
      "stage": "의제처리구역",
      "stage_idx": 0,
      "lat": 37.518331040432756,
      "lng": 126.90623477158287,
      "area_m2": 32287,
      "units": 0,
      "contractor": "",
      "stage_date": "",
      "notes": "",
      "subway": "",
      "hangang": false,
      "completion_est": "",
      "ref_note": ""
    },
    {
      "region": "서울",
      "id": "api_2107",
      "name": "가락1차현대아파트 재건축정비사업",
      "district": "송파구",
      "dong": "",
      "type": "재개발",
      "stage": "의제처리구역",
      "stage_idx": 0,
      "lat": 37.50896702682618,
      "lng": 127.10434610853481,
      "area_m2": 33953,
      "units": 0,
      "contractor": "",
      "stage_date": "",
      "notes": "",
      "subway": "",
      "hangang": false,
      "completion_est": "",
      "ref_note": ""
    },
    {
      "region": "서울",
      "id": "api_2108",
      "name": "강북2재정비촉진구역",
      "district": "강북구",
      "dong": "",
      "type": "재개발",
      "stage": "의제처리구역",
      "stage_idx": 0,
      "lat": 37.640997883341015,
      "lng": 127.01593107719569,
      "area_m2": 18958,
      "units": 0,
      "contractor": "",
      "stage_date": "",
      "notes": "",
      "subway": "",
      "hangang": false,
      "completion_est": "",
      "ref_note": ""
    },
    {
      "region": "서울",
      "id": "api_2226",
      "name": "응암제1구역 주택재개발정비사업",
      "district": "은평구",
      "dong": "",
      "type": "재개발",
      "stage": "의제처리구역",
      "stage_idx": 0,
      "lat": 37.596945659449794,
      "lng": 126.9336443976452,
      "area_m2": 43938,
      "units": 0,
      "contractor": "",
      "stage_date": "",
      "notes": "",
      "subway": "",
      "hangang": false,
      "completion_est": "",
      "ref_note": ""
    },
    {
      "region": "서울",
      "id": "api_2227",
      "name": "사당3 재건축 정비사업",
      "district": "동작구",
      "dong": "",
      "type": "재개발",
      "stage": "의제처리구역",
      "stage_idx": 0,
      "lat": 37.50730549254693,
      "lng": 126.93074963404568,
      "area_m2": 30107,
      "units": 0,
      "contractor": "",
      "stage_date": "",
      "notes": "",
      "subway": "",
      "hangang": false,
      "completion_est": "",
      "ref_note": ""
    },
    {
      "region": "서울",
      "id": "api_2228",
      "name": "마포로1구역 제28.29지구 도시정비형 재개발구역",
      "district": "마포구",
      "dong": "",
      "type": "재개발",
      "stage": "의제처리구역",
      "stage_idx": 0,
      "lat": 37.561593052937056,
      "lng": 126.9181296038008,
      "area_m2": 3678,
      "units": 0,
      "contractor": "",
      "stage_date": "",
      "notes": "",
      "subway": "",
      "hangang": false,
      "completion_est": "",
      "ref_note": ""
    },
    {
      "region": "서울",
      "id": "api_2229",
      "name": "을지로3가 도시정비형 재개발구역 제9지구",
      "district": "중구",
      "dong": "",
      "type": "재개발",
      "stage": "의제처리구역",
      "stage_idx": 0,
      "lat": 37.56660398213246,
      "lng": 127.00766208602093,
      "area_m2": 1945,
      "units": 0,
      "contractor": "",
      "stage_date": "",
      "notes": "",
      "subway": "",
      "hangang": false,
      "completion_est": "",
      "ref_note": ""
    },
    {
      "region": "서울",
      "id": "api_2231",
      "name": "신동아1.2차아파트 주택재건축 정비사업",
      "district": "강동구",
      "dong": "",
      "type": "재개발",
      "stage": "의제처리구역",
      "stage_idx": 0,
      "lat": 37.52458666658308,
      "lng": 127.1192786955465,
      "area_m2": 46267,
      "units": 0,
      "contractor": "",
      "stage_date": "",
      "notes": "",
      "subway": "",
      "hangang": false,
      "completion_est": "",
      "ref_note": ""
    },
    {
      "region": "서울",
      "id": "api_2234",
      "name": "영등포 도심 역세권 도시정비형 재개발구역",
      "district": "영등포구",
      "dong": "",
      "type": "재개발",
      "stage": "의제처리구역",
      "stage_idx": 0,
      "lat": 37.5288972702196,
      "lng": 126.89652296423476,
      "area_m2": 0,
      "units": 0,
      "contractor": "",
      "stage_date": "",
      "notes": "",
      "subway": "",
      "hangang": false,
      "completion_est": "",
      "ref_note": ""
    },
    {
      "region": "서울",
      "id": "api_2235",
      "name": "홍은제6주택 재건축정비구역",
      "district": "서대문구",
      "dong": "",
      "type": "재개발",
      "stage": "의제처리구역",
      "stage_idx": 0,
      "lat": 37.58214899337208,
      "lng": 126.92698902026903,
      "area_m2": 13078,
      "units": 0,
      "contractor": "",
      "stage_date": "",
      "notes": "",
      "subway": "",
      "hangang": false,
      "completion_est": "",
      "ref_note": ""
    },