{
  "updated_at": "2026-07-04",
  "source": "seoul_open_api",
  "note": "수도권 실데이터 — 서울 756개·경기 0개 구역 (2026-07-04 갱신)",
  "projects": [
    {
      "id": "api_24",
      "name": "전농7재정비촉진구역 ",
      "region": "서울",
      "district": "동대문구",
      "dong": "",
      "type": "재개발",
      "stage": "의제처리구역",
      "stage_idx": 0,
      "lat": 37.56948661161723,
      "lng": 127.04341953251408,
      "area_m2": 151792,
      "units": 0,
      "contractor": "",
      "stage_date": "",
      "notes": "",
      "subway": "",
      "hangang": false,
      "completion_est": "",
      "ref_note": ""
    },
    {
      "id": "api_25",
      "name": "공덕 제6주택재개발정비사업",
      "region": "서울",
      "district": "마포구",
      "dong": "",
      "type": "재개발",
      "stage": "의제처리구역",
      "stage_idx": 0,
      "lat": 37.568979205389134,
      "lng": 126.89972768291813,
      "area_m2": 11326,
      "units": 0,
      "contractor": "",
      "stage_date": "",
      "notes": "",
      "subway": "",
      "hangang": false,
      "completion_est": "",
      "ref_note": ""
    },
    {
      "id": "api_26",
      "name": "사당3재건축정비사업",
      "region": "서울",
      "district": "동작구",
      "dong": "",
      "type": "재개발",
      "stage": "의제처리구역",
      "stage_idx": 0,
      "lat": 37.5075639045611,
      "lng": 126.93199795997995,
      "area_m2": 30221,
      "units": 0,
      "contractor": "",
      "stage_date": "",
      "notes": "",
      "subway": "",
      "hangang": false,
      "completion_est": "",
      "ref_note": ""
    },
    {
      "id": "api_27",
      "name": "긴등마을 재정비촉진구역",
      "region": "서울",
      "district": "강서구",
      "dong": "",
      "type": "재개발",
      "stage": "의제처리구역",
      "stage_idx": 0,
      "lat": 37.542434985276415,
      "lng": 126.84655475191221,
      "area_m2": 31668,
      "units": 0,
      "contractor": "",
      "stage_date": "",
      "notes": "",
      "subway": "",
      "hangang": false,
      "completion_est": "",
      "ref_note": ""
    },
    {
      "id": "api_29",
      "name": "신용산역 북측 제1구역 도시정비형 재개발구역",
      "region": "서울",
      "district": "용산구",
      "dong": "",
      "type": "재개발",
      "stage": "의제처리구역",
      "stage_idx": 0,
      "lat": 37.53034868880251,
      "lng": 126.9847147451036,
      "area_m2": 14057,
      "units": 0,
      "contractor": "",
      "stage_date": "",
      "notes": "",
      "subway": "",
      "hangang": false,
      "completion_est": "",
      "ref_note": ""
    },
    {
      "id": "api_30",
      "name": "신설 제1 주택정비형 공공재개발사업 ",
      "region": "서울",
      "district": "동대문구",
      "dong": "",
      "type": "재개발",
      "stage": "의제처리구역",
      "stage_idx": 0,
      "lat": 37.5692742401945,
      "lng": 127.03721865255685,
      "area_m2": 11204,
      "units": 0,
      "contractor": "",
      "stage_date": "",
      "notes": "",
      "subway": "",
      "hangang": false,
      "completion_est": "",
      "ref_note": ""
    },
    {
      "id": "api_31",
      "name": "양동구역 제11.12지구",
      "region": "서울",
      "district": "중구",
      "dong": "",
      "type": "재개발",
      "stage": "의제처리구역",
      "stage_idx": 0,
      "lat": 37.558614311288935,
      "lng": 127.00308461375965,
      "area_m2": 3565,
      "units": 0,
      "contractor": "",
      "stage_date": "",
      "notes": "",
      "subway": "",
      "hangang": false,
      "completion_est": "",
      "ref_note": ""
    },
    {
      "id": "api_32",
      "name": "신당 제8구역 주택재개발정비사업",
      "region": "서울",
      "district": "중구",
      "dong": "",
      "type": "재개발",
      "stage": "의제처리구역",
      "stage_idx": 0,
      "lat": 37.55959055991533,
      "lng": 126.99572934397622,
      "area_m2": 58439,
      "units": 0,
      "contractor": "",
      "stage_date": "",
      "notes": "",
      "subway": "",
      "hangang": false,
      "completion_est": "",
      "ref_note": ""
    },
    {
      "id": "api_33",
      "name": "장위6구역 ",
      "region": "서울",
      "district": "성북구",
      "dong": "",
      "type": "재개발",
      "stage": "의제처리구역",
      "stage_idx": 0,
      "lat": 37.596340965602714,
      "lng": 127.01803387131608,
      "area_m2": 105163,
      "units": 0,
      "contractor": "",
      "stage_date": "",
      "notes": "",
      "subway": "",
      "hangang": false,
      "completion_est": "",
      "ref_note": ""
    },
    {
      "id": "api_34",
      "name": "한남4 재정비촉진구역 ",
      "region": "서울",
      "district": "용산구",
      "dong": "",
      "type": "재개발",
      "stage": "의제처리구역",
      "stage_idx": 0,
      "lat": 37.529486376226075,
      "lng": 126.97633574991832,
      "area_m2": 162163,
      "units": 0,
      "contractor": "",
      "stage_date": "",
      "notes": "",
      "subway": "",
      "hangang": false,
      "completion_est": "",
      "ref_note": ""
    },
    {
      "id": "api_35",
      "name": "마포로5 도시정비형 재개발구역",
      "region": "서울",
      "district": "중구",
      "dong": "",
      "type": "재개발",
      "stage": "의제처리구역",
      "stage_idx": 0,
      "lat": 37.559495539535575,
      "lng": 126.99359934231778,
      "area_m2": 61730,
      "units": 0,
      "contractor": "",
      "stage_date": "",
      "notes": "",
      "subway": "",
      "hangang": false,
      "completion_est": "",
      "ref_note": ""
    },
    {
      "id": "api_36",
      "name": "마포로5 도시정비형 재개발구역 제9-1지구",
      "region": "서울",
      "district": "중구",
      "dong": "",
      "type": "재개발",
      "stage": "의제처리구역",
      "stage_idx": 0,
      "lat": 37.56900094590325,
      "lng": 127.00513115960862,
      "area_m2": 1938,
      "units": 0,
      "contractor": "",
      "stage_date": "",
      "notes": "",
      "subway": "",
      "hangang": false,
      "completion_est": "",
      "ref_note": ""
    },
    {
      "id": "api_37",
      "name": "금호 제14-1 주택재개발 정비사업",
      "region": "서울",
      "district": "성동구",
      "dong": "",
      "type": "재개발",
      "stage": "의제처리구역",
      "stage_idx": 0,
      "lat": 37.55846241656774,
      "lng": 127.0344095853421,
      "area_m2": 5127,
      "units": 0,
      "contractor": "",
      "stage_date": "",
      "notes": "",
      "subway": "",
      "hangang": false,
      "completion_est": "",
      "ref_note": ""
    },
    {
      "id": "api_38",
      "name": "은마아파트 재건축 정비구역 ",
      "region": "서울",
      "district": "강남구",
      "dong": "",
      "type": "재개발",
      "stage": "의제처리구역",
      "stage_idx": 0,
      "lat": 37.52012830222323,
      "lng": 127.05364203694415,
      "area_m2": 0,
      "units": 0,
      "contractor": "",
      "stage_date": "",
      "notes": "",
      "subway": "",
      "hangang": false,
      "completion_est": "",
      "ref_note": ""
    },
    {
      "id": "api_39",
      "name": "양평제12 도시환경정비구역",
      "region": "서울",
      "district": "영등포구",
      "dong": "",
      "type": "재개발",
      "stage": "의제처리구역",
      "stage_idx": 0,
      "lat": 37.52276786948702,
      "lng": 126.9058344533192,
      "area_m2": 37561,
      "units": 0,
      "contractor": "",
      "stage_date": "",
      "notes": "",
      "subway": "",
      "hangang": false,
      "completion_est": "",
      "ref_note": ""
    },
    {
      "id": "api_42",
      "name": "면목4 주택재건축정비구역",
      "region": "서울",
      "district": "중랑구",
      "dong": "",
      "type": "재개발",
      "stage": "의제처리구역",
      "stage_idx": 0,
      "lat": 37.60889621623066,
      "lng": 127.08771048226846,
      "area_m2": 14918,
      "units": 0,
      "contractor": "",
      "stage_date": "",
      "notes": "",
      "subway": "",
      "hangang": false,
      "completion_est": "",
      "ref_note": ""
    },
    {
      "id": "api_43",
      "name": "개포주공4단지 주택재건축정비사업",
      "region": "서울",
      "district": "강남구",
      "dong": "",
      "type": "재개발",
      "stage": "의제처리구역",
      "stage_idx": 0,
      "lat": 37.525575435928324,
      "lng": 127.05480405356501,
      "area_m2": 179794,
      "units": 0,
      "contractor": "",
      "stage_date": "",
      "notes": "",
      "subway": "",
      "hangang": false,
      "completion_est": "",
      "ref_note": ""
    },
    {
      "id": "api_44",
      "name": "잠실우성4차아파트 주택재건축 정비구역",
      "region": "서울",
      "district": "송파구",
      "dong": "",
      "type": "재개발",
      "stage": "의제처리구역",
      "stage_idx": 0,
      "lat": 37.51259247118117,
      "lng": 127.1134893220933,
      "area_m2": 31961,
      "units": 0,
      "contractor": "",
      "stage_date": "",
      "notes": "",
      "subway": "",
      "hangang": false,
      "completion_est": "",
      "ref_note": ""
    },
    {
      "id": "api_45",
      "name": "홍은제1 주택재건축 정비사업",
      "region": "서울",
      "district": "서대문구",
      "dong": "",
      "type": "재개발",
      "stage": "의제처리구역",
      "stage_idx": 0,
      "lat": 37.58010424311473,
      "lng": 126.93622345397698,
      "area_m2": 19070,
      "units": 0,
      "contractor": "",
      "stage_date": "",
      "notes": "",
      "subway": "",
      "hangang": false,
      "completion_est": "",
      "ref_note": ""
    },
    {
      "id": "api_47",
      "name": "홍은 제2주택재건축 정비구역",
      "region": "서울",
      "district": "서대문구",
      "dong": "",
      "type": "재개발",
      "stage": "의제처리구역",
      "stage_idx": 0,
      "lat": 37.58778934431323,
      "lng": 126.93677494677792,
      "area_m2": 33199,
      "units": 0,
      "contractor": "",
      "stage_date": "",
      "notes": "",
      "subway": "",
      "hangang": false,
      "completion_est": "",
      "ref_note": ""
    },
    {
      "id": "api_48",
      "name": "용두제6구역 주택재개발정비사업",
      "region": "서울",
      "district": "동대문구",
      "dong": "",
      "type": "재개발",
      "stage": "의제처리구역",
      "stage_idx": 0,
      "lat": 37.5818274904775,
      "lng": 127.03422458976559,
      "area_m2": 53370,
      "units": 0,
      "contractor": "",
      "stage_date": "",
      "notes": "",
      "subway": "",
      "hangang": false,
      "completion_est": "",
      "ref_note": ""
    },
    {
      "id": "api_49",
      "name": "중화동 우성타운 재건축정비구역 ",
      "region": "서울",
      "district": "중랑구",
      "dong": "",
      "type": "재개발",
      "stage": "의제처리구역",
      "stage_idx": 0,
      "lat": 37.59735248674444,
      "lng": 127.08705938636822,
      "area_m2": 0,
      "units": 0,
      "contractor": "",
      "stage_date": "",
      "notes": "",
      "subway": "",
      "hangang": false,
      "completion_est": "",
      "ref_note": ""
    },
    {
      "id": "api_50",
      "name": "사당3 재건축정비사업",
      "region": "서울",
      "district": "동작구",
      "dong": "",
      "type": "재개발",
      "stage": "의제처리구역",
      "stage_idx": 0,
      "lat": 37.51277340815242,
      "lng": 126.94571994331284,
      "area_m2": 30061,
      "units": 0,
      "contractor": "",
      "stage_date": "",
      "notes": "",
      "subway": "",
      "hangang": false,
      "completion_est": "",
      "ref_note": ""
    },
    {
      "id": "api_51",
      "name": "증산2재정비촉진구역",
      "region": "서울",
      "district": "은평구",
      "dong": "",
      "type": "재개발",
      "stage": "의제처리구역",
      "stage_idx": 0,
      "lat": 37.60800591139206,
      "lng": 126.93573922969156,
      "area_m2": 78755,
      "units": 0,
      "contractor": "",
      "stage_date": "",
      "notes": "",
      "subway": "",
      "hangang": false,
      "completion_est": "",
      "ref_note": ""
    },
    {
      "id": "api_52",
      "name": "수색7재정비촉진구역 ",
      "region": "서울",
      "district": "은평구",
      "dong": "",
      "type": "재개발",
      "stage": "의제처리구역",
      "stage_idx": 0,
      "lat": 37.608380977832276,
      "lng": 126.92057216334777,
      "area_m2": 31402,
      "units": 0,
      "contractor": "",
      "stage_date": "",
      "notes": "",
      "subway": "",
      "hangang": false,
      "completion_est": "",
      "ref_note": ""
    },
    {
      "id": "api_53",
      "name": "수색13 주택재개발사업 ",
      "region": "서울",
      "district": "은평구",
      "dong": "",
      "type": "재개발",
      "stage": "의제처리구역",
      "stage_idx": 0,
      "lat": 37.59875260025401,
      "lng": 126.9383574469225,
      "area_m2": 69681,
      "units": 0,
      "contractor": "",
      "stage_date": "",
      "notes": "",
      "subway": "",
      "hangang": false,
      "completion_est": "",
      "ref_note": ""
    },
    {
      "id": "api_54",
      "name": "역삼동 758번지일대 주택재건축정비사업",
      "region": "서울",
      "district": "강남구",
      "dong": "",
      "type": "재개발",
      "stage": "의제처리구역",
      "stage_idx": 0,
      "lat": 37.51492485459568,
      "lng": 127.03750377775677,
      "area_m2": 12263,
      "units": 0,
      "contractor": "",
      "stage_date": "",
      "notes": "",
      "subway": "",
      "hangang": false,
      "completion_est": "",
      "ref_note": ""
    },
    {
      "id": "api_55",
      "name": "수색9 재정비촉진구역 주택재개발사업 ",
      "region": "서울",
      "district": "은평구",
      "dong": "",
      "type": "재개발",
      "stage": "의제처리구역",
      "stage_idx": 0,
      "lat": 37.59877862984005,
      "lng": 126.938065837353,
      "area_m2": 36348,
      "units": 0,
      "contractor": "",
      "stage_date": "",
      "notes": "",
      "subway": "",
      "hangang": false,
      "completion_est": "",
      "ref_note": ""
    },
    {
      "id": "api_56",
      "name": "제기1주거환경개선지구",
      "region": "서울",
      "district": "동대문구",
      "dong": "",
      "type": "재개발",
      "stage": "의제처리구역",
      "stage_idx": 0,
      "lat": 37.57543155420049,
      "lng": 127.03782721481025,
      "area_m2": 9945,
      "units": 0,
      "contractor": "",
      "stage_date": "",
      "notes": "",
      "subway": "",
      "hangang": false,
      "completion_est": "",
      "ref_note": ""
    },
    {
      "id": "api_60",
      "name": "1-1구역",
      "region": "서울",
      "district": "용산구",
      "dong": "",
      "type": "재개발",
      "stage": "의제처리구역",
      "stage_idx": 0,
      "lat": 37.53667449610615,
      "lng": 126.97541232225743,
      "area_m2": 2749,
      "units": 0,
      "contractor": "",
      "stage_date": "",
      "notes": "",
      "subway": "",
      "hangang": false,
      "completion_est": "",
      "ref_note": ""
    },
    {
      "id": "api_61",
      "name": "1-2구역",
      "region": "서울",
      "district": "용산구",
      "dong": "",
      "type": "재개발",
      "stage": "의제처리구역",
      "stage_idx": 0,
      "lat": 37.53602367071087,
      "lng": 126.98278408734568,
      "area_m2": 8527,
      "units": 0,
      "contractor": "",
      "stage_date": "",
      "notes": "",
      "subway": "",
      "hangang": false,
      "completion_est": "",
      "ref_note": ""
    },
    {
      "id": "api_62",
      "name": "2구역",
      "region": "서울",
      "district": "용산구",
      "dong": "",
      "type": "재개발",
      "stage": "의제처리구역",
      "stage_idx": 0,
      "lat": 37.53812528674238,
      "lng": 126.97769951492641,
      "area_m2": 8705,
      "units": 0,
      "contractor": "",
      "stage_date": "",
      "notes": "",
      "subway": "",
      "hangang": false,
      "completion_est": "",
      "ref_note": ""
    },
    {
      "id": "api_64",
      "name": "강북3 재정비촉진구역",
      "region": "서울",
      "district": "강북구",
      "dong": "",
      "type": "재개발",
      "stage": "의제처리구역",
      "stage_idx": 0,
      "lat": 37.633441218029226,
      "lng": 127.03431052963813,
      "area_m2": 0,
      "units": 0,
      "contractor": "",
      "stage_date": "",
      "notes": "",
      "subway": "",
      "hangang": false,
      "completion_est": "",
      "ref_note": ""
    },
    {
      "id": "api_65",
      "name": "가락프라자아파트 주택재건축사업",
      "region": "서울",
      "district": "송파구",
      "dong": "",
      "type": "재개발",
      "stage": "의제처리구역",
      "stage_idx": 0,
      "lat": 37.50658603107183,
      "lng": 127.09704058233329,
      "area_m2": 45808,
      "units": 0,
      "contractor": "",
      "stage_date": "",
      "notes": "",
      "subway": "",
      "hangang": false,
      "completion_est": "",
      "ref_note": ""
    },
    {
      "id": "api_66",
      "name": "길음5재정비촉진구역(주택정비형재개발사업)",
      "region": "서울",
      "district": "성북구",
      "dong": "",
      "type": "재개발",
      "stage": "의제처리구역",
      "stage_idx": 0,
      "lat": 37.595222465109444,
      "lng": 127.01373359512706,
      "area_m2": 35388,
      "units": 0,
      "contractor": "",
      "stage_date": "",
      "notes": "",
      "subway": "",
      "hangang": false,
      "completion_est": "",
      "ref_note": ""
    },
    {
      "id": "api_67",
      "name": "홍은 제2주택재건축 정비구역",
      "region": "서울",
      "district": "서대문구",
      "dong": "",
      "type": "재개발",
      "stage": "의제처리구역",
      "stage_idx": 0,
      "lat": 37.58235541797213,
      "lng": 126.93302212586696,
      "area_m2": 34387,
      "units": 0,
      "contractor": "",
      "stage_date": "",
      "notes": "",
      "subway": "",
      "hangang": false,
      "completion_est": "",
      "ref_note": ""
    },
    {
      "id": "api_69",
      "name": "고척동 한효아파트 재건축정비구역 ",
      "region": "서울",
      "district": "구로구",
      "dong": "",
      "type": "재개발",
      "stage": "의제처리구역",
      "stage_idx": 0,
      "lat": 37.496327668624524,
      "lng": 126.88814202609265,
      "area_m2": 0,
      "units": 0,
      "contractor": "",
      "stage_date": "",
      "notes": "",
      "subway": "",
      "hangang": false,
      "completion_est": "",
      "ref_note": ""
    },
    {
      "id": "api_71",
      "name": "3구역",
      "region": "서울",
      "district": "용산구",
      "dong": "",
      "type": "재개발",
      "stage": "의제처리구역",
      "stage_idx": 0,
      "lat": 37.53287363295179,
      "lng": 126.98759466518175,
      "area_m2": 11961,
      "units": 0,
      "contractor": "",
      "stage_date": "",
      "notes": "",
      "subway": "",
      "hangang": false,
      "completion_est": "",
      "ref_note": ""
    },
    {
      "id": "api_72",
      "name": "노량진5재정비촉진구역",
      "region": "서울",
      "district": "동작구",
      "dong": "",
      "type": "재개발",
      "stage": "의제처리구역",
      "stage_idx": 0,
      "lat": 37.51500066933378,
      "lng": 126.94203823964261,
      "area_m2": 38017,
      "units": 0,
      "contractor": "",
      "stage_date": "",
      "notes": "",
      "subway": "",
      "hangang": false,
      "completion_est": "",
      "ref_note": ""
    },
    {
      "id": "api_73",
      "name": "노량진8재정비촉진구역",
      "region": "서울",
      "district": "동작구",
      "dong": "",
      "type": "재개발",
      "stage": "의제처리구역",
      "stage_idx": 0,
      "lat": 37.51475759642354,
      "lng": 126.93299261281922,
      "area_m2": 55742,
      "units": 0,
      "contractor": "",
      "stage_date": "",
      "notes": "",
      "subway": "",
      "hangang": false,
      "completion_est": "",
      "ref_note": ""
    },
    {
      "id": "api_75",
      "name": "문래동2가A 도시정비형  재개발구역 4지구",
      "region": "서울",
      "district": "영등포구",
      "dong": "",
      "type": "재개발",
      "stage": "의제처리구역",
      "stage_idx": 0,
      "lat": 37.52115027674551,
      "lng": 126.90445736073319,
      "area_m2": 3214,
      "units": 0,
      "contractor": "",
      "stage_date": "",
      "notes": "",
      "subway": "",
      "hangang": false,
      "completion_est": "",
      "ref_note": ""
    },
    {
      "id": "api_78",
      "name": "마포로3구역",
      "region": "서울",
      "district": "마포구",
      "dong": "",
      "type": "재개발",
      "stage": "의제처리구역",
      "stage_idx": 0,
      "lat": 37.57295356441306,
      "lng": 126.91290267250785,
      "area_m2": 40044,
      "units": 0,
      "contractor": "",
      "stage_date": "",
      "notes": "",
      "subway": "",
      "hangang": false,
      "completion_est": "",
      "ref_note": ""
    },
    {
      "id": "api_79",
      "name": "4-2지구",
      "region": "서울",
      "district": "마포구",
      "dong": "",
      "type": "재개발",
      "stage": "의제처리구역",
      "stage_idx": 0,
      "lat": 37.557702326708615,
      "lng": 126.8988159059433,
      "area_m2": 1192,
      "units": 0,
      "contractor": "",
      "stage_date": "",
      "notes": "",
      "subway": "",
      "hangang": false,
      "completion_est": "",
      "ref_note": ""
    },
    {
      "id": "api_80",
      "name": "흑석9재정비촉진구역",
      "region": "서울",
      "district": "동작구",
      "dong": "",
      "type": "재개발",
      "stage": "의제처리구역",
      "stage_idx": 0,
      "lat": 37.519618260609825,
      "lng": 126.94452758987086,
      "area_m2": 94577,
      "units": 0,
      "contractor": "",
      "stage_date": "",
      "notes": "",
      "subway": "",
      "hangang": false,
      "completion_est": "",
      "ref_note": ""
    },
    {
      "id": "api_81",
      "name": "문래동1가A 도시정비형 재개발구역",
      "region": "서울",
      "district": "영등포구",
      "dong": "",
      "type": "재개발",
      "stage": "의제처리구역",
      "stage_idx": 0,
      "lat": 37.51661711117941,
      "lng": 126.88938322432305,
      "area_m2": 45884,
      "units": 0,
      "contractor": "",
      "stage_date": "",
      "notes": "",
      "subway": "",
      "hangang": false,
      "completion_est": "",
      "ref_note": ""
    },
    {
      "id": "api_82",
      "name": "문래동1가B 도시정비형 재개발구역",
      "region": "서울",
      "district": "영등포구",
      "dong": "",
      "type": "재개발",
      "stage": "의제처리구역",
      "stage_idx": 0,
      "lat": 37.529009180067995,
      "lng": 126.90310908309057,
      "area_m2": 27878,
      "units": 0,
      "contractor": "",
      "stage_date": "",
      "notes": "",
      "subway": "",
      "hangang": false,
      "completion_est": "",
      "ref_note": ""
    },
    {
      "id": "api_83",
      "name": "신촌지역 마포4  도시정비형 재개발구역",
      "region": "서울",
      "district": "마포구",
      "dong": "",
      "type": "재개발",
      "stage": "의제처리구역",
      "stage_idx": 0,
      "lat": 37.559574176654415,
      "lng": 126.9139463539373,
      "area_m2": 50515,
      "units": 0,
      "contractor": "",
      "stage_date": "",
      "notes": "",
      "subway": "",
      "hangang": false,
      "completion_est": "",
      "ref_note": ""
    },
    {
      "id": "api_84",
      "name": "상봉10재정비촉진구역",
      "region": "서울",
      "district": "중랑구",
      "dong": "",
      "type": "재개발",
      "stage": "의제처리구역",
      "stage_idx": 0,
      "lat": 37.607944797553735,
      "lng": 127.08329242364063,
      "area_m2": 0,
      "units": 0,
      "contractor": "",
      "stage_date": "",
      "notes": "",
      "subway": "",
      "hangang": false,
      "completion_est": "",
      "ref_note": ""
    },
    {
      "id": "api_85",
      "name": "무교다동 11지구",
      "region": "서울",
      "district": "중구",
      "dong": "",
      "type": "재개발",
      "stage": "의제처리구역",
      "stage_idx": 0,
      "lat": 37.565655633587525,
      "lng": 127.00719883575624,
      "area_m2": 1370,
      "units": 0,
      "contractor": "",
      "stage_date": "",
      "notes": "",
      "subway": "",
      "hangang": false,
      "completion_est": "",
      "ref_note": ""
    },
    {
      "id": "api_86",
      "name": "무교다동 23-1지구",
      "region": "서울",
      "district": "중구",
      "dong": "",
      "type": "재개발",
      "stage": "의제처리구역",
      "stage_idx": 0,
      "lat": 37.57387598571969,
      "lng": 126.999074489308,
      "area_m2": 1330,
      "units": 0,
      "contractor": "",
      "stage_date": "",
      "notes": "",
      "subway": "",
      "hangang": false,
      "completion_est": "",
      "ref_note": ""
    },
    {
      "id": "api_87",
      "name": "무교다동 23-9지구 ",
      "region": "서울",
      "district": "중구",
      "dong": "",
      "type": "재개발",
      "stage": "의제처리구역",
      "stage_idx": 0,
      "lat": 37.55430009622586,
      "lng": 127.00398862936876,
      "area_m2": 1330,
      "units": 0,
      "contractor": "",
      "stage_date": "",
      "notes": "",
      "subway": "",
      "hangang": false,
      "completion_est": "",
      "ref_note": ""
    },
    {
      "id": "api_88",
      "name": "무교다동 24-6지구 ",
      "region": "서울",
      "district": "중구",
      "dong": "",
      "type": "재개발",
      "stage": "의제처리구역",
      "stage_idx": 0,
      "lat": 37.569595023813235,
      "lng": 127.00650109543083,
      "area_m2": 1353,
      "units": 0,
      "contractor": "",
      "stage_date": "",
      "notes": "",
      "subway": "",
      "hangang": false,
      "completion_est": "",
      "ref_note": ""
    },
    {
      "id": "api_89",
      "name": "무교다동 24-4지구 ",
      "region": "서울",
      "district": "중구",
      "dong": "",
      "type": "재개발",
      "stage": "의제처리구역",
      "stage_idx": 0,
      "lat": 37.56916101824845,
      "lng": 126.99683325891839,
      "area_m2": 1353,
      "units": 0,
      "contractor": "",
      "stage_date": "",
      "notes": "",
      "subway": "",
      "hangang": false,
      "completion_est": "",
      "ref_note": ""
    },
    {
      "id": "api_90",
      "name": "무교다동구역 제16지구",
      "region": "서울",
      "district": "중구",
      "dong": "",
      "type": "재개발",
      "stage": "의제처리구역",
      "stage_idx": 0,
      "lat": 37.5581191424073,
      "lng": 126.99222443013834,
      "area_m2": 2812,
      "units": 0,
      "contractor": "",
      "stage_date": "",
      "notes": "",
      "subway": "",
      "hangang": false,
      "completion_est": "",
      "ref_note": ""
    },
    {
      "id": "api_92",
      "name": "무교다동 24-2지구 ",
      "region": "서울",
      "district": "중구",
      "dong": "",
      "type": "재개발",
      "stage": "의제처리구역",
      "stage_idx": 0,
      "lat": 37.57017454726395,
      "lng": 126.99135480880364,
      "area_m2": 1353,
      "units": 0,
      "contractor": "",
      "stage_date": "",
      "notes": "",
      "subway": "",
      "hangang": false,
      "completion_est": "",
      "ref_note": ""
    },
    {
      "id": "api_93",
      "name": "무교다동 23-12지구 ",
      "region": "서울",
      "district": "중구",
      "dong": "",
      "type": "재개발",
      "stage": "의제처리구역",
      "stage_idx": 0,
      "lat": 37.55827254169069,
      "lng": 126.99416374074714,
      "area_m2": 1330,
      "units": 0,
      "contractor": "",
      "stage_date": "",
      "notes": "",
      "subway": "",
      "hangang": false,
      "completion_est": "",
      "ref_note": ""
    },
    {
      "id": "api_94",
      "name": "무교다동 22-3지구 ",
      "region": "서울",
      "district": "중구",
      "dong": "",
      "type": "재개발",
      "stage": "의제처리구역",
      "stage_idx": 0,
      "lat": 37.56935453006877,
      "lng": 126.99313142056165,
      "area_m2": 1057,
      "units": 0,
      "contractor": "",
      "stage_date": "",
      "notes": "",
      "subway": "",
      "hangang": false,
      "completion_est": "",
      "ref_note": ""
    },
    {
      "id": "api_95",
      "name": "무교다동 23-8지구 ",
      "region": "서울",
      "district": "중구",
      "dong": "",
      "type": "재개발",
      "stage": "의제처리구역",
      "stage_idx": 0,
      "lat": 37.56700104661684,
      "lng": 126.99715762550598,
      "area_m2": 1330,
      "units": 0,
      "contractor": "",
      "stage_date": "",
      "notes": "",
      "subway": "",
      "hangang": false,
      "completion_est": "",
      "ref_note": ""
    },
    {
      "id": "api_98",
      "name": "신정2재정비촉진구역",
      "region": "서울",
      "district": "양천구",
      "dong": "",
      "type": "재개발",
      "stage": "의제처리구역",
      "stage_idx": 0,
      "lat": 37.508218489944,
      "lng": 126.86784414652965,
      "area_m2": 105685,
      "units": 0,
      "contractor": "",
      "stage_date": "",
      "notes": "",
      "subway": "",
      "hangang": false,
      "completion_est": "",
      "ref_note": ""
    },
    {
      "id": "api_509",
      "name": "유원제일2차아파트 재건축정비사업",
      "region": "서울",
      "district": "영등포구",
      "dong": "",
      "type": "재개발",
      "stage": "의제처리구역",
      "stage_idx": 0,
      "lat": 37.53544502004674,
      "lng": 126.89311757053358,
      "area_m2": 28654,
      "units": 0,
      "contractor": "",
      "stage_date": "",
      "notes": "",
      "subway": "",
      "hangang": false,
      "completion_est": "",
      "ref_note": ""
    },
    {
      "id": "api_510",
      "name": "마포로1구역 제48지구 도시정비형 재개발사업 ",
      "region": "서울",
      "district": "마포구",
      "dong": "",
      "type": "재개발",
      "stage": "의제처리구역",
      "stage_idx": 0,
      "lat": 37.55889750816989,
      "lng": 126.91459642484051,
      "area_m2": 3802,
      "units": 0,
      "contractor": "",
      "stage_date": "",
      "notes": "",
      "subway": "",
      "hangang": false,
      "completion_est": "",
      "ref_note": ""
    },
    {
      "id": "api_511",
      "name": "흑석4재정비촉진구역",
      "region": "서울",
      "district": "동작구",
      "dong": "",
      "type": "재개발",
      "stage": "의제처리구역",
      "stage_idx": 0,
      "lat": 37.51912951545441,
      "lng": 126.92990895231702,
      "area_m2": 56622,
      "units": 0,
      "contractor": "",
      "stage_date": "",
      "notes": "",
      "subway": "",
      "hangang": false,
      "completion_est": "",
      "ref_note": ""
    },
    {
      "id": "api_512",
      "name": "주택재건축정비구역",
      "region": "서울",
      "district": "강동구",
      "dong": "",
      "type": "재개발",
      "stage": "의제처리구역",
      "stage_idx": 0,
      "lat": 37.52907900487882,
      "lng": 127.12413511143349,
      "area_m2": 12181,
      "units": 0,
      "contractor": "",
      "stage_date": "",
      "notes": "",
      "subway": "",
      "hangang": false,
      "completion_est": "",
      "ref_note": ""
    },
    {
      "id": "api_565",
      "name": "무교다동 8지구",
      "region": "서울",
      "district": "중구",
      "dong": "",
      "type": "재개발",
      "stage": "의제처리구역",
      "stage_idx": 0,
      "lat": 37.55610716950083,
      "lng": 127.00440284840828,
      "area_m2": 1386,
      "units": 0,
      "contractor": "",
      "stage_date": "",
      "notes": "",
      "subway": "",
      "hangang": false,
      "completion_est": "",
      "ref_note": ""
    },
    {
      "id": "api_566",
      "name": "무교다동 23-11지구 ",
      "region": "서울",
      "district": "중구",
      "dong": "",
      "type": "재개발",
      "stage": "의제처리구역",
      "stage_idx": 0,
      "lat": 37.5609529266156,
      "lng": 126.99403017762972,
      "area_m2": 1330,
      "units": 0,
      "contractor": "",
      "stage_date": "",
      "notes": "",
      "subway": "",
      "hangang": false,
      "completion_est": "",
      "ref_note": ""
    },
    {
      "id": "api_567",
      "name": "마포지역 도시환경 정비사업구역",
      "region": "서울",
      "district": "서대문구",
      "dong": "",
      "type": "재개발",
      "stage": "의제처리구역",
      "stage_idx": 0,
      "lat": 37.58649235593781,
      "lng": 126.94540758421063,
      "area_m2": 6244,
      "units": 0,
      "contractor": "",
      "stage_date": "",
      "notes": "",
      "subway": "",
      "hangang": false,
      "completion_est": "",
      "ref_note": ""
    },
    {
      "id": "api_568",
      "name": "신촌지역(마포)1-2지구 도시정비형 재개발구역",
      "region": "서울",
      "district": "마포구",
      "dong": "",
      "type": "재개발",
      "stage": "의제처리구역",
      "stage_idx": 0,
      "lat": 37.56718248156191,
      "lng": 126.91273035617883,
      "area_m2": 1427,
      "units": 0,
      "contractor": "",
      "stage_date": "",
      "notes": "",
      "subway": "",
      "hangang": false,
      "completion_est": "",
      "ref_note": ""
    },
    {
      "id": "api_569",
      "name": "사당3 재건축정비사업",
      "region": "서울",
      "district": "동작구",
      "dong": "",
      "type": "재개발",
      "stage": "의제처리구역",
      "stage_idx": 0,
      "lat": 37.50707333112161,
      "lng": 126.92976069751414,
      "area_m2": 30100,
      "units": 0,
      "contractor": "",
      "stage_date": "",
      "notes": "",
      "subway": "",
      "hangang": false,
      "completion_est": "",
      "ref_note": ""
    },
    {
      "id": "api_570",
      "name": "마포로5구역",
      "region": "서울",
      "district": "서대문구",
      "dong": "",
      "type": "재개발",
      "stage": "의제처리구역",
      "stage_idx": 0,
      "lat": 37.57267116487429,
      "lng": 126.93775252668235,
      "area_m2": 61194,
      "units": 0,
      "contractor": "",
      "stage_date": "",
      "notes": "",
      "subway": "",
      "hangang": false,
      "completion_est": "",
      "ref_note": ""
    },
    {
      "id": "api_571",
      "name": "마포로5-2",
      "region": "서울",
      "district": "서대문구",
      "dong": "",
      "type": "재개발",
      "stage": "의제처리구역",
      "stage_idx": 0,
      "lat": 37.58451582687363,
      "lng": 126.93873846658761,
      "area_m2": 4565,
      "units": 0,
      "contractor": "",
      "stage_date": "",
      "notes": "",
      "subway": "",
      "hangang": false,
      "completion_est": "",
      "ref_note": ""
    },
    {
      "id": "api_572",
      "name": "마포로5-3",
      "region": "서울",
      "district": "서대문구",
      "dong": "",
      "type": "재개발",
      "stage": "의제처리구역",
      "stage_idx": 0,
      "lat": 37.58664517448858,
      "lng": 126.93558493837962,
      "area_m2": 0,
      "units": 0,
      "contractor": "",
      "stage_date": "",
      "notes": "",
      "subway": "",
      "hangang": false,
      "completion_est": "",
      "ref_note": ""
    },
    {
      "id": "api_573",
      "name": "마포로5-3-1",
      "region": "서울",
      "district": "서대문구",
      "dong": "",
      "type": "재개발",
      "stage": "의제처리구역",
      "stage_idx": 0,
      "lat": 37.58766017900346,
      "lng": 126.93924637492492,
      "area_m2": 0,
      "units": 0,
      "contractor": "",
      "stage_date": "",
      "notes": "",
      "subway": "",
      "hangang": false,
      "completion_est": "",
      "ref_note": ""
    },
    {
      "id": "api_574",
      "name": "마포로5-4",
      "region": "서울",
      "district": "서대문구",
      "dong": "",
      "type": "재개발",
      "stage": "의제처리구역",
      "stage_idx": 0,
      "lat": 37.57759658044642,
      "lng": 126.93983780871254,
      "area_m2": 0,
      "units": 0,
      "contractor": "",
      "stage_date": "",
      "notes": "",
      "subway": "",
      "hangang": false,
      "completion_est": "",
      "ref_note": ""
    },
    {
      "id": "api_575",
      "name": "마포로5-8",
      "region": "서울",
      "district": "서대문구",
      "dong": "",
      "type": "재개발",
      "stage": "의제처리구역",
      "stage_idx": 0,
      "lat": 37.58403422622532,
      "lng": 126.93035306676096,
      "area_m2": 0,
      "units": 0,
      "contractor": "",
      "stage_date": "",
      "notes": "",
      "subway": "",
      "hangang": false,
      "completion_est": "",
      "ref_note": ""
    },
    {
      "id": "api_576",
      "name": "효창제6구역 주택재개발정비사업",
      "region": "서울",
      "district": "용산구",
      "dong": "",
      "type": "재개발",
      "stage": "의제처리구역",
      "stage_idx": 0,
      "lat": 37.52488231913738,
      "lng": 126.98250816158502,
      "area_m2": 18397,
      "units": 0,
      "contractor": "",
      "stage_date": "",
      "notes": "",
      "subway": "",
      "hangang": false,
      "completion_est": "",
      "ref_note": ""
    },
    {
      "id": "api_577",
      "name": "연신내구역 도시정비형 재개발사업",
      "region": "서울",
      "district": "은평구",
      "dong": "",
      "type": "재개발",
      "stage": "의제처리구역",
      "stage_idx": 0,
      "lat": 37.60516205618222,
      "lng": 126.93585468647652,
      "area_m2": 8699,
      "units": 0,
      "contractor": "",
      "stage_date": "",
      "notes": "",
      "subway": "",
      "hangang": false,
      "completion_est": "",
      "ref_note": ""
    },
    {
      "id": "api_578",
      "name": "잠실주공5단지아파트 재건축사업 정비구역",
      "region": "서울",
      "district": "송파구",
      "dong": "",
      "type": "재개발",
      "stage": "의제처리구역",
      "stage_idx": 0,
      "lat": 37.51825606245061,
      "lng": 127.09962432062221,
      "area_m2": 353987,
      "units": 0,
      "contractor": "",
      "stage_date": "",
      "notes": "",
      "subway": "",
      "hangang": false,
      "completion_est": "",
      "ref_note": ""
    },
    {
      "id": "api_579",
      "name": "잠실우성4차아파트주택재건축정비구역",
      "region": "서울",
      "district": "송파구",
      "dong": "",
      "type": "재개발",
      "stage": "의제처리구역",
      "stage_idx": 0,
      "lat": 37.50942204100566,
      "lng": 127.10443030798591,
      "area_m2": 31630,
      "units": 0,
      "contractor": "",
      "stage_date": "",
      "notes": "",
      "subway": "",
      "hangang": false,
      "completion_est": "",
      "ref_note": ""
    },
    {
      "id": "api_580",
      "name": "신촌지역(마포) 4-9지구 도시정비형 재개발구역 ",
      "region": "서울",
      "district": "마포구",
      "dong": "",
      "type": "재개발",
      "stage": "의제처리구역",
      "stage_idx": 0,
      "lat": 37.56553952762462,
      "lng": 126.90815685020569,
      "area_m2": 4827,
      "units": 0,
      "contractor": "",
      "stage_date": "",
      "notes": "",
      "subway": "",
      "hangang": false,
      "completion_est": "",
      "ref_note": ""
    },
    {
      "id": "api_581",
      "name": "미장세림아파트 주택재건축사업",
      "region": "서울",
      "district": "성동구",
      "dong": "",
      "type": "재개발",
      "stage": "의제처리구역",
      "stage_idx": 0,
      "lat": 37.55368086416905,
      "lng": 127.04173440543536,
      "area_m2": 0,
      "units": 0,
      "contractor": "",
      "stage_date": "",
      "notes": "",
      "subway": "",
      "hangang": false,
      "completion_est": "",
      "ref_note": ""
    },
    {
      "id": "api_582",
      "name": "청담삼익아파트 재건축사업",
      "region": "서울",
      "district": "강남구",
      "dong": "",
      "type": "재개발",
      "stage": "의제처리구역",
      "stage_idx": 0,
      "lat": 37.523359227017714,
      "lng": 127.04350398581057,
      "area_m2": 0,
      "units": 0,
      "contractor": "",
      "stage_date": "",
      "notes": "",
      "subway": "",
      "hangang": false,
      "completion_est": "",
      "ref_note": ""
    },
    {
      "id": "api_583",
      "name": "합정7재정비촉진구역",
      "region": "서울",
      "district": "마포구",
      "dong": "",
      "type": "재개발",
      "stage": "의제처리구역",
      "stage_idx": 0,
      "lat": 37.561845193918714,
      "lng": 126.90007481020031,
      "area_m2": 0,
      "units": 0,
      "contractor": "",
      "stage_date": "",
      "notes": "",
      "subway": "",
      "hangang": false,
      "completion_est": "",
      "ref_note": ""
    },
    {
      "id": "api_584",
      "name": "강동역 역세권 활성화 도시정비형 재개발 정비구역",
      "region": "서울",
      "district": "강동구",
      "dong": "",
      "type": "재개발",
      "stage": "의제처리구역",
      "stage_idx": 0,
      "lat": 37.523091321769584,
      "lng": 127.11650533811637,
      "area_m2": 0,
      "units": 0,
      "contractor": "",
      "stage_date": "",
      "notes": "",
      "subway": "",
      "hangang": false,
      "completion_est": "",
      "ref_note": ""
    },
    {
      "id": "api_585",
      "name": "여의도 공작아파트 재건축정비사업 ",
      "region": "서울",
      "district": "영등포구",
      "dong": "",
      "type": "재개발",
      "stage": "의제처리구역",
      "stage_idx": 0,
      "lat": 37.53097318459547,
      "lng": 126.8887823657036,
      "area_m2": 0,
      "units": 0,
      "contractor": "",
      "stage_date": "",
      "notes": "",
      "subway": "",
      "hangang": false,
      "completion_est": "",
      "ref_note": ""
    },
    {
      "id": "api_586",
      "name": "제기 제6구역 주택재개발정비구역",
      "region": "서울",
      "district": "동대문구",
      "dong": "",
      "type": "재개발",
      "stage": "의제처리구역",
      "stage_idx": 0,
      "lat": 37.56758385495074,
      "lng": 127.04379982544161,
      "area_m2": 24320,
      "units": 0,
      "contractor": "",
      "stage_date": "",
      "notes": "",
      "subway": "",
      "hangang": false,
      "completion_est": "",
      "ref_note": ""
    },
    {
      "id": "api_590",
      "name": "봉천제12-2 주택재개발정비사업",
      "region": "서울",
      "district": "관악구",
      "dong": "",
      "type": "재개발",
      "stage": "의제처리구역",
      "stage_idx": 0,
      "lat": 37.48792924349726,
      "lng": 126.95670502220074,
      "area_m2": 80917,
      "units": 0,
      "contractor": "",
      "stage_date": "",
      "notes": "",
      "subway": "",
      "hangang": false,
      "completion_est": "",
      "ref_note": ""
    },
    {
      "id": "api_599",
      "name": "공평구역",
      "region": "서울",
      "district": "종로구",
      "dong": "",
      "type": "재개발",
      "stage": "의제처리구역",
      "stage_idx": 0,
      "lat": 37.60010112020072,
      "lng": 126.97340822894726,
      "area_m2": 95028,
      "units": 0,
      "contractor": "",
      "stage_date": "",
      "notes": "",
      "subway": "",
      "hangang": false,
      "completion_est": "",
      "ref_note": ""
    },
    {
      "id": "api_600",
      "name": "공평구역<15.16지구>",
      "region": "서울",
      "district": "종로구",
      "dong": "",
      "type": "재개발",
      "stage": "의제처리구역",
      "stage_idx": 0,
      "lat": 37.59310274928226,
      "lng": 126.9798036049549,
      "area_m2": 12854,
      "units": 0,
      "contractor": "",
      "stage_date": "",
      "notes": "",
      "subway": "",
      "hangang": false,
      "completion_est": "",
      "ref_note": ""
    },
    {
      "id": "api_601",
      "name": "돈의문3재정비촉진구역",
      "region": "서울",
      "district": "종로구",
      "dong": "",
      "type": "재개발",
      "stage": "의제처리구역",
      "stage_idx": 0,
      "lat": 37.592093774126774,
      "lng": 126.98555542220322,
      "area_m2": 8844,
      "units": 0,
      "contractor": "",
      "stage_date": "",
      "notes": "",
      "subway": "",
      "hangang": false,
      "completion_est": "",
      "ref_note": ""
    },
    {
      "id": "api_618",
      "name": "영등포1-3재정비촉진구역",
      "region": "서울",
      "district": "영등포구",
      "dong": "",
      "type": "재개발",
      "stage": "의제처리구역",
      "stage_idx": 0,
      "lat": 37.52566143819326,
      "lng": 126.89991566361368,
      "area_m2": 8407,
      "units": 0,
      "contractor": "",
      "stage_date": "",
      "notes": "",
      "subway": "",
      "hangang": false,
      "completion_est": "",
      "ref_note": ""
    },
    {
      "id": "api_630",
      "name": "삼선제5구역 주택재개발 정비사업",
      "region": "서울",
      "district": "성북구",
      "dong": "",
      "type": "재개발",
      "stage": "의제처리구역",
      "stage_idx": 0,
      "lat": 37.595445208257104,
      "lng": 127.009484693881,
      "area_m2": 63780,
      "units": 0,
      "contractor": "",
      "stage_date": "",
      "notes": "",
      "subway": "",
      "hangang": false,
      "completion_est": "",
      "ref_note": ""
    },
    {
      "id": "api_631",
      "name": "영천구역 주택재개발정비구역",
      "region": "서울",
      "district": "서대문구",
      "dong": "",
      "type": "재개발",
      "stage": "의제처리구역",
      "stage_idx": 0,
      "lat": 37.57466761910636,
      "lng": 126.93125720761397,
      "area_m2": 11154,
      "units": 0,
      "contractor": "",
      "stage_date": "",
      "notes": "",
      "subway": "",
      "hangang": false,
      "completion_est": "",
      "ref_note": ""
    },
    {
      "id": "api_632",
      "name": "마포로5 도시정비형 재개발구역 9-1지구",
      "region": "서울",
      "district": "중구",
      "dong": "",
      "type": "재개발",
      "stage": "의제처리구역",
      "stage_idx": 0,
      "lat": 37.55542783275149,
      "lng": 126.99180857245736,
      "area_m2": 1936,
      "units": 0,
      "contractor": "",
      "stage_date": "",
      "notes": "",
      "subway": "",
      "hangang": false,
      "completion_est": "",
      "ref_note": ""
    },
    {
      "id": "api_633",
      "name": "수색4재정비촉진구역",
      "region": "서울",
      "district": "은평구",
      "dong": "",
      "type": "재개발",
      "stage": "의제처리구역",
      "stage_idx": 0,
      "lat": 37.59740954914788,
      "lng": 126.93410334217688,
      "area_m2": 61898,
      "units": 0,
      "contractor": "",
      "stage_date": "",
      "notes": "",
      "subway": "",
      "hangang": false,
      "completion_est": "",
      "ref_note": ""
    },
    {
      "id": "api_634",
      "name": "가락상아1차 아파트 재건축 정비사업",
      "region": "서울",
      "district": "송파구",
      "dong": "",
      "type": "재개발",
      "stage": "의제처리구역",
      "stage_idx": 0,
      "lat": 37.52391437487506,
      "lng": 127.1151521114545,
      "area_m2": 13580,
      "units": 0,
      "contractor": "",
      "stage_date": "",
      "notes": "",
      "subway": "",
      "hangang": false,
      "completion_est": "",
      "ref_note": ""
    },
    {
      "id": "api_635",
      "name": "오류동 현대연립 재건축 정비사업",
      "region": "서울",
      "district": "구로구",
      "dong": "",
      "type": "재개발",
      "stage": "의제처리구역",
      "stage_idx": 0,
      "lat": 37.49313248773146,
      "lng": 126.89354183032918,
      "area_m2": 23223,
      "units": 0,
      "contractor": "",
      "stage_date": "",
      "notes": "",
      "subway": "",
      "hangang": false,
      "completion_est": "",
      "ref_note": ""
    },
    {
      "id": "api_639",
      "name": "미아3 재정비촉진구역 ",
      "region": "서울",
      "district": "강북구",
      "dong": "",
      "type": "재개발",
      "stage": "의제처리구역",
      "stage_idx": 0,
      "lat": 37.63393283723725,
      "lng": 127.01977294748004,
      "area_m2": 57558,
      "units": 0,
      "contractor": "",
      "stage_date": "",
      "notes": "",
      "subway": "",
      "hangang": false,
      "completion_est": "",
      "ref_note": ""
    },
    {
      "id": "api_640",
      "name": "미아9-2 주택재건축정비사업",
      "region": "서울",
      "district": "강북구",
      "dong": "",
      "type": "재개발",
      "stage": "의제처리구역",
      "stage_idx": 0,
      "lat": 37.636123760237766,
      "lng": 127.01876921986575,
      "area_m2": 102518,
      "units": 0,
      "contractor": "",
      "stage_date": "",
      "notes": "",
      "subway": "",
      "hangang": false,
      "completion_est": "",
      "ref_note": ""
    },
    {
      "id": "api_641",
      "name": "거여2재정비촉진구역 (주택재개발사업)",
      "region": "서울",
      "district": "송파구",
      "dong": "",
      "type": "재개발",
      "stage": "의제처리구역",
      "stage_idx": 0,
      "lat": 37.515333771129065,
      "lng": 127.10903898815681,
      "area_m2": 160288,
      "units": 0,
      "contractor": "",
      "stage_date": "",
      "notes": "",
      "subway": "",
      "hangang": false,
      "completion_est": "",
      "ref_note": ""
    },
    {
      "id": "api_642",
      "name": "개봉5 주택재건축 정비구역",
      "region": "서울",
      "district": "구로구",
      "dong": "",
      "type": "재개발",
      "stage": "의제처리구역",
      "stage_idx": 0,
      "lat": 37.49969572005283,
      "lng": 126.88986732832184,
      "area_m2": 13099,
      "units": 0,
      "contractor": "",
      "stage_date": "",
      "notes": "",
      "subway": "",
      "hangang": false,
      "completion_est": "",
      "ref_note": ""
    },
    {
      "id": "api_643",
      "name": "대흥제2구역 주택재개발사업",
      "region": "서울",
      "district": "마포구",
      "dong": "",
      "type": "재개발",
      "stage": "의제처리구역",
      "stage_idx": 0,
      "lat": 37.55831868549681,
      "lng": 126.90861089847071,
      "area_m2": 61077,
      "units": 0,
      "contractor": "",
      "stage_date": "",
      "notes": "",
      "subway": "",
      "hangang": false,
      "completion_est": "",
      "ref_note": ""
    },
    {
      "id": "api_644",
      "name": "중앙동 새싹마을 관리형 주거환경개선사업",
      "region": "서울",
      "district": "관악구",
      "dong": "",
      "type": "재개발",
      "stage": "의제처리구역",
      "stage_idx": 0,
      "lat": 37.46963753002038,
      "lng": 126.94623542629621,
      "area_m2": 0,
      "units": 0,
      "contractor": "",
      "stage_date": "",
      "notes": "",
      "subway": "",
      "hangang": false,
      "completion_est": "",
      "ref_note": ""
    },
    {
      "id": "api_645",
      "name": "신수2 주택재건축 정비구역",
      "region": "서울",
      "district": "마포구",
      "dong": "",
      "type": "재개발",
      "stage": "의제처리구역",
      "stage_idx": 0,
      "lat": 37.56746899395787,
      "lng": 126.91182731551645,
      "area_m2": 17264,
      "units": 0,
      "contractor": "",
      "stage_date": "",
      "notes": "",
      "subway": "",
      "hangang": false,
      "completion_est": "",
      "ref_note": ""
    },
    {
      "id": "api_646",
      "name": "영등포1-13재정비촉진구역",
      "region": "서울",
      "district": "영등포구",
      "dong": "",
      "type": "재개발",
      "stage": "의제처리구역",
      "stage_idx": 0,
      "lat": 37.53097492506295,
      "lng": 126.90469496868215,
      "area_m2": 27049,
      "units": 0,
      "contractor": "",
      "stage_date": "",
      "notes": "",
      "subway": "",
      "hangang": false,
      "completion_est": "",
      "ref_note": ""
    },
    {
      "id": "api_647",
      "name": "서울역-서대문 1.2 도시정비형 재개발구역",
      "region": "서울",
      "district": "중구",
      "dong": "",
      "type": "재개발",
      "stage": "의제처리구역",
      "stage_idx": 0,
      "lat": 37.5561733195547,
      "lng": 126.9883185628175,
      "area_m2": 80719,
      "units": 0,
      "contractor": "",
      "stage_date": "",
      "notes": "",
      "subway": "",
      "hangang": false,
      "completion_est": "",
      "ref_note": ""
    },
    {
      "id": "api_648",
      "name": "서울역-서대문 1,2 ",
      "region": "서울",
      "district": "중구",
      "dong": "",
      "type": "재개발",
      "stage": "의제처리구역",
      "stage_idx": 0,
      "lat": 37.55990380519488,
      "lng": 127.00185379064173,
      "area_m2": 22029,
      "units": 0,
      "contractor": "",
      "stage_date": "",
      "notes": "",
      "subway": "",
      "hangang": false,
      "completion_est": "",
      "ref_note": ""
    },
    {
      "id": "api_649",
      "name": "서울역-서대문 1.2",
      "region": "서울",
      "district": "중구",
      "dong": "",
      "type": "재개발",
      "stage": "의제처리구역",
      "stage_idx": 0,
      "lat": 37.558842311876106,
      "lng": 126.99413709859319,
      "area_m2": 1109,
      "units": 0,
      "contractor": "",
      "stage_date": "",
      "notes": "",
      "subway": "",
      "hangang": false,
      "completion_est": "",
      "ref_note": ""
    },
    {
      "id": "api_650",
      "name": "서울역-서대문 1.2",
      "region": "서울",
      "district": "중구",
      "dong": "",
      "type": "재개발",
      "stage": "의제처리구역",
      "stage_idx": 0,
      "lat": 37.5639063422636,
      "lng": 126.99155337160022,
      "area_m2": 1109,
      "units": 0,
      "contractor": "",
      "stage_date": "",
      "notes": "",
      "subway": "",
      "hangang": false,
      "completion_est": "",
      "ref_note": ""
    },
    {
      "id": "api_651",
      "name": "서울역-서대문 1.2",
      "region": "서울",
      "district": "중구",
      "dong": "",
      "type": "재개발",
      "stage": "의제처리구역",
      "stage_idx": 0,
      "lat": 37.5627270028089,
      "lng": 126.9971330675433,
      "area_m2": 1109,
      "units": 0,
      "contractor": "",
      "stage_date": "",
      "notes": "",
      "subway": "",
      "hangang": false,
      "completion_est": "",
      "ref_note": ""
    },
    {
      "id": "api_716",
      "name": "서울역-서대문 1.2",
      "region": "서울",
      "district": "중구",
      "dong": "",
      "type": "재개발",
      "stage": "의제처리구역",
      "stage_idx": 0,
      "lat": 37.556286670338245,
      "lng": 126.990511969232,
      "area_m2": 6588,
      "units": 0,
      "contractor": "",
      "stage_date": "",
      "notes": "",
      "subway": "",
      "hangang": false,
      "completion_est": "",
      "ref_note": ""
    },
    {
      "id": "api_717",
      "name": "서울역-서대문 1.2구역 제1지구",
      "region": "서울",
      "district": "중구",
      "dong": "",
      "type": "재개발",
      "stage": "의제처리구역",
      "stage_idx": 0,
      "lat": 37.560685601408444,
      "lng": 127.00506014309332,
      "area_m2": 16316,
      "units": 0,
      "contractor": "",
      "stage_date": "",
      "notes": "",
      "subway": "",
      "hangang": false,
      "completion_est": "",
      "ref_note": ""
    },
    {
      "id": "api_718",
      "name": "영천구역 주택재개발정비구역",
      "region": "서울",
      "district": "서대문구",
      "dong": "",
      "type": "재개발",
      "stage": "의제처리구역",
      "stage_idx": 0,
      "lat": 37.5746143543041,
      "lng": 126.94523341459613,
      "area_m2": 10948,
      "units": 0,
      "contractor": "",
      "stage_date": "",
      "notes": "",
      "subway": "",
      "hangang": false,
      "completion_est": "",
      "ref_note": ""
    },
    {
      "id": "api_719",
      "name": "을지로2가 1.3.6.18",
      "region": "서울",
      "district": "중구",
      "dong": "",
      "type": "재개발",
      "stage": "의제처리구역",
      "stage_idx": 0,
      "lat": 37.562061418138335,
      "lng": 127.00106642320317,
      "area_m2": 0,
      "units": 0,
      "contractor": "",
      "stage_date": "",
      "notes": "",
      "subway": "",
      "hangang": false,
      "completion_est": "",
      "ref_note": ""
    },
    {
      "id": "api_720",
      "name": "을지로2가 2",
      "region": "서울",
      "district": "중구",
      "dong": "",
      "type": "재개발",
      "stage": "의제처리구역",
      "stage_idx": 0,
      "lat": 37.55992303173756,
      "lng": 126.9997440925105,
      "area_m2": 3473,
      "units": 0,
      "contractor": "",
      "stage_date": "",
      "notes": "",
      "subway": "",
      "hangang": false,
      "completion_est": "",
      "ref_note": ""
    },
    {
      "id": "api_721",
      "name": "을지로2가 18-1",
      "region": "서울",
      "district": "중구",
      "dong": "",
      "type": "재개발",
      "stage": "의제처리구역",
      "stage_idx": 0,
      "lat": 37.565240418830726,
      "lng": 127.00503377179861,
      "area_m2": 1477,
      "units": 0,
      "contractor": "",
      "stage_date": "",
      "notes": "",
      "subway": "",
      "hangang": false,
      "completion_est": "",
      "ref_note": ""
    },
    {
      "id": "api_722",
      "name": "을지로2가 18-2",
      "region": "서울",
      "district": "중구",
      "dong": "",
      "type": "재개발",
      "stage": "의제처리구역",
      "stage_idx": 0,
      "lat": 37.55728353292915,
      "lng": 127.00332985490003,
      "area_m2": 1477,
      "units": 0,
      "contractor": "",
      "stage_date": "",
      "notes": "",
      "subway": "",
      "hangang": false,
      "completion_est": "",
      "ref_note": ""
    },
    {
      "id": "api_857",
      "name": "주택재개발사업",
      "region": "서울",
      "district": "동작구",
      "dong": "",
      "type": "재개발",
      "stage": "의제처리구역",
      "stage_idx": 0,
      "lat": 37.51963857210572,
      "lng": 126.94598273877986,
      "area_m2": 35303,
      "units": 0,
      "contractor": "",
      "stage_date": "",
      "notes": "",
      "subway": "",
      "hangang": false,
      "completion_est": "",
      "ref_note": ""
    },
    {
      "id": "api_864",
      "name": "상아.현대아파트 주택재건축사업",
      "region": "서울",
      "district": "영등포구",
      "dong": "",
      "type": "재개발",
      "stage": "의제처리구역",
      "stage_idx": 0,
      "lat": 37.533975041858405,
      "lng": 126.88868300155258,
      "area_m2": 29428,
      "units": 0,
      "contractor": "",
      "stage_date": "",
      "notes": "",
      "subway": "",
      "hangang": false,
      "completion_est": "",
      "ref_note": ""
    },
    {
      "id": "api_865",
      "name": "남구로역세권 공공임대주택 도시정비형 재개발정비구역",
      "region": "서울",
      "district": "구로구",
      "dong": "",
      "type": "재개발",
      "stage": "의제처리구역",
      "stage_idx": 0,
      "lat": 37.49523316068486,
      "lng": 126.89546340575461,
      "area_m2": 0,
      "units": 0,
      "contractor": "",
      "stage_date": "",
      "notes": "",
      "subway": "",
      "hangang": false,
      "completion_est": "",
      "ref_note": ""
    },
    {
      "id": "api_867",
      "name": "국화아파트 재건축정비구역",
      "region": "서울",
      "district": "영등포구",
      "dong": "",
      "type": "재개발",
      "stage": "의제처리구역",
      "stage_idx": 0,
      "lat": 37.533672947289226,
      "lng": 126.9040670550881,
      "area_m2": 0,
      "units": 0,
      "contractor": "",
      "stage_date": "",
      "notes": "",
      "subway": "",
      "hangang": false,
      "completion_est": "",
      "ref_note": ""
    },
    {
      "id": "api_869",
      "name": "서울역-서대문 1.2",
      "region": "서울",
      "district": "중구",
      "dong": "",
      "type": "재개발",
      "stage": "의제처리구역",
      "stage_idx": 0,
      "lat": 37.567242124787384,
      "lng": 126.99445871902009,
      "area_m2": 1109,
      "units": 0,
      "contractor": "",
      "stage_date": "",
      "notes": "",
      "subway": "",
      "hangang": false,
      "completion_est": "",
      "ref_note": ""
    },
    {
      "id": "api_870",
      "name": "문래동2·3가B 도시정비형 재개발구역 ",
      "region": "서울",
      "district": "영등포구",
      "dong": "",
      "type": "재개발",
      "stage": "의제처리구역",
      "stage_idx": 0,
      "lat": 37.53547788746581,
      "lng": 126.8953589355296,
      "area_m2": 0,
      "units": 0,
      "contractor": "",
      "stage_date": "",
      "notes": "",
      "subway": "",
      "hangang": false,
      "completion_est": "",
      "ref_note": ""
    },
    {
      "id": "api_874",
      "name": "서소문5",
      "region": "서울",
      "district": "중구",
      "dong": "",
      "type": "재개발",
      "stage": "의제처리구역",
      "stage_idx": 0,
      "lat": 37.555343707027454,
      "lng": 126.9991713740737,
      "area_m2": 2917,
      "units": 0,
      "contractor": "",
      "stage_date": "",
      "notes": "",
      "subway": "",
      "hangang": false,
      "completion_est": "",
      "ref_note": ""
    },
    {
      "id": "api_875",
      "name": "서소문6",
      "region": "서울",
      "district": "중구",
      "dong": "",
      "type": "재개발",
      "stage": "의제처리구역",
      "stage_idx": 0,
      "lat": 37.57001822226001,
      "lng": 126.98915859330971,
      "area_m2": 2594,
      "units": 0,
      "contractor": "",
      "stage_date": "",
      "notes": "",
      "subway": "",
      "hangang": false,
      "completion_est": "",
      "ref_note": ""
    },
    {
      "id": "api_876",
      "name": "서소문8-1",
      "region": "서울",
      "district": "중구",
      "dong": "",
      "type": "재개발",
      "stage": "의제처리구역",
      "stage_idx": 0,
      "lat": 37.57030164175275,
      "lng": 126.99763257455912,
      "area_m2": 694,
      "units": 0,
      "contractor": "",
      "stage_date": "",
      "notes": "",
      "subway": "",
      "hangang": false,
      "completion_est": "",
      "ref_note": ""
    },
    {
      "id": "api_877",
      "name": "서소문8-2",
      "region": "서울",
      "district": "중구",
      "dong": "",
      "type": "재개발",
      "stage": "의제처리구역",
      "stage_idx": 0,
      "lat": 37.5554775077679,
      "lng": 126.99141929486025,
      "area_m2": 1208,
      "units": 0,
      "contractor": "",
      "stage_date": "",
      "notes": "",
      "subway": "",
      "hangang": false,
      "completion_est": "",
      "ref_note": ""
    },
    {
      "id": "api_878",
      "name": "서소문9",
      "region": "서울",
      "district": "중구",
      "dong": "",
      "type": "재개발",
      "stage": "의제처리구역",
      "stage_idx": 0,
      "lat": 37.56150151973502,
      "lng": 127.00186421373868,
      "area_m2": 4253,
      "units": 0,
      "contractor": "",
      "stage_date": "",
      "notes": "",
      "subway": "",
      "hangang": false,
      "completion_est": "",
      "ref_note": ""
    },
    {
      "id": "api_895",
      "name": "신길우성2차·우창아파트 재건축 정비사업",
      "region": "서울",
      "district": "영등포구",
      "dong": "",
      "type": "재개발",
      "stage": "의제처리구역",
      "stage_idx": 0,
      "lat": 37.52283319998332,
      "lng": 126.90185080000458,
      "area_m2": 0,
      "units": 0,
      "contractor": "",
      "stage_date": "",
      "notes": "",
      "subway": "",
      "hangang": false,
      "completion_est": "",
      "ref_note": ""
    },
    {
      "id": "api_896",
      "name": "제기 도시정비형 재개발구역",
      "region": "서울",
      "district": "동대문구",
      "dong": "",
      "type": "재개발",
      "stage": "의제처리구역",
      "stage_idx": 0,
      "lat": 37.582693356998135,
      "lng": 127.03098942670486,
      "area_m2": 124640,
      "units": 0,
      "contractor": "",
      "stage_date": "",
      "notes": "",
      "subway": "",
      "hangang": false,
      "completion_est": "",
      "ref_note": ""
    },
    {
      "id": "api_898",
      "name": "신정1재정비촉진구역",
      "region": "서울",
      "district": "양천구",
      "dong": "",
      "type": "재개발",
      "stage": "의제처리구역",
      "stage_idx": 0,
      "lat": 37.526492423482956,
      "lng": 126.86369781080013,
      "area_m2": 254260,
      "units": 0,
      "contractor": "",
      "stage_date": "",
      "notes": "",
      "subway": "",
      "hangang": false,
      "completion_est": "",
      "ref_note": ""
    },
    {
      "id": "api_899",
      "name": "천왕역세권 공공임대주택 건립관련 도시환경정비사업",
      "region": "서울",
      "district": "구로구",
      "dong": "",
      "type": "재개발",
      "stage": "의제처리구역",
      "stage_idx": 0,
      "lat": 37.48964004452203,
      "lng": 126.88007587968544,
      "area_m2": 10451,
      "units": 0,
      "contractor": "",
      "stage_date": "",
      "notes": "",
      "subway": "",
      "hangang": false,
      "completion_est": "",
      "ref_note": ""
    },
    {
      "id": "api_900",
      "name": "둔촌동 삼익빌라 주택재건축정비사업",
      "region": "서울",
      "district": "강동구",
      "dong": "",
      "type": "재개발",
      "stage": "의제처리구역",
      "stage_idx": 0,
      "lat": 37.53833411692324,
      "lng": 127.11556350076661,
      "area_m2": 9914,
      "units": 0,
      "contractor": "",
      "stage_date": "",
      "notes": "",
      "subway": "",
      "hangang": false,
      "completion_est": "",
      "ref_note": ""
    },
    {
      "id": "api_901",
      "name": "면목3 주택재건축구역",
      "region": "서울",
      "district": "중랑구",
      "dong": "",
      "type": "재개발",
      "stage": "의제처리구역",
      "stage_idx": 0,
      "lat": 37.60362234150924,
      "lng": 127.09396980999686,
      "area_m2": 68255,
      "units": 0,
      "contractor": "",
      "stage_date": "",
      "notes": "",
      "subway": "",
      "hangang": false,
      "completion_est": "",
      "ref_note": ""
    },
    {
      "id": "api_902",
      "name": "이문1재정비촉진구역",
      "region": "서울",
      "district": "동대문구",
      "dong": "",
      "type": "재개발",
      "stage": "의제처리구역",
      "stage_idx": 0,
      "lat": 37.57266553284511,
      "lng": 127.04323741933796,
      "area_m2": 144964,
      "units": 0,
      "contractor": "",
      "stage_date": "",
      "notes": "",
      "subway": "",
      "hangang": false,
      "completion_est": "",
      "ref_note": ""
    },
    {
      "id": "api_903",
      "name": "이문3(3-1) 재정비촉진구역",
      "region": "서울",
      "district": "동대문구",
      "dong": "",
      "type": "재개발",
      "stage": "의제처리구역",
      "stage_idx": 0,
      "lat": 37.5676697223223,
      "lng": 127.03976311176031,
      "area_m2": 133505,
      "units": 0,
      "contractor": "",
      "stage_date": "",
      "notes": "",
      "subway": "",
      "hangang": false,
      "completion_est": "",
      "ref_note": ""
    },
    {
      "id": "api_905",
      "name": "장위10구역 ",
      "region": "서울",
      "district": "성북구",
      "dong": "",
      "type": "재개발",
      "stage": "의제처리구역",
      "stage_idx": 0,
      "lat": 37.59419953065575,
      "lng": 127.01801156601955,
      "area_m2": 94072,
      "units": 0,
      "contractor": "",
      "stage_date": "",
      "notes": "",
      "subway": "",
      "hangang": false,
      "completion_est": "",
      "ref_note": ""
    },
    {
      "id": "api_906",
      "name": "오류2동 147번지 일대 주거환경관리 정비구역 ",
      "region": "서울",
      "district": "구로구",
      "dong": "",
      "type": "재개발",
      "stage": "의제처리구역",
      "stage_idx": 0,
      "lat": 37.503050882716146,
      "lng": 126.88161814267384,
      "area_m2": 178630,
      "units": 0,
      "contractor": "",
      "stage_date": "",
      "notes": "",
      "subway": "",
      "hangang": false,
      "completion_est": "",
      "ref_note": ""
    },
    {
      "id": "api_907",
      "name": "신길10재정비촉진구역",
      "region": "서울",
      "district": "영등포구",
      "dong": "",
      "type": "재개발",
      "stage": "의제처리구역",
      "stage_idx": 0,
      "lat": 37.52680171443634,
      "lng": 126.89883084493322,
      "area_m2": 32234,
      "units": 0,
      "contractor": "",
      "stage_date": "",
      "notes": "",
      "subway": "",
      "hangang": false,
      "completion_est": "",
      "ref_note": ""
    },
    {
      "id": "api_908",
      "name": "신문로제2구역 제8지구 도시정비형 재개발사업",
      "region": "서울",
      "district": "종로구",
      "dong": "",
      "type": "재개발",
      "stage": "의제처리구역",
      "stage_idx": 0,
      "lat": 37.587273447915564,
      "lng": 126.98261445001735,
      "area_m2": 7052,
      "units": 0,
      "contractor": "",
      "stage_date": "",
      "notes": "",
      "subway": "",
      "hangang": false,
      "completion_est": "",
      "ref_note": ""
    },
    {
      "id": "api_909",
      "name": "홍은제14 주택재개발정비구역",
      "region": "서울",
      "district": "서대문구",
      "dong": "",
      "type": "재개발",
      "stage": "의제처리구역",
      "stage_idx": 0,
      "lat": 37.57190055935156,
      "lng": 126.94626259366973,
      "area_m2": 22882,
      "units": 0,
      "contractor": "",
      "stage_date": "",
      "notes": "",
      "subway": "",
      "hangang": false,
      "completion_est": "",
      "ref_note": ""
    },
    {
      "id": "api_910",
      "name": "상봉7재정비촉진구역",
      "region": "서울",
      "district": "중랑구",
      "dong": "",
      "type": "재개발",
      "stage": "의제처리구역",
      "stage_idx": 0,
      "lat": 37.59678922983745,
      "lng": 127.0999474034311,
      "area_m2": 14990,
      "units": 0,
      "contractor": "",
      "stage_date": "",
      "notes": "",
      "subway": "",
      "hangang": false,
      "completion_est": "",
      "ref_note": ""
    },
    {
      "id": "api_935",
      "name": "순화 도시정비형 재개발구역",
      "region": "서울",
      "district": "중구",
      "dong": "",
      "type": "재개발",
      "stage": "의제처리구역",
      "stage_idx": 0,
      "lat": 37.560304349087076,
      "lng": 127.00310897472639,
      "area_m2": 15092,
      "units": 0,
      "contractor": "",
      "stage_date": "",
      "notes": "",
      "subway": "",
      "hangang": false,
      "completion_est": "",
      "ref_note": ""
    },
    {
      "id": "api_936",
      "name": "순화 도시정비형 재개발구역 제1-2지구",
      "region": "서울",
      "district": "중구",
      "dong": "",
      "type": "재개발",
      "stage": "의제처리구역",
      "stage_idx": 0,
      "lat": 37.573261719014084,
      "lng": 126.999405593403,
      "area_m2": 1979,
      "units": 0,
      "contractor": "",
      "stage_date": "",
      "notes": "",
      "subway": "",
      "hangang": false,
      "completion_est": "",
      "ref_note": ""
    },
    {
      "id": "api_937",
      "name": "삼선제5구역 주택재개발 정비사업",
      "region": "서울",
      "district": "성북구",
      "dong": "",
      "type": "재개발",
      "stage": "의제처리구역",
      "stage_idx": 0,
      "lat": 37.5881911393356,
      "lng": 127.01253485284283,
      "area_m2": 63936,
      "units": 0,
      "contractor": "",
      "stage_date": "",
      "notes": "",
      "subway": "",
      "hangang": false,
      "completion_est": "",
      "ref_note": ""
    },
    {
      "id": "api_938",
      "name": "동선제2구역 주택재개발정비사업",
      "region": "서울",
      "district": "성북구",
      "dong": "",
      "type": "재개발",
      "stage": "의제처리구역",
      "stage_idx": 0,
      "lat": 37.59613374872743,
      "lng": 127.01765080391232,
      "area_m2": 15637,
      "units": 0,
      "contractor": "",
      "stage_date": "",
      "notes": "",
      "subway": "",
      "hangang": false,
      "completion_est": "",
      "ref_note": ""
    },
    {
      "id": "api_940",
      "name": "이문1재정비촉진구역",
      "region": "서울",
      "district": "동대문구",
      "dong": "",
      "type": "재개발",
      "stage": "의제처리구역",
      "stage_idx": 0,
      "lat": 37.582592848439965,
      "lng": 127.04723276439381,
      "area_m2": 144856,
      "units": 0,
      "contractor": "",
      "stage_date": "",
      "notes": "",
      "subway": "",
      "hangang": false,
      "completion_est": "",
      "ref_note": ""
    },
    {
      "id": "api_941",
      "name": "잠실진주아파트 재건축사업",
      "region": "서울",
      "district": "송파구",
      "dong": "",
      "type": "재개발",
      "stage": "의제처리구역",
      "stage_idx": 0,
      "lat": 37.52101951759992,
      "lng": 127.10161210978714,
      "area_m2": 112558,
      "units": 0,
      "contractor": "",
      "stage_date": "",
      "notes": "",
      "subway": "",
      "hangang": false,
      "completion_est": "",
      "ref_note": ""
    },
    {
      "id": "api_942",
      "name": "신촌지역(서대문)도시정비형 재개발구역",
      "region": "서울",
      "district": "서대문구",
      "dong": "",
      "type": "재개발",
      "stage": "의제처리구역",
      "stage_idx": 0,
      "lat": 37.57655208932737,
      "lng": 126.93397158389097,
      "area_m2": 4597,
      "units": 0,
      "contractor": "",
      "stage_date": "",
      "notes": "",
      "subway": "",
      "hangang": false,
      "completion_est": "",
      "ref_note": ""
    },
    {
      "id": "api_943",
      "name": "문래동1가A 도시정비형 재개발구역 ",
      "region": "서울",
      "district": "영등포구",
      "dong": "",
      "type": "재개발",
      "stage": "의제처리구역",
      "stage_idx": 0,
      "lat": 37.52186724849265,
      "lng": 126.8965934516537,
      "area_m2": 0,
      "units": 0,
      "contractor": "",
      "stage_date": "",
      "notes": "",
      "subway": "",
      "hangang": false,
      "completion_est": "",
      "ref_note": ""
    },
    {
      "id": "api_944",
      "name": "문래동1가B 도시정비형 재개발구역 ",
      "region": "서울",
      "district": "영등포구",
      "dong": "",
      "type": "재개발",
      "stage": "의제처리구역",
      "stage_idx": 0,
      "lat": 37.53487282115287,
      "lng": 126.90325760343774,
      "area_m2": 0,
      "units": 0,
      "contractor": "",
      "stage_date": "",
      "notes": "",
      "subway": "",
      "hangang": false,
      "completion_est": "",
      "ref_note": ""
    },
    {
      "id": "api_964",
      "name": "문래동2가A 도시정비형 재개발구역 ",
      "region": "서울",
      "district": "영등포구",
      "dong": "",
      "type": "재개발",
      "stage": "의제처리구역",
      "stage_idx": 0,
      "lat": 37.52470298724029,
      "lng": 126.89665714469918,
      "area_m2": 0,
      "units": 0,
      "contractor": "",
      "stage_date": "",
      "notes": "",
      "subway": "",
      "hangang": false,
      "completion_est": "",
      "ref_note": ""
    },
    {
      "id": "api_965",
      "name": "문래동2가B 도시정비형 재개발구역 ",
      "region": "서울",
      "district": "영등포구",
      "dong": "",
      "type": "재개발",
      "stage": "의제처리구역",
      "stage_idx": 0,
      "lat": 37.53097764443767,
      "lng": 126.89253016496379,
      "area_m2": 0,
      "units": 0,
      "contractor": "",
      "stage_date": "",
      "notes": "",
      "subway": "",
      "hangang": false,
      "completion_est": "",
      "ref_note": ""
    },
    {
      "id": "api_966",
      "name": "문래동4가 도시환경정비구역",
      "region": "서울",
      "district": "영등포구",
      "dong": "",
      "type": "재개발",
      "stage": "의제처리구역",
      "stage_idx": 0,
      "lat": 37.53125694201662,
      "lng": 126.89565540936357,
      "area_m2": 94087,
      "units": 0,
      "contractor": "",
      "stage_date": "",
      "notes": "",
      "subway": "",
      "hangang": false,
      "completion_est": "",
      "ref_note": ""
    },
    {
      "id": "api_967",
      "name": "북아현2 재정비촉진구역 ",
      "region": "서울",
      "district": "서대문구",
      "dong": "",
      "type": "재개발",
      "stage": "의제처리구역",
      "stage_idx": 0,
      "lat": 37.57513269579703,
      "lng": 126.93435446755018,
      "area_m2": 124270,
      "units": 0,
      "contractor": "",
      "stage_date": "",
      "notes": "",
      "subway": "",
      "hangang": false,
      "completion_est": "",
      "ref_note": ""
    },
    {
      "id": "api_968",
      "name": "효창제6구역주택재개발정비사업",
      "region": "서울",
      "district": "용산구",
      "dong": "",
      "type": "재개발",
      "stage": "의제처리구역",
      "stage_idx": 0,
      "lat": 37.52882558996109,
      "lng": 126.98391919442419,
      "area_m2": 18171,
      "units": 0,
      "contractor": "",
      "stage_date": "",
      "notes": "",
      "subway": "",
      "hangang": false,
      "completion_est": "",
      "ref_note": ""
    },
    {
      "id": "api_969",
      "name": "방화5재정비촉진구역 (주택재건축사업) ",
      "region": "서울",
      "district": "강서구",
      "dong": "",
      "type": "재개발",
      "stage": "의제처리구역",
      "stage_idx": 0,
      "lat": 37.54858270921575,
      "lng": 126.85824912097544,
      "area_m2": 99520,
      "units": 0,
      "contractor": "",
      "stage_date": "",
      "notes": "",
      "subway": "",
      "hangang": false,
      "completion_est": "",
      "ref_note": ""
    },
    {
      "id": "api_971",
      "name": "수색4재정비촉진구역(주택재개발사업)",
      "region": "서울",
      "district": "은평구",
      "dong": "",
      "type": "재개발",
      "stage": "의제처리구역",
      "stage_idx": 0,
      "lat": 37.60752340134425,
      "lng": 126.93215297128783,
      "area_m2": 61889,
      "units": 0,
      "contractor": "",
      "stage_date": "",
      "notes": "",
      "subway": "",
      "hangang": false,
      "completion_est": "",
      "ref_note": ""
    },
    {
      "id": "api_972",
      "name": "가재울6 재정비촉진구역",
      "region": "서울",
      "district": "서대문구",
      "dong": "",
      "type": "재개발",
      "stage": "의제처리구역",
      "stage_idx": 0,
      "lat": 37.57391113477235,
      "lng": 126.92788196398737,
      "area_m2": 48084,
      "units": 0,
      "contractor": "",
      "stage_date": "",
      "notes": "",
      "subway": "",
      "hangang": false,
      "completion_est": "",
      "ref_note": ""
    },
    {
      "id": "api_987",
      "name": "도시정비형 재개발사업구역",
      "region": "서울",
      "district": "중구",
      "dong": "",
      "type": "재개발",
      "stage": "의제처리구역",
      "stage_idx": 0,
      "lat": 37.554905411896264,
      "lng": 126.9991825193255,
      "area_m2": 2918,
      "units": 0,
      "contractor": "",
      "stage_date": "",
      "notes": "",
      "subway": "",
      "hangang": false,
      "completion_est": "",
      "ref_note": ""
    },
    {
      "id": "api_990",
      "name": "중구 다산권 성곽마을 관리형 주거환경개선사업",
      "region": "서울",
      "district": "중구",
      "dong": "",
      "type": "재개발",
      "stage": "의제처리구역",
      "stage_idx": 0,
      "lat": 37.56847637599307,
      "lng": 126.99107488671096,
      "area_m2": 0,
      "units": 0,
      "contractor": "",
      "stage_date": "",
      "notes": "",
      "subway": "",
      "hangang": false,
      "completion_est": "",
      "ref_note": ""
    },
    {
      "id": "api_991",
      "name": "서울특별시 마포구 창전동 27-19호 일대",
      "region": "서울",
      "district": "마포구",
      "dong": "",
      "type": "재개발",
      "stage": "의제처리구역",
      "stage_idx": 0,
      "lat": 37.56609786879057,
      "lng": 126.91216763868356,
      "area_m2": 14770,
      "units": 0,
      "contractor": "",
      "stage_date": "",
      "notes": "",
      "subway": "",
      "hangang": false,
      "completion_est": "",
      "ref_note": ""
    },
    {
      "id": "api_1013",
      "name": "개포시영아파트 중심상가재건축정비사업",
      "region": "서울",
      "district": "강남구",
      "dong": "",
      "type": "재개발",
      "stage": "의제처리구역",
      "stage_idx": 0,
      "lat": 37.523598534487434,
      "lng": 127.05503024230026,
      "area_m2": 0,
      "units": 0,
      "contractor": "",
      "stage_date": "",
      "notes": "",
      "subway": "",
      "hangang": false,
      "completion_est": "",
      "ref_note": ""
    },
    {
      "id": "api_1016",
      "name": "국제빌딩주변 도시정비형 재개발구역",
      "region": "서울",
      "district": "용산구",
      "dong": "",
      "type": "재개발",
      "stage": "의제처리구역",
      "stage_idx": 0,
      "lat": 37.53724959476175,
      "lng": 126.97505842925507,
      "area_m2": 109965,
      "units": 0,
      "contractor": "",
      "stage_date": "",
      "notes": "",
      "subway": "",
      "hangang": false,
      "completion_est": "",
      "ref_note": ""
    },
    {
      "id": "api_1017",
      "name": "4구역",
      "region": "서울",
      "district": "용산구",
      "dong": "",
      "type": "재개발",
      "stage": "의제처리구역",
      "stage_idx": 0,
      "lat": 37.52486019640405,
      "lng": 126.97252291877508,
      "area_m2": 53066,
      "units": 0,
      "contractor": "",
      "stage_date": "",
      "notes": "",
      "subway": "",
      "hangang": false,
      "completion_est": "",
      "ref_note": ""
    },
    {
      "id": "api_1018",
      "name": "응암제11구역 주택재개발정비사업",
      "region": "서울",
      "district": "은평구",
      "dong": "",
      "type": "재개발",
      "stage": "의제처리구역",
      "stage_idx": 0,
      "lat": 37.60164817443658,
      "lng": 126.92840212538134,
      "area_m2": 36242,
      "units": 0,
      "contractor": "",
      "stage_date": "",
      "notes": "",
      "subway": "",
      "hangang": false,
      "completion_est": "",
      "ref_note": ""
    },
    {
      "id": "api_1020",
      "name": "서소문8-3",
      "region": "서울",
      "district": "중구",
      "dong": "",
      "type": "재개발",
      "stage": "의제처리구역",
      "stage_idx": 0,
      "lat": 37.5588745876933,
      "lng": 127.00562701182328,
      "area_m2": 1172,
      "units": 0,
      "contractor": "",
      "stage_date": "",
      "notes": "",
      "subway": "",
      "hangang": false,
      "completion_est": "",
      "ref_note": ""
    },
    {
      "id": "api_1021",
      "name": "갈현제1구역 주택재개발정비사업",
      "region": "서울",
      "district": "은평구",
      "dong": "",
      "type": "재개발",
      "stage": "의제처리구역",
      "stage_idx": 0,
      "lat": 37.60914170286148,
      "lng": 126.92525881800219,
      "area_m2": 238850,
      "units": 0,
      "contractor": "",
      "stage_date": "",
      "notes": "",
      "subway": "",
      "hangang": false,
      "completion_est": "",
      "ref_note": ""
    },
    {
      "id": "api_1022",
      "name": "용답동 108-1번지 일대 주택재개발정비사업",
      "region": "서울",
      "district": "성동구",
      "dong": "",
      "type": "재개발",
      "stage": "의제처리구역",
      "stage_idx": 0,
      "lat": 37.560095701659186,
      "lng": 127.03298553927675,
      "area_m2": 73341,
      "units": 0,
      "contractor": "",
      "stage_date": "",
      "notes": "",
      "subway": "",
      "hangang": false,
      "completion_est": "",
      "ref_note": ""
    },
    {
      "id": "api_1023",
      "name": "노량진6재정비촉진구역 ",
      "region": "서울",
      "district": "동작구",
      "dong": "",
      "type": "재개발",
      "stage": "의제처리구역",
      "stage_idx": 0,
      "lat": 37.51019713964196,
      "lng": 126.94191777061913,
      "area_m2": 72809,
      "units": 0,
      "contractor": "",
      "stage_date": "",
      "notes": "",
      "subway": "",
      "hangang": false,
      "completion_est": "",
      "ref_note": ""
    },
    {
      "id": "api_1038",
      "name": "북아현2 재정비촉진구역 ",
      "region": "서울",
      "district": "서대문구",
      "dong": "",
      "type": "재개발",
      "stage": "의제처리구역",
      "stage_idx": 0,
      "lat": 37.57196683778642,
      "lng": 126.92915515502102,
      "area_m2": 120055,
      "units": 0,
      "contractor": "",
      "stage_date": "",
      "notes": "",
      "subway": "",
      "hangang": false,
      "completion_est": "",
      "ref_note": ""
    },
    {
      "id": "api_1040",
      "name": "한강맨션아파트 주택재건축정비구역",
      "region": "서울",
      "district": "용산구",
      "dong": "",
      "type": "재개발",
      "stage": "의제처리구역",
      "stage_idx": 0,
      "lat": 37.528188917269865,
      "lng": 126.97684282935727,
      "area_m2": 84096,
      "units": 0,
      "contractor": "",
      "stage_date": "",
      "notes": "",
      "subway": "",
      "hangang": false,
      "completion_est": "",
      "ref_note": ""
    },
    {
      "id": "api_1041",
      "name": "상계4재정비촉진구역 ",
      "region": "서울",
      "district": "노원구",
      "dong": "",
      "type": "재개발",
      "stage": "의제처리구역",
      "stage_idx": 0,
      "lat": 37.65485519500687,
      "lng": 127.04810726574146,
      "area_m2": 39960,
      "units": 0,
      "contractor": "",
      "stage_date": "",
      "notes": "",
      "subway": "",
      "hangang": false,
      "completion_est": "",
      "ref_note": ""
    },
    {
      "id": "api_1042",
      "name": "가락삼익맨숀 아파트 재건축정비사업",
      "region": "서울",
      "district": "송파구",
      "dong": "",
      "type": "재개발",
      "stage": "의제처리구역",
      "stage_idx": 0,
      "lat": 37.50694374401513,
      "lng": 127.10411794605628,
      "area_m2": 62059,
      "units": 0,
      "contractor": "",
      "stage_date": "",
      "notes": "",
      "subway": "",
      "hangang": false,
      "completion_est": "",
      "ref_note": ""
    },
    {
      "id": "api_1043",
      "name": "수정아파트 재건축정비사업",
      "region": "서울",
      "district": "양천구",
      "dong": "",
      "type": "재개발",
      "stage": "의제처리구역",
      "stage_idx": 0,
      "lat": 37.516617180822855,
      "lng": 126.86290167530785,
      "area_m2": 0,
      "units": 0,
      "contractor": "",
      "stage_date": "",
      "notes": "",
      "subway": "",
      "hangang": false,
      "completion_est": "",
      "ref_note": ""
    },
    {
      "id": "api_1044",
      "name": "개포시영아파트 주택재건축정비사업",
      "region": "서울",
      "district": "강남구",
      "dong": "",
      "type": "재개발",
      "stage": "의제처리구역",
      "stage_idx": 0,
      "lat": 37.52011117081516,
      "lng": 127.04521589635576,
      "area_m2": 115910,
      "units": 0,
      "contractor": "",
      "stage_date": "",
      "notes": "",
      "subway": "",
      "hangang": false,
      "completion_est": "",
      "ref_note": ""
    },
    {
      "id": "api_1046",
      "name": "월계동 487-17일대 주택재건축 정비사업",
      "region": "서울",
      "district": "노원구",
      "dong": "",
      "type": "재개발",
      "stage": "의제처리구역",
      "stage_idx": 0,
      "lat": 37.65586543563132,
      "lng": 127.05558330111907,
      "area_m2": 14704,
      "units": 0,
      "contractor": "",
      "stage_date": "",
      "notes": "",
      "subway": "",
      "hangang": false,
      "completion_est": "",
      "ref_note": ""
    },
    {
      "id": "api_1047",
      "name": "응암제2구역 주택재개발정비사업",
      "region": "서울",
      "district": "은평구",
      "dong": "",
      "type": "재개발",
      "stage": "의제처리구역",
      "stage_idx": 0,
      "lat": 37.60470963843613,
      "lng": 126.92373605836248,
      "area_m2": 120765,
      "units": 0,
      "contractor": "",
      "stage_date": "",
      "notes": "",
      "subway": "",
      "hangang": false,
      "completion_est": "",
      "ref_note": ""
    },
    {
      "id": "api_1111",
      "name": "가락프라자아파트 주택재건축사업 ",
      "region": "서울",
      "district": "송파구",
      "dong": "",
      "type": "재개발",
      "stage": "의제처리구역",
      "stage_idx": 0,
      "lat": 37.520726640789704,
      "lng": 127.11333364136445,
      "area_m2": 47807,
      "units": 0,
      "contractor": "",
      "stage_date": "",
      "notes": "",
      "subway": "",
      "hangang": false,
      "completion_est": "",
      "ref_note": ""
    },
    {
      "id": "api_1112",
      "name": "월계동 487-17번지 일대 주택재건축정비사업",
      "region": "서울",
      "district": "노원구",
      "dong": "",
      "type": "재개발",
      "stage": "의제처리구역",
      "stage_idx": 0,
      "lat": 37.64977270847033,
      "lng": 127.04925651132439,
      "area_m2": 14704,
      "units": 0,
      "contractor": "",
      "stage_date": "",
      "notes": "",
      "subway": "",
      "hangang": false,
      "completion_est": "",
      "ref_note": ""
    },
    {
      "id": "api_1127",
      "name": "성북제2-신월곡1 결합정비사업",
      "region": "서울",
      "district": "성북구",
      "dong": "",
      "type": "재개발",
      "stage": "의제처리구역",
      "stage_idx": 0,
      "lat": 37.582279554005275,
      "lng": 127.01889335712238,
      "area_m2": 129866,
      "units": 0,
      "contractor": "",
      "stage_date": "",
      "notes": "",
      "subway": "",
      "hangang": false,
      "completion_est": "",
      "ref_note": ""
    },
    {
      "id": "api_1128",
      "name": "연희 제1주택재건축정비구역",
      "region": "서울",
      "district": "서대문구",
      "dong": "",
      "type": "재개발",
      "stage": "의제처리구역",
      "stage_idx": 0,
      "lat": 37.589055395024026,
      "lng": 126.93439659054725,
      "area_m2": 19468,
      "units": 0,
      "contractor": "",
      "stage_date": "",
      "notes": "",
      "subway": "",
      "hangang": false,
      "completion_est": "",
      "ref_note": ""
    },
    {
      "id": "api_1293",
      "name": "대흥제2구역주택재개발사업",
      "region": "서울",
      "district": "마포구",
      "dong": "",
      "type": "재개발",
      "stage": "의제처리구역",
      "stage_idx": 0,
      "lat": 37.5565088612105,
      "lng": 126.91345353467699,
      "area_m2": 62245,
      "units": 0,
      "contractor": "",
      "stage_date": "",
      "notes": "",
      "subway": "",
      "hangang": false,
      "completion_est": "",
      "ref_note": ""
    },
    {
      "id": "api_1542",
      "name": "장위1 재정비촉진구역",
      "region": "서울",
      "district": "성북구",
      "dong": "",
      "type": "재개발",
      "stage": "의제처리구역",
      "stage_idx": 0,
      "lat": 37.59350433568079,
      "lng": 127.01932350241879,
      "area_m2": 80513,
      "units": 0,
      "contractor": "",
      "stage_date": "",
      "notes": "",
      "subway": "",
      "hangang": false,
      "completion_est": "",
      "ref_note": ""
    },
    {
      "id": "api_1976",
      "name": "대흥제2구역 주택재개발사업",
      "region": "서울",
      "district": "마포구",
      "dong": "",
      "type": "재개발",
      "stage": "의제처리구역",
      "stage_idx": 0,
      "lat": 37.560583157026464,
      "lng": 126.91197232914222,
      "area_m2": 62260,
      "units": 0,
      "contractor": "",
      "stage_date": "",
      "notes": "",
      "subway": "",
      "hangang": false,
      "completion_est": "",
      "ref_note": ""
    },
    {
      "id": "api_2055",
      "name": "을지로2가 19-1",
      "region": "서울",
      "district": "중구",
      "dong": "",
      "type": "재개발",
      "stage": "의제처리구역",
      "stage_idx": 0,
      "lat": 37.56405609405019,
      "lng": 126.99751221142975,
      "area_m2": 1477,
      "units": 0,
      "contractor": "",
      "stage_date": "",
      "notes": "",
      "subway": "",
      "hangang": false,
      "completion_est": "",
      "ref_note": ""
    },
    {
      "id": "api_2083",
      "name": "이문4재정비촉진구역",
      "region": "서울",
      "district": "동대문구",
      "dong": "",
      "type": "재개발",
      "stage": "의제처리구역",
      "stage_idx": 0,
      "lat": 37.56783370005062,
      "lng": 127.04085662965602,
      "area_m2": 151388,
      "units": 0,
      "contractor": "",
      "stage_date": "",
      "notes": "",
      "subway": "",
      "hangang": false,
      "completion_est": "",
      "ref_note": ""
    },
    {
      "id": "api_2084",
      "name": "신길14재정비촉진구역",
      "region": "서울",
      "district": "영등포구",
      "dong": "",
      "type": "재개발",
      "stage": "의제처리구역",
      "stage_idx": 0,
      "lat": 37.52973513259823,
      "lng": 126.89324378503865,
      "area_m2": 27844,
      "units": 0,
      "contractor": "",
      "stage_date": "",
      "notes": "",
      "subway": "",
      "hangang": false,
      "completion_est": "",
      "ref_note": ""
    },
    {
      "id": "api_2085",
      "name": "공평지구<H9>",
      "region": "서울",
      "district": "종로구",
      "dong": "",
      "type": "재개발",
      "stage": "의제처리구역",
      "stage_idx": 0,
      "lat": 37.59441302173998,
      "lng": 126.98428208409644,
      "area_m2": 127,
      "units": 0,
      "contractor": "",
      "stage_date": "",
      "notes": "",
      "subway": "",
      "hangang": false,
      "completion_est": "",
      "ref_note": ""
    },
    {
      "id": "api_2086",
      "name": "을지로2가 19-3",
      "region": "서울",
      "district": "중구",
      "dong": "",
      "type": "재개발",
      "stage": "의제처리구역",
      "stage_idx": 0,
      "lat": 37.57345618130997,
      "lng": 126.99537496148638,
      "area_m2": 1477,
      "units": 0,
      "contractor": "",
      "stage_date": "",
      "notes": "",
      "subway": "",
      "hangang": false,
      "completion_est": "",
      "ref_note": ""
    },
    {
      "id": "api_2087",
      "name": "을지로2가 19-4",
      "region": "서울",
      "district": "중구",
      "dong": "",
      "type": "재개발",
      "stage": "의제처리구역",
      "stage_idx": 0,
      "lat": 37.56126927993736,
      "lng": 126.99881939106282,
      "area_m2": 1477,
      "units": 0,
      "contractor": "",
      "stage_date": "",
      "notes": "",
      "subway": "",
      "hangang": false,
      "completion_est": "",
      "ref_note": ""
    },
    {
      "id": "api_2088",
      "name": "을지로2가 20-1",
      "region": "서울",
      "district": "중구",
      "dong": "",
      "type": "재개발",
      "stage": "의제처리구역",
      "stage_idx": 0,
      "lat": 37.557513929899194,
      "lng": 126.99101722881687,
      "area_m2": 0,
      "units": 0,
      "contractor": "",
      "stage_date": "",
      "notes": "",
      "subway": "",
      "hangang": false,
      "completion_est": "",
      "ref_note": ""
    },
    {
      "id": "api_2089",
      "name": "을지로2가 20-2",
      "region": "서울",
      "district": "중구",
      "dong": "",
      "type": "재개발",
      "stage": "의제처리구역",
      "stage_idx": 0,
      "lat": 37.574077362043056,
      "lng": 126.99028918251155,
      "area_m2": 0,
      "units": 0,
      "contractor": "",
      "stage_date": "",
      "notes": "",
      "subway": "",
      "hangang": false,
      "completion_est": "",
      "ref_note": ""
    },
    {
      "id": "api_2090",
      "name": "을지로2가 18-5",
      "region": "서울",
      "district": "중구",
      "dong": "",
      "type": "재개발",
      "stage": "의제처리구역",
      "stage_idx": 0,
      "lat": 37.560465783899765,
      "lng": 126.98907259949668,
      "area_m2": 1477,
      "units": 0,
      "contractor": "",
      "stage_date": "",
      "notes": "",
      "subway": "",
      "hangang": false,
      "completion_est": "",
      "ref_note": ""
    },
    {
      "id": "api_2092",
      "name": "신촌지역(마포) 4-15지구 도시정비형 재개발구역",
      "region": "서울",
      "district": "마포구",
      "dong": "",
      "type": "재개발",
      "stage": "의제처리구역",
      "stage_idx": 0,
      "lat": 37.5733496407549,
      "lng": 126.90150139630543,
      "area_m2": 3258,
      "units": 0,
      "contractor": "",
      "stage_date": "",
      "notes": "",
      "subway": "",
      "hangang": false,
      "completion_est": "",
      "ref_note": ""
    },
    {
      "id": "api_2093",
      "name": "마포로1 도시정비형 재개발구역",
      "region": "서울",
      "district": "마포구",
      "dong": "",
      "type": "재개발",
      "stage": "의제처리구역",
      "stage_idx": 0,
      "lat": 37.559873967391866,
      "lng": 126.90238102146999,
      "area_m2": 249777,
      "units": 0,
      "contractor": "",
      "stage_date": "",
      "notes": "",
      "subway": "",
      "hangang": false,
      "completion_est": "",
      "ref_note": ""
    },
    {
      "id": "api_2094",
      "name": "마포로1 도시정비형 재개발구역 제28.29지구",
      "region": "서울",
      "district": "마포구",
      "dong": "",
      "type": "재개발",
      "stage": "의제처리구역",
      "stage_idx": 0,
      "lat": 37.55405707601165,
      "lng": 126.90830818116723,
      "area_m2": 3749,
      "units": 0,
      "contractor": "",
      "stage_date": "",
      "notes": "",
      "subway": "",
      "hangang": false,
      "completion_est": "",
      "ref_note": ""
    },
    {
      "id": "api_2096",
      "name": "을지로3가 도시정비형 재개발구역 제12지구",
      "region": "서울",
      "district": "중구",
      "dong": "",
      "type": "재개발",
      "stage": "의제처리구역",
      "stage_idx": 0,
      "lat": 37.567280944544684,
      "lng": 127.00361994332378,
      "area_m2": 3924,
      "units": 0,
      "contractor": "",
      "stage_date": "",
      "notes": "",
      "subway": "",
      "hangang": false,
      "completion_est": "",
      "ref_note": ""
    },
    {
      "id": "api_2098",
      "name": "상계주공5단지 재건축정비구역",
      "region": "서울",
      "district": "노원구",
      "dong": "",
      "type": "재개발",
      "stage": "의제처리구역",
      "stage_idx": 0,
      "lat": 37.649731287559305,
      "lng": 127.05807792149436,
      "area_m2": 0,
      "units": 0,
      "contractor": "",
      "stage_date": "",
      "notes": "",
      "subway": "",
      "hangang": false,
      "completion_est": "",
      "ref_note": ""
    },
    {
      "id": "api_2101",
      "name": "고덕주공3단지아파트 주택재건축 정비구역",
      "region": "서울",
      "district": "강동구",
      "dong": "",
      "type": "재개발",
      "stage": "의제처리구역",
      "stage_idx": 0,
      "lat": 37.52462563736025,
      "lng": 127.11546502881549,
      "area_m2": 211408,
      "units": 0,
      "contractor": "",
      "stage_date": "",
      "notes": "",
      "subway": "",
      "hangang": false,
      "completion_est": "",
      "ref_note": ""
    },
    {
      "id": "api_2102",
      "name": "마포로1구역 제12.13지구 도시정비형 재개발사업",
      "region": "서울",
      "district": "마포구",
      "dong": "",
      "type": "재개발",
      "stage": "의제처리구역",
      "stage_idx": 0,
      "lat": 37.55851287267231,
      "lng": 126.90635471278955,
      "area_m2": 2568,
      "units": 0,
      "contractor": "",
      "stage_date": "",
      "notes": "",
      "subway": "",
      "hangang": false,
      "completion_est": "",
      "ref_note": ""
    },
    {
      "id": "api_2103",
      "name": "면목1 역세권 장기전세주택 도시환경정비사업",
      "region": "서울",
      "district": "중랑구",
      "dong": "",
      "type": "재개발",
      "stage": "의제처리구역",
      "stage_idx": 0,
      "lat": 37.6140875107224,
      "lng": 127.0911009672653,
      "area_m2": 3858,
      "units": 0,
      "contractor": "",
      "stage_date": "",
      "notes": "",
      "subway": "",
      "hangang": false,
      "completion_est": "",
      "ref_note": ""
    },
    {
      "id": "api_2104",
      "name": "송파미성아파트 재건축정비구역",
      "region": "서울",
      "district": "송파구",
      "dong": "",
      "type": "재개발",
      "stage": "의제처리구역",
      "stage_idx": 0,
      "lat": 37.51256196900982,
      "lng": 127.10290072132761,
      "area_m2": 0,
      "units": 0,
      "contractor": "",
      "stage_date": "",
      "notes": "",
      "subway": "",
      "hangang": false,
      "completion_est": "",
      "ref_note": ""
    },
    {
      "id": "api_2105",
      "name": "사당2 주택재건축 정비사업",
      "region": "서울",
      "district": "동작구",
      "dong": "",
      "type": "재개발",
      "stage": "의제처리구역",
      "stage_idx": 0,
      "lat": 37.51036646918469,
      "lng": 126.94891074537973,
      "area_m2": 49449,
      "units": 0,
      "contractor": "",
      "stage_date": "",
      "notes": "",
      "subway": "",
      "hangang": false,
      "completion_est": "",
      "ref_note": ""
    },
    {
      "id": "api_2106",
      "name": "신길8재정비촉진구역",
      "region": "서울",
      "district": "영등포구",
      "dong": "",
      "type": "재개발",
      "stage": "의제처리구역",
      "stage_idx": 0,
      "lat": 37.53527704929658,
      "lng": 126.89258520818835,
      "area_m2": 32287,
      "units": 0,
      "contractor": "",
      "stage_date": "",
      "notes": "",
      "subway": "",
      "hangang": false,
      "completion_est": "",
      "ref_note": ""
    },
    {
      "id": "api_2107",
      "name": "가락1차현대아파트 재건축정비사업",
      "region": "서울",
      "district": "송파구",
      "dong": "",
      "type": "재개발",
      "stage": "의제처리구역",
      "stage_idx": 0,
      "lat": 37.51633798118687,
      "lng": 127.10428495895535,
      "area_m2": 33953,
      "units": 0,
      "contractor": "",
      "stage_date": "",
      "notes": "",
      "subway": "",
      "hangang": false,
      "completion_est": "",
      "ref_note": ""
    },
    {
      "id": "api_2108",
      "name": "강북2재정비촉진구역",
      "region": "서울",
      "district": "강북구",
      "dong": "",
      "type": "재개발",
      "stage": "의제처리구역",
      "stage_idx": 0,
      "lat": 37.64851814245799,
      "lng": 127.01886964041266,
      "area_m2": 18958,
      "units": 0,
      "contractor": "",
      "stage_date": "",
      "notes": "",
      "subway": "",
      "hangang": false,
      "completion_est": "",
      "ref_note": ""
    },
    {
      "id": "api_2226",
      "name": "응암제1구역 주택재개발정비사업",
      "region": "서울",
      "district": "은평구",
      "dong": "",
      "type": "재개발",
      "stage": "의제처리구역",
      "stage_idx": 0,
      "lat": 37.59426256616655,
      "lng": 126.9320821124567,
      "area_m2": 43938,
      "units": 0,
      "contractor": "",
      "stage_date": "",
      "notes": "",
      "subway": "",
      "hangang": false,
      "completion_est": "",
      "ref_note": ""
    },
    {
      "id": "api_2227",
      "name": "사당3 재건축 정비사업",
      "region": "서울",
      "district": "동작구",
      "dong": "",
      "type": "재개발",
      "stage": "의제처리구역",
      "stage_idx": 0,
      "lat": 37.502504145279374,
      "lng": 126.93510297691027,
      "area_m2": 30107,
      "units": 0,
      "contractor": "",
      "stage_date": "",
      "notes": "",
      "subway": "",
      "hangang": false,
      "completion_est": "",
      "ref_note": ""
    },
    {
      "id": "api_2228",
      "name": "마포로1구역 제28.29지구 도시정비형 재개발구역",
      "region": "서울",
      "district": "마포구",
      "dong": "",
      "type": "재개발",
      "stage": "의제처리구역",
      "stage_idx": 0,
      "lat": 37.55916877408312,
      "lng": 126.91467976856808,
      "area_m2": 3678,
      "units": 0,
      "contractor": "",
      "stage_date": "",
      "notes": "",
      "subway": "",
      "hangang": false,
      "completion_est": "",
      "ref_note": ""
    },
    {
      "id": "api_2229",
      "name": "을지로3가 도시정비형 재개발구역 제9지구",
      "region": "서울",
      "district": "중구",
      "dong": "",
      "type": "재개발",
      "stage": "의제처리구역",
      "stage_idx": 0,
      "lat": 37.556182673495265,
      "lng": 126.99792964100902,
      "area_m2": 1945,
      "units": 0,
      "contractor": "",
      "stage_date": "",
      "notes": "",
      "subway": "",
      "hangang": false,
      "completion_est": "",
      "ref_note": ""
    },
    {
      "id": "api_2231",
      "name": "신동아1.2차아파트 주택재건축 정비사업",
      "region": "서울",
      "district": "강동구",
      "dong": "",
      "type": "재개발",
      "stage": "의제처리구역",
      "stage_idx": 0,
      "lat": 37.53214594127371,
      "lng": 127.11584282751532,
      "area_m2": 46267,
      "units": 0,
      "contractor": "",
      "stage_date": "",
      "notes": "",
      "subway": "",
      "hangang": false,
      "completion_est": "",
      "ref_note": ""
    },
    {
      "id": "api_2234",
      "name": "영등포 도심 역세권 도시정비형 재개발구역",
      "region": "서울",
      "district": "영등포구",
      "dong": "",
      "type": "재개발",
      "stage": "의제처리구역",
      "stage_idx": 0,
      "lat": 37.53000317897714,
      "lng": 126.88719020623012,
      "area_m2": 0,
      "units": 0,
      "contractor": "",
      "stage_date": "",
      "notes": "",
      "subway": "",
      "hangang": false,
      "completion_est": "",
      "ref_note": ""
    },
    {
      "id": "api_2235",
      "name": "홍은제6주택 재건축정비구역",
      "region": "서울",
      "district": "서대문구",
      "dong": "",
      "type": "재개발",
      "stage": "의제처리구역",
      "stage_idx": 0,
      "lat": 37.58152489625814,
      "lng": 126.93002297024594,
      "area_m2": 13078,
      "units": 0,
      "contractor": "",
      "stage_date": "",
      "notes": "",
      "subway": "",
      "hangang": false,
      "completion_est": "",
      "ref_note": ""
    },