{
  "updated_at": "2026-06-30",
  "source": "sample",
  "note": "샘플 데이터. GitHub Actions + Seoul API Key 설정 시 실데이터 자동 업데이트.",
  "projects": [
    {"id":"hannam3","name":"한남3구역","district":"용산구","dong":"한남동","type":"재개발","stage":"관리처분인가","stage_idx":3,"lat":37.5354,"lng":127.0019,"area_m2":387000,"units":5816,"contractor":"현대건설컨소시엄","stage_date":"2024-12","notes":"서울 최대 규모 재개발 사업","subway":"한강진역(6호선) 도보 10분","hangang":true,"completion_est":"2029~2030년 예상","ref_note":"인근 나인원한남 전용84㎡ 60억+, 완공 시 최상급 예상"},
    {"id":"hannam4","name":"한남4구역","district":"용산구","dong":"한남동","type":"재개발","stage":"사업시행인가","stage_idx":2,"lat":37.5372,"lng":127.0042,"area_m2":122000,"units":1785,"contractor":"","stage_date":"2023-08","notes":"","subway":"한강진역(6호선) 도보 12분","hangang":true,"completion_est":"2030년 예상","ref_note":"한남3구역 인접, 높은 상승 기대"},
    {"id":"hannam5","name":"한남5구역","district":"용산구","dong":"한남동","type":"재개발","stage":"조합설립인가","stage_idx":1,"lat":37.5391,"lng":127.0061,"area_m2":94000,"units":1320,"contractor":"","stage_date":"2022-11","notes":"","subway":"한강진역(6호선) 도보 15분","hangang":false,"completion_est":"2032년 이후 예상","ref_note":""},
    {"id":"heukseok9","name":"흑석9구역","district":"동작구","dong":"흑석동","type":"재개발","stage":"관리처분인가","stage_idx":3,"lat":37.5087,"lng":126.9628,"area_m2":86000,"units":1490,"contractor":"대우건설","stage_date":"2023-06","notes":"흑석뉴타운 핵심 구역","subway":"흑석역(9호선) 도보 5분","hangang":true,"completion_est":"2027년 예상","ref_note":"아크로 리버하임(흑석동) 전용84㎡ 20~23억 참고"},
    {"id":"heukseok11","name":"흑석11구역","district":"동작구","dong":"흑석동","type":"재개발","stage":"사업시행인가","stage_idx":2,"lat":37.5118,"lng":126.9695,"area_m2":47000,"units":671,"contractor":"","stage_date":"2022-04","notes":"","subway":"동작역(9호선) 도보 8분","hangang":false,"completion_est":"2029년 예상","ref_note":""},
    {"id":"noryangjin1","name":"노량진1구역","district":"동작구","dong":"노량진동","type":"재개발","stage":"관리처분인가","stage_idx":3,"lat":37.5133,"lng":126.9424,"area_m2":91000,"units":1536,"contractor":"HDC현대산업개발","stage_date":"2024-03","notes":"노량진뉴타운 최대 구역","subway":"노량진역(1·9호선) 도보 3분","hangang":false,"completion_est":"2028년 예상","ref_note":"노량진 신축 전용84㎡ 11~13억 참고"},
    {"id":"noryangjin2","name":"노량진2구역","district":"동작구","dong":"노량진동","type":"재개발","stage":"관리처분인가","stage_idx":3,"lat":37.5152,"lng":126.9438,"area_m2":52000,"units":824,"contractor":"GS건설","stage_date":"2024-01","notes":"","subway":"노량진역(1·9호선) 도보 5분","hangang":false,"completion_est":"2028년 예상","ref_note":""},
    {"id":"noryangjin3","name":"노량진3구역","district":"동작구","dong":"노량진동","type":"재개발","stage":"사업시행인가","stage_idx":2,"lat":37.5121,"lng":126.9447,"area_m2":38000,"units":540,"contractor":"","stage_date":"2023-05","notes":"","subway":"노량진역(1·9호선) 도보 7분","hangang":false,"completion_est":"2030년 예상","ref_note":""},
    {"id":"shinlim1","name":"신림1구역","district":"관악구","dong":"신림동","type":"재개발","stage":"관리처분인가","stage_idx":3,"lat":37.4858,"lng":126.9183,"area_m2":64000,"units":1028,"contractor":"롯데건설","stage_date":"2024-09","notes":"","subway":"신림역(2호선) 도보 8분","hangang":false,"completion_est":"2027~2028년 예상","ref_note":"신림동 신축 전용84㎡ 10~12억 참고"},
    {"id":"shinlim3","name":"신림3구역","district":"관악구","dong":"신림동","type":"재개발","stage":"사업시행인가","stage_idx":2,"lat":37.4836,"lng":126.9213,"area_m2":49000,"units":740,"contractor":"","stage_date":"2022-07","notes":"","subway":"신림역(2호선) 도보 10분","hangang":false,"completion_est":"2030년 예상","ref_note":""},
    {"id":"ahyun3","name":"아현3구역","district":"마포구","dong":"아현동","type":"재개발","stage":"이주/착공","stage_idx":4,"lat":37.5505,"lng":126.9524,"area_m2":73000,"units":1124,"contractor":"GS건설","stage_date":"2023-09","notes":"마포래미안 아파트 건설 중","subway":"아현역(2호선) 도보 5분","hangang":false,"completion_est":"2026~2027년 예상","ref_note":"마포래미안 푸르지오 전용84㎡ 16~19억 참고"},
    {"id":"mia3","name":"미아3구역","district":"강북구","dong":"미아동","type":"재개발","stage":"사업시행인가","stage_idx":2,"lat":37.6261,"lng":127.0258,"area_m2":58000,"units":849,"contractor":"","stage_date":"2023-11","notes":"","subway":"미아사거리역(4호선) 도보 8분","hangang":false,"completion_est":"2030년 예상","ref_note":""},
    {"id":"jangwi4","name":"장위4구역","district":"성북구","dong":"장위동","type":"재개발","stage":"사업시행인가","stage_idx":2,"lat":37.6042,"lng":127.0561,"area_m2":67000,"units":985,"contractor":"","stage_date":"2023-03","notes":"장위뉴타운","subway":"우이신설선 가오리역 도보 10분","hangang":false,"completion_est":"2029년 예상","ref_note":""},
    {"id":"jangwi9","name":"장위9구역","district":"성북구","dong":"장위동","type":"재개발","stage":"관리처분인가","stage_idx":3,"lat":37.6088,"lng":127.0592,"area_m2":45000,"units":643,"contractor":"포스코이앤씨","stage_date":"2024-06","notes":"","subway":"우이신설선 가오리역 도보 8분","hangang":false,"completion_est":"2027년 예상","ref_note":""},
    {"id":"garibong1","name":"가리봉1구역","district":"구로구","dong":"가리봉동","type":"재개발","stage":"사업시행인가","stage_idx":2,"lat":37.4841,"lng":126.8838,"area_m2":39000,"units":561,"contractor":"","stage_date":"2022-12","notes":"","subway":"가산디지털단지역(1·7호선) 도보 10분","hangang":false,"completion_est":"2029년 예상","ref_note":""},
    {"id":"yeongdeungpo","name":"영등포1-12구역","district":"영등포구","dong":"영등포동","type":"재개발","stage":"조합설립인가","stage_idx":1,"lat":37.5258,"lng":126.8975,"area_m2":82000,"units":1210,"contractor":"","stage_date":"2021-08","notes":"영등포 뉴타운","subway":"영등포역(1호선) 도보 10분","hangang":false,"completion_est":"2032년 이후 예상","ref_note":""},
    {"id":"jamsilju5","name":"잠실주공5단지","district":"송파구","dong":"잠실동","type":"재건축","stage":"사업시행인가","stage_idx":2,"lat":37.5092,"lng":127.0839,"area_m2":183000,"units":6600,"contractor":"","stage_date":"2024-11","notes":"재건축 최대 규모, 서울 랜드마크 예정","subway":"잠실역(2·8호선) 도보 5분","hangang":false,"completion_est":"2031년 예상","ref_note":"인근 잠실 엘스 전용84㎡ 25~28억, 완공 시 30억+ 예상"},
    {"id":"eunma","name":"은마아파트","district":"강남구","dong":"대치동","type":"재건축","stage":"조합설립인가","stage_idx":1,"lat":37.5044,"lng":127.0594,"area_m2":116000,"units":4424,"contractor":"","stage_date":"2022-03","notes":"30년 넘은 재건축 숙원 사업","subway":"대치역(3호선) 도보 5분","hangang":false,"completion_est":"2032년 이후 예상","ref_note":"대치동 신축 전용84㎡ 30억+ 예상"},
    {"id":"apgujeong1","name":"압구정1구역(현대1·2차)","district":"강남구","dong":"압구정동","type":"재건축","stage":"사업시행인가","stage_idx":2,"lat":37.5280,"lng":127.0308,"area_m2":49000,"units":1788,"contractor":"","stage_date":"2024-08","notes":"압구정 재건축 선도 구역","subway":"압구정역(3호선) 도보 8분","hangang":true,"completion_est":"2030년 예상","ref_note":"압구정 신축 전용84㎡ 40~50억 예상"},
    {"id":"apgujeong3","name":"압구정3구역","district":"강남구","dong":"압구정동","type":"재건축","stage":"조합설립인가","stage_idx":1,"lat":37.5262,"lng":127.0285,"area_m2":67000,"units":2409,"contractor":"","stage_date":"2023-01","notes":"","subway":"압구정역(3호선) 도보 10분","hangang":true,"completion_est":"2032년 이후 예상","ref_note":""},
    {"id":"banpoju12","name":"반포주공1단지(1·2·4주구)","district":"서초구","dong":"반포동","type":"재건축","stage":"이주/착공","stage_idx":4,"lat":37.5019,"lng":126.9958,"area_m2":176000,"units":3590,"contractor":"삼성물산","stage_date":"2022-11","notes":"래미안 원베일리 인접, 공사 진행 중","subway":"고속터미널역(3·7·9호선) 도보 12분","hangang":true,"completion_est":"2027~2028년 예상","ref_note":"래미안 원베일리 전용84㎡ 45~55억 참고"},
    {"id":"banpoju3","name":"반포주공1단지(3주구)","district":"서초구","dong":"반포동","type":"재건축","stage":"준공완료","stage_idx":5,"lat":37.5031,"lng":126.9969,"area_m2":58000,"units":2091,"contractor":"삼성물산","stage_date":"2023-09","notes":"래미안 원베일리 준공","subway":"고속터미널역(3·7·9호선) 도보 10분","hangang":true,"completion_est":"완료(2023)","ref_note":"래미안 원베일리 전용84㎡ 45~55억"},
    {"id":"gaepoju1","name":"개포주공1단지","district":"강남구","dong":"개포동","type":"재건축","stage":"준공완료","stage_idx":5,"lat":37.4806,"lng":127.0596,"area_m2":178000,"units":6700,"contractor":"현대건설","stage_date":"2021-11","notes":"디에이치 퍼스티어아이파크 준공","subway":"개포동역(3호선) 도보 10분","hangang":false,"completion_est":"완료(2021)","ref_note":"전용84㎡ 27~32억"},
    {"id":"gaepoju4","name":"개포주공4단지","district":"강남구","dong":"개포동","type":"재건축","stage":"준공완료","stage_idx":5,"lat":37.4798,"lng":127.0667,"area_m2":53000,"units":1957,"contractor":"GS건설","stage_date":"2022-07","notes":"개포 자이 프레지던스 준공","subway":"개포동역(3호선) 도보 8분","hangang":false,"completion_est":"완료(2022)","ref_note":"전용84㎡ 25~30억"},
    {"id":"mokdong7","name":"목동신시가지7단지","district":"양천구","dong":"목동","type":"재건축","stage":"조합설립인가","stage_idx":1,"lat":37.5301,"lng":126.8722,"area_m2":76000,"units":1850,"contractor":"","stage_date":"2023-07","notes":"목동 재건축 선도 단지","subway":"오목교역(5호선) 도보 7분","hangang":false,"completion_est":"2032년 이후 예상","ref_note":"목동 신축 전용84㎡ 18~22억 예상"},
    {"id":"mokdong14","name":"목동신시가지14단지","district":"양천구","dong":"목동","type":"재건축","stage":"조합설립인가","stage_idx":1,"lat":37.5319,"lng":126.8699,"area_m2":48000,"units":1020,"contractor":"","stage_date":"2022-05","notes":"","subway":"목동역(5호선) 도보 5분","hangang":false,"completion_est":"2033년 이후 예상","ref_note":""},
    {"id":"dunchi","name":"둔촌주공(올림픽파크포레온)","district":"강동구","dong":"둔촌동","type":"재건축","stage":"이주/착공","stage_idx":4,"lat":37.5447,"lng":127.1303,"area_m2":519000,"units":12032,"contractor":"현대/대우/롯데/HDC컨소시엄","stage_date":"2019-09","notes":"국내 최대 재건축, 2024년 입주 중","subway":"올림픽공원역(5·8·9호선) 도보 5분","hangang":false,"completion_est":"2024년 입주중","ref_note":"전용84㎡ 14~17억"},
    {"id":"godeokju2","name":"고덕주공2단지","district":"강동구","dong":"고덕동","type":"재건축","stage":"준공완료","stage_idx":5,"lat":37.5560,"lng":127.1459,"area_m2":98000,"units":3658,"contractor":"현대건설","stage_date":"2019-12","notes":"힐스테이트 고덕강일 준공","subway":"고덕역(5호선) 도보 7분","hangang":false,"completion_est":"완료(2019)","ref_note":"전용84㎡ 12~14억"},
    {"id":"godeokju3","name":"고덕주공3단지","district":"강동구","dong":"고덕동","type":"재건축","stage":"이주/착공","stage_idx":4,"lat":37.5580,"lng":127.1473,"area_m2":71000,"units":2947,"contractor":"삼성물산","stage_date":"2022-03","notes":"래미안 고덕 센트럴 공사 중","subway":"고덕역(5호선) 도보 9분","hangang":false,"completion_est":"2026년 예상","ref_note":"인근 전용84㎡ 12~15억 예상"},
    {"id":"sanggyeju5","name":"상계주공5단지","district":"노원구","dong":"상계동","type":"재건축","stage":"조합설립인가","stage_idx":1,"lat":37.6587,"lng":127.0690,"area_m2":82000,"units":2640,"contractor":"","stage_date":"2021-04","notes":"노원구 재건축 핵심 단지","subway":"상계역(4호선) 도보 8분","hangang":false,"completion_est":"2033년 이후 예상","ref_note":""},
    {"id":"gildong","name":"길음1구역","district":"성북구","dong":"길음동","type":"재개발","stage":"준공완료","stage_idx":5,"lat":37.6011,"lng":127.0224,"area_m2":69000,"units":2802,"contractor":"대림산업","stage_date":"2017-06","notes":"길음뉴타운 완료","subway":"길음역(4호선) 도보 5분","hangang":false,"completion_est":"완료(2017)","ref_note":"전용84㎡ 10~12억"},
    {"id":"wangshipri","name":"왕십리2구역","district":"성동구","dong":"하왕십리동","type":"재개발","stage":"준공완료","stage_idx":5,"lat":37.5617,"lng":127.0299,"area_m2":112000,"units":4000,"contractor":"현대건설","stage_date":"2016-11","notes":"왕십리뉴타운 완료","subway":"왕십리역(2·5·경의선·분당선) 도보 8분","hangang":false,"completion_est":"완료(2016)","ref_note":"전용84㎡ 14~17억"},
    {"id":"heukseok2","name":"흑석2구역","district":"동작구","dong":"흑석동","type":"재개발","stage":"이주/착공","stage_idx":4,"lat":37.5099,"lng":126.9659,"area_m2":54000,"units":880,"contractor":"롯데건설","stage_date":"2021-05","notes":"","subway":"흑석역(9호선) 도보 8분","hangang":true,"completion_est":"완료 근접","ref_note":""},
    {"id":"sinjeong1","name":"신정1구역","district":"양천구","dong":"신정동","type":"재개발","stage":"조합설립인가","stage_idx":1,"lat":37.5311,"lng":126.8625,"area_m2":45000,"units":650,"contractor":"","stage_date":"2022-09","notes":"신정뉴타운","subway":"신정역(2호선) 도보 10분","hangang":false,"completion_est":"2032년 이후 예상","ref_note":""},
    {"id":"noryangjin5","name":"노량진5구역","district":"동작구","dong":"노량진동","type":"재개발","stage":"조합설립인가","stage_idx":1,"lat":37.5108,"lng":126.9451,"area_m2":29000,"units":415,"contractor":"","stage_date":"2023-02","notes":"","subway":"노량진역(1·9호선) 도보 10분","hangang":false,"completion_est":"2032년 이후 예상","ref_note":""},
    {"id":"jayang4","name":"자양4구역","district":"광진구","dong":"자양동","type":"재개발","stage":"준공완료","stage_idx":5,"lat":37.5338,"lng":127.0921,"area_m2":52000,"units":1935,"contractor":"현대건설","stage_date":"2020-08","notes":"힐스테이트 자양 강변 준공","subway":"자양역(5호선) 도보 8분","hangang":true,"completion_est":"완료(2020)","ref_note":"전용84㎡ 13~16억"},
    {"id":"jayang1","name":"자양1구역","district":"광진구","dong":"자양동","type":"재개발","stage":"관리처분인가","stage_idx":3,"lat":37.5352,"lng":127.0947,"area_m2":37000,"units":612,"contractor":"","stage_date":"2024-05","notes":"","subway":"자양역(5호선) 도보 5분","hangang":true,"completion_est":"2027~2028년 예상","ref_note":"인근 힐스테이트 자양강변 전용84㎡ 13~16억 참고"},
    {"id":"guui3","name":"구의3구역","district":"광진구","dong":"구의동","type":"재개발","stage":"사업시행인가","stage_idx":2,"lat":37.5418,"lng":127.0882,"area_m2":44000,"units":687,"contractor":"","stage_date":"2023-09","notes":"","subway":"구의역(2호선) 도보 8분","hangang":true,"completion_est":"2029년 예상","ref_note":""},
    {"id":"hwayan","name":"화양연립재개발","district":"광진구","dong":"화양동","type":"재개발","stage":"조합설립인가","stage_idx":1,"lat":37.5431,"lng":127.0681,"area_m2":28000,"units":410,"contractor":"","stage_date":"2022-11","notes":"","subway":"건대입구역(2·7호선) 도보 12분","hangang":false,"completion_est":"2032년 이후 예상","ref_note":""},
    {"id":"gwangjin_junggok1","name":"중곡1동 254-15 일대","district":"광진구","dong":"중곡동","type":"재개발","stage":"구역지정","stage_idx":0,"lat":37.5590,"lng":127.0835,"area_m2":72000,"units":2200,"contractor":"","stage_date":"2025-01","notes":"신통기획 확정. 최고 35층, 약 2,200세대 대단지 예정","subway":"중곡역(5호선) 도보 7분","hangang":false,"completion_est":"2033년 이후 예상","ref_note":"신통기획 확정 구역, 인근 시세 추이 주목"},
    {"id":"gwangjin_jayang4a","name":"자양4동 A구역","district":"광진구","dong":"자양동","type":"재개발","stage":"준비위결성","stage_idx":-1,"lat":37.5342,"lng":127.0803,"area_m2":38000,"units":0,"contractor":"","stage_date":"2024-06","notes":"신통기획 1차 후보지. 자양4구역(준공) 인접 노후 저층지","subway":"자양역(5호선) 도보 6분","hangang":false,"completion_est":"미정","ref_note":"신통기획 후보지 선정 단계","nohuodo_pct":61},
    {"id":"gwangjin_jayang3","name":"자양3동 227-147 일대","district":"광진구","dong":"자양동","type":"재개발","stage":"구역지정","stage_idx":0,"lat":37.5368,"lng":127.0811,"area_m2":45000,"units":0,"contractor":"","stage_date":"2024-09","notes":"신통기획 진행 중. 자양동 노후 주거지 주거환경 개선 사업","subway":"자양역(5호선) 도보 5분","hangang":false,"completion_est":"2033년 이후 예상","ref_note":""},
    {"id":"gwangjin_junggok4","name":"중곡4동 신향빌라","district":"광진구","dong":"중곡동","type":"재건축","stage":"구역지정","stage_idx":0,"lat":37.5624,"lng":127.0851,"area_m2":14000,"units":320,"contractor":"","stage_date":"2025-03","notes":"신통기획 재건축 방식 추진. 중곡동 소규모 재건축","subway":"중곡역(5호선) 도보 5분","hangang":false,"completion_est":"미정","ref_note":""},
    {"id":"gwangjin_gwangjang","name":"광장동 극동아파트","district":"광진구","dong":"광장동","type":"재건축","stage":"구역지정","stage_idx":0,"lat":37.5475,"lng":127.1012,"area_m2":46000,"units":1050,"contractor":"","stage_date":"2024-11","notes":"신통기획 재건축 적용. 광장동 대표 노후 아파트 단지","subway":"강변역(2호선) 도보 10분","hangang":true,"completion_est":"2033년 이후 예상","ref_note":"한강뷰 프리미엄 기대"},
    {"id":"gwangjin_guui46","name":"구의동 46번지 일대","district":"광진구","dong":"구의동","type":"재개발","stage":"정비예정","stage_idx":-2,"lat":37.5430,"lng":127.0898,"area_m2":55000,"units":0,"contractor":"","stage_date":"2026-02","notes":"2026년 2월 신통기획 후보지 신규 선정 대단지 예정 구역","subway":"구의역(2호선) 도보 6분","hangang":true,"completion_est":"미정","ref_note":"후보지 선정 초기, 향후 구역지정 여부 주목","nohuodo_pct":63},
    {"id":"imun1","name":"이문1구역","district":"동대문구","dong":"이문동","type":"재개발","stage":"사업시행인가","stage_idx":2,"lat":37.5942,"lng":127.0691,"area_m2":133000,"units":6536,"contractor":"HDC현대산업개발·GS건설","stage_date":"2023-07","notes":"이문·휘경뉴타운 최대 구역, 서울 북부 최대 재개발 사업","subway":"이문역(1호선) 도보 3분","hangang":false,"completion_est":"2030년 예상","ref_note":"인근 신축 전용84㎡ 10~13억 예상"},
    {"id":"imun3","name":"이문3구역","district":"동대문구","dong":"이문동","type":"재개발","stage":"조합설립인가","stage_idx":1,"lat":37.5912,"lng":127.0651,"area_m2":62000,"units":1900,"contractor":"","stage_date":"2022-09","notes":"이문·휘경뉴타운","subway":"이문역(1호선) 도보 5분","hangang":false,"completion_est":"2031년 이후 예상","ref_note":""},
    {"id":"hwuigyeong2","name":"휘경2구역","district":"동대문구","dong":"휘경동","type":"재개발","stage":"조합설립인가","stage_idx":1,"lat":37.5779,"lng":127.0673,"area_m2":38000,"units":850,"contractor":"","stage_date":"2023-03","notes":"휘경동 노후 주거지","subway":"외대앞역(1호선) 도보 8분","hangang":false,"completion_est":"2032년 이후 예상","ref_note":""},
    {"id":"bukahyun1","name":"북아현1구역","district":"서대문구","dong":"북아현동","type":"재개발","stage":"사업시행인가","stage_idx":2,"lat":37.5605,"lng":126.9487,"area_m2":72000,"units":2100,"contractor":"","stage_date":"2023-05","notes":"서대문구 핵심 재개발 구역","subway":"아현역(2호선) 도보 7분","hangang":false,"completion_est":"2030년 예상","ref_note":""},
    {"id":"hongeun1","name":"홍은1구역","district":"서대문구","dong":"홍은동","type":"재개발","stage":"구역지정","stage_idx":0,"lat":37.5943,"lng":126.9288,"area_m2":45000,"units":950,"contractor":"","stage_date":"2022-08","notes":"홍은동 노후 저층 주거지","subway":"홍제역(3호선) 도보 12분","hangang":false,"completion_est":"2033년 이후 예상","ref_note":""},
    {"id":"eungam1","name":"응암1구역","district":"은평구","dong":"응암동","type":"재개발","stage":"사업시행인가","stage_idx":2,"lat":37.5997,"lng":126.9157,"area_m2":68000,"units":1800,"contractor":"","stage_date":"2023-09","notes":"응암·녹번 일대 노후 주거지","subway":"응암역(6호선) 도보 7분","hangang":false,"completion_est":"2030년 예상","ref_note":""},
    {"id":"bulgwang5","name":"불광5구역","district":"은평구","dong":"불광동","type":"재개발","stage":"구역지정","stage_idx":0,"lat":37.6086,"lng":126.9213,"area_m2":41000,"units":820,"contractor":"","stage_date":"2022-06","notes":"불광동 노후 주거지","subway":"불광역(3·6호선) 도보 8분","hangang":false,"completion_est":"2033년 이후 예상","ref_note":""},
    {"id":"hwagok3","name":"화곡3구역","district":"강서구","dong":"화곡동","type":"재건축","stage":"조합설립인가","stage_idx":1,"lat":37.5476,"lng":126.8490,"area_m2":48000,"units":1400,"contractor":"","stage_date":"2023-04","notes":"화곡동 노후 아파트 재건축","subway":"화곡역(5호선) 도보 8분","hangang":false,"completion_est":"2032년 이후 예상","ref_note":""},
    {"id":"banghwa2","name":"방화2구역","district":"강서구","dong":"방화동","type":"재개발","stage":"구역지정","stage_idx":0,"lat":37.5647,"lng":126.8071,"area_m2":37000,"units":680,"contractor":"","stage_date":"2022-04","notes":"강서구 방화동 노후 단독·다가구 밀집지","subway":"방화역(5호선) 도보 10분","hangang":false,"completion_est":"2033년 이후 예상","ref_note":""},
    {"id":"dobong1","name":"도봉1구역","district":"도봉구","dong":"도봉동","type":"재개발","stage":"구역지정","stage_idx":0,"lat":37.6610,"lng":127.0353,"area_m2":32000,"units":620,"contractor":"","stage_date":"2022-11","notes":"도봉동 노후 단독주택 밀집지","subway":"도봉역(1호선) 도보 8분","hangang":false,"completion_est":"2033년 이후 예상","ref_note":""},
    {"id":"changdong17","name":"창동주공17단지","district":"도봉구","dong":"창동","type":"재건축","stage":"조합설립인가","stage_idx":1,"lat":37.6504,"lng":127.0468,"area_m2":62000,"units":1752,"contractor":"","stage_date":"2023-01","notes":"창동 재건축 선도 단지, 창동역 역세권","subway":"창동역(1·4호선) 도보 8분","hangang":false,"completion_est":"2033년 이후 예상","ref_note":"창동 신축 전용84㎡ 8~10억 예상"},
    {"id":"myeongmok5","name":"면목5구역","district":"중랑구","dong":"면목동","type":"재개발","stage":"조합설립인가","stage_idx":1,"lat":37.5862,"lng":127.0782,"area_m2":43000,"units":780,"contractor":"","stage_date":"2022-07","notes":"중랑구 면목뉴타운","subway":"사가정역(7호선) 도보 7분","hangang":false,"completion_est":"2032년 이후 예상","ref_note":""},
    {"id":"sinnae3","name":"신내3구역","district":"중랑구","dong":"신내동","type":"재개발","stage":"구역지정","stage_idx":0,"lat":37.5977,"lng":127.0935,"area_m2":39000,"units":720,"contractor":"","stage_date":"2023-02","notes":"신내동 일대 노후 주거지","subway":"신내역(경춘선) 도보 8분","hangang":false,"completion_est":"2033년 이후 예상","ref_note":""},
    {"id":"changshin1","name":"창신1구역","district":"종로구","dong":"창신동","type":"재개발","stage":"구역지정","stage_idx":0,"lat":37.5780,"lng":127.0146,"area_m2":29000,"units":560,"contractor":"","stage_date":"2023-06","notes":"서울 도심 인근 노후 주거지, 낙산공원 인접","subway":"동묘앞역(1·6호선) 도보 5분","hangang":false,"completion_est":"2033년 이후 예상","ref_note":""},
    {"id":"doksan4","name":"독산4구역","district":"금천구","dong":"독산동","type":"재개발","stage":"조합설립인가","stage_idx":1,"lat":37.4587,"lng":126.9009,"area_m2":34000,"units":650,"contractor":"","stage_date":"2022-05","notes":"금천구 독산동 노후 주거지","subway":"독산역(1호선) 도보 6분","hangang":false,"completion_est":"2032년 이후 예상","ref_note":""},
    {"id":"sindang8","name":"신당8구역","district":"중구","dong":"신당동","type":"재개발","stage":"사업시행인가","stage_idx":2,"lat":37.5604,"lng":127.0102,"area_m2":25000,"units":520,"contractor":"","stage_date":"2023-04","notes":"신당동 도심 재개발, 도심 접근성 우수","subway":"신당역(2·6호선) 도보 5분","hangang":false,"completion_est":"2029년 예상","ref_note":""},
    {"id":"seongsan","name":"성산시영아파트","district":"마포구","dong":"성산동","type":"재건축","stage":"조합설립인가","stage_idx":1,"lat":37.5660,"lng":126.9132,"area_m2":198000,"units":5424,"contractor":"","stage_date":"2022-10","notes":"서울 최대 재건축 단지 중 하나 (5,424세대)","subway":"월드컵경기장역(6호선) 도보 12분","hangang":false,"completion_est":"2033년 이후 예상","ref_note":"성산동 구축 전용84㎡ 12~15억"},
    {"id":"singil4","name":"신길4구역","district":"영등포구","dong":"신길동","type":"재개발","stage":"사업시행인가","stage_idx":2,"lat":37.5124,"lng":126.9023,"area_m2":44000,"units":820,"contractor":"","stage_date":"2023-03","notes":"신길뉴타운","subway":"신풍역(7호선) 도보 6분","hangang":false,"completion_est":"2030년 예상","ref_note":""},
    {"id":"singil7","name":"신길7구역","district":"영등포구","dong":"신길동","type":"재개발","stage":"조합설립인가","stage_idx":1,"lat":37.5198,"lng":126.9073,"area_m2":38000,"units":680,"contractor":"","stage_date":"2022-12","notes":"신길뉴타운","subway":"신길역(5호선) 도보 8분","hangang":false,"completion_est":"2032년 이후 예상","ref_note":""},
    {"id":"pre_singil6","name":"신길6구역 준비위","district":"영등포구","dong":"신길동","type":"재개발","stage":"준비위결성","stage_idx":-1,"lat":37.5178,"lng":126.9048,"area_m2":43000,"units":750,"contractor":"","stage_date":"2025-04","notes":"신길뉴타운 인접 지역, 주민 자율 준비위원회 활동 중","subway":"신길역(5호선) 도보 6분","hangang":false,"completion_est":"미정","ref_note":"노후 빌라 3.3㎡당 약 1,400만 원 수준","nohuodo_pct":70},
    {"id":"apgujeong2","name":"압구정2구역","district":"강남구","dong":"압구정동","type":"재건축","stage":"조합설립인가","stage_idx":1,"lat":37.5261,"lng":127.0274,"area_m2":88000,"units":2800,"contractor":"","stage_date":"2023-02","notes":"현대2차·현대3차·한양 통합 재건축 추진","subway":"압구정역(3호선) 도보 8분","hangang":true,"completion_est":"2033년 이후 예상","ref_note":"한강뷰, 압구정 신축 40~50억+ 예상"},
    {"id":"gaepoju3","name":"개포주공3단지(디에이치아너힐즈)","district":"강남구","dong":"개포동","type":"재건축","stage":"준공완료","stage_idx":5,"lat":37.4798,"lng":127.0631,"area_m2":63000,"units":1320,"contractor":"현대건설","stage_date":"2022-09","notes":"개포주공3단지 재건축 완료","subway":"개포동역(3호선) 도보 7분","hangang":false,"completion_est":"완료(2022)","ref_note":"전용84㎡ 27~32억"},
    {"id":"bangbae5","name":"방배5구역","district":"서초구","dong":"방배동","type":"재개발","stage":"사업시행인가","stage_idx":2,"lat":37.4843,"lng":126.9877,"area_m2":38000,"units":910,"contractor":"","stage_date":"2023-07","notes":"방배동 노후 저층 주거지","subway":"이수역(4·7호선) 도보 8분","hangang":false,"completion_est":"2030년 예상","ref_note":"방배동 신축 전용84㎡ 18~22억 예상"},
    {"id":"sanggye3","name":"상계3구역","district":"노원구","dong":"상계동","type":"재건축","stage":"조합설립인가","stage_idx":1,"lat":37.6555,"lng":127.0658,"area_m2":55000,"units":1980,"contractor":"","stage_date":"2021-11","notes":"노원구 상계동 재건축","subway":"노원역(4·7호선) 도보 10분","hangang":false,"completion_est":"2033년 이후 예상","ref_note":""},
    {"id":"geumho14","name":"금호14구역","district":"성동구","dong":"금호동","type":"재개발","stage":"구역지정","stage_idx":0,"lat":37.5541,"lng":127.0168,"area_m2":28000,"units":480,"contractor":"","stage_date":"2022-12","notes":"금호동 노후 주거지","subway":"금호역(3호선) 도보 5분","hangang":false,"completion_est":"2033년 이후 예상","ref_note":""},
    {"id":"garak","name":"가락미륭·시영·한양","district":"송파구","dong":"가락동","type":"재건축","stage":"사업시행인가","stage_idx":2,"lat":37.4942,"lng":127.1218,"area_m2":156000,"units":3500,"contractor":"","stage_date":"2024-03","notes":"가락동 대단지 재건축, 가락시장역 역세권","subway":"가락시장역(8호선) 도보 5분","hangang":false,"completion_est":"2031년 예상","ref_note":"가락동 구축 전용84㎡ 12~15억"},
    {"id":"mia8","name":"미아8구역","district":"강북구","dong":"미아동","type":"재개발","stage":"조합설립인가","stage_idx":1,"lat":37.6301,"lng":127.0277,"area_m2":47000,"units":850,"contractor":"","stage_date":"2022-04","notes":"미아뉴타운","subway":"미아역(4호선) 도보 8분","hangang":false,"completion_est":"2032년 이후 예상","ref_note":""},
    {"id":"guro3","name":"구로3구역","district":"구로구","dong":"구로동","type":"재개발","stage":"조합설립인가","stage_idx":1,"lat":37.4929,"lng":126.8839,"area_m2":35000,"units":640,"contractor":"","stage_date":"2023-01","notes":"구로동 노후 주거지","subway":"구로역(1호선) 도보 9분","hangang":false,"completion_est":"2032년 이후 예상","ref_note":""},
    {"id":"pre_mia6","name":"미아6구역 준비위","district":"강북구","dong":"미아동","type":"재개발","stage":"준비위결성","stage_idx":-1,"lat":37.6385,"lng":127.0318,"area_m2":58000,"units":1050,"contractor":"","stage_date":"2024-11","notes":"강북구 미아동 노후 저층 주거지, 준비위원회 주민 동의 수집 중","subway":"미아삼거리역(4호선) 도보 5분","hangang":false,"completion_est":"미정","ref_note":"3.3㎡당 약 1,200만 원 수준","nohuodo_pct":74},
    {"id":"pre_bongcheon","name":"봉천5구역 인근 정비예정","district":"관악구","dong":"봉천동","type":"재개발","stage":"정비예정","stage_idx":-2,"lat":37.4793,"lng":126.9318,"area_m2":38000,"units":0,"contractor":"","stage_date":"","notes":"봉천뉴타운 해제구역 인근, 재신청 논의 중. 관악구청 도시정비과 확인 필요","subway":"봉천역(2호선) 도보 7분","hangang":false,"completion_est":"미정","ref_note":"정비예정구역 지정 시 사업성 검토 필요","nohuodo_pct":67},
    {"id":"pre_suyu","name":"수유1·2동 정비예정","district":"강북구","dong":"수유동","type":"재개발","stage":"정비예정","stage_idx":-2,"lat":37.6489,"lng":127.0241,"area_m2":52000,"units":0,"contractor":"","stage_date":"","notes":"40년+ 노후 단독·다가구 밀집 지역, 서울시 정비예정구역 검토 대상","subway":"수유역(4호선) 도보 8분","hangang":false,"completion_est":"미정","ref_note":"","nohuodo_pct":66},
    {"id":"pre_yeomri4","name":"염리4구역 준비위","district":"마포구","dong":"염리동","type":"재개발","stage":"준비위결성","stage_idx":-1,"lat":37.5501,"lng":126.9503,"area_m2":31000,"units":560,"contractor":"","stage_date":"2025-02","notes":"아현3구역(착공중) 인접, 마포구 내 마지막 정비 대상 구역 중 하나","subway":"아현역(2호선) 도보 6분","hangang":false,"completion_est":"미정","ref_note":"인근 마포래미안 푸르지오 시세 참고 (전용84㎡ 16~19억)","nohuodo_pct":69}
  ]
}
