{
  "updated_at": "2026-07-01",
  "source": "sample",
  "note": "샘플 데이터. SEOUL_API_KEY secret 설정 시 실데이터로 전환됩니다.",
  "projects": [
    {
      "id": "hannam3",
      "name": "한남3구역",
      "district": "용산구",
      "dong": "한남동",
      "type": "재개발",
      "stage": "관리처분인가",
      "stage_idx": 3,
      "lat": 37.5354,
      "lng": 127.0019,
      "area_m2": 387000,
      "units": 5816,
      "contractor": "현대건설컨소시엄",
      "stage_date": "2024-12",
      "notes": "서울 최대 규모 재개발 사업",
      "subway": "한강진역(6호선) 도보 10분",
      "hangang": true,
      "completion_est": "2029~2030년 예상",
      "ref_note": "인근 나인원한남 전용84㎡ 60억+, 완공 시 최상급 예상"
    },
    {
      "id": "hannam4",
      "name": "한남4구역",
      "district": "용산구",
      "dong": "한남동",
      "type": "재개발",
      "stage": "사업시행인가",
      "stage_idx": 2,
      "lat": 37.5372,
      "lng": 127.0042,
      "area_m2": 122000,
      "units": 1785,
      "contractor": "",
      "stage_date": "2023-08",
      "notes": "",
      "subway": "한강진역(6호선) 도보 12분",
      "hangang": true,
      "completion_est": "2030년 예상",
      "ref_note": "한남3구역 인접, 높은 상승 기대"
    },
    {
      "id": "hannam5",
      "name": "한남5구역",
      "district": "용산구",
      "dong": "한남동",
      "type": "재개발",
      "stage": "조합설립인가",
      "stage_idx": 1,
      "lat": 37.5391,
      "lng": 127.0061,
      "area_m2": 94000,
      "units": 1320,
      "contractor": "",
      "stage_date": "2022-11",
      "notes": "",
      "subway": "한강진역(6호선) 도보 15분",
      "hangang": false,
      "completion_est": "2032년 이후 예상",
      "ref_note": ""
    },
    {
      "id": "heukseok9",
      "name": "흑석9구역",
      "district": "동작구",
      "dong": "흑석동",
      "type": "재개발",
      "stage": "관리처분인가",
      "stage_idx": 3,
      "lat": 37.5087,
      "lng": 126.9628,
      "area_m2": 86000,
      "units": 1490,
      "contractor": "대우건설",
      "stage_date": "2023-06",
      "notes": "흑석뉴타운 핵심 구역",
      "subway": "흑석역(9호선) 도보 5분",
      "hangang": true,
      "completion_est": "2027년 예상",
      "ref_note": "아크로 리버하임(흑석동) 전용84㎡ 20~23억 참고"
    },
    {
      "id": "heukseok11",
      "name": "흑석11구역",
      "district": "동작구",
      "dong": "흑석동",
      "type": "재개발",
      "stage": "사업시행인가",
      "stage_idx": 2,
      "lat": 37.5118,
      "lng": 126.9695,
      "area_m2": 47000,
      "units": 671,
      "contractor": "",
      "stage_date": "2022-04",
      "notes": "",
      "subway": "동작역(9호선) 도보 8분",
      "hangang": false,
      "completion_est": "2029년 예상",
      "ref_note": ""
    },
    {
      "id": "noryangjin1",
      "name": "노량진1구역",
      "district": "동작구",
      "dong": "노량진동",
      "type": "재개발",
      "stage": "관리처분인가",
      "stage_idx": 3,
      "lat": 37.5133,
      "lng": 126.9424,
      "area_m2": 91000,
      "units": 1536,
      "contractor": "HDC현대산업개발",
      "stage_date": "2024-03",
      "notes": "노량진뉴타운 최대 구역",
      "subway": "노량진역(1·9호선) 도보 3분",
      "hangang": false,
      "completion_est": "2028년 예상",
      "ref_note": "노량진 신축 전용84㎡ 11~13억 참고"
    },
    {
      "id": "noryangjin2",
      "name": "노량진2구역",
      "district": "동작구",
      "dong": "노량진동",
      "type": "재개발",
      "stage": "관리처분인가",
      "stage_idx": 3,
      "lat": 37.5152,
      "lng": 126.9438,
      "area_m2": 52000,
      "units": 824,
      "contractor": "GS건설",
      "stage_date": "2024-01",
      "notes": "",
      "subway": "노량진역(1·9호선) 도보 5분",
      "hangang": false,
      "completion_est": "2028년 예상",
      "ref_note": ""
    },
    {
      "id": "noryangjin3",
      "name": "노량진3구역",
      "district": "동작구",
      "dong": "노량진동",
      "type": "재개발",
      "stage": "사업시행인가",
      "stage_idx": 2,
      "lat": 37.5121,
      "lng": 126.9447,
      "area_m2": 38000,
      "units": 540,
      "contractor": "",
      "stage_date": "2023-05",
      "notes": "",
      "subway": "노량진역(1·9호선) 도보 7분",
      "hangang": false,
      "completion_est": "2030년 예상",
      "ref_note": ""
    },
    {
      "id": "shinlim1",
      "name": "신림1구역",
      "district": "관악구",
      "dong": "신림동",
      "type": "재개발",
      "stage": "관리처분인가",
      "stage_idx": 3,
      "lat": 37.4858,
      "lng": 126.9183,
      "area_m2": 64000,
      "units": 1028,
      "contractor": "롯데건설",
      "stage_date": "2024-09",
      "notes": "",
      "subway": "신림역(2호선) 도보 8분",
      "hangang": false,
      "completion_est": "2027~2028년 예상",
      "ref_note": "신림동 신축 전용84㎡ 10~12억 참고"
    },
    {
      "id": "shinlim3",
      "name": "신림3구역",
      "district": "관악구",
      "dong": "신림동",
      "type": "재개발",
      "stage": "사업시행인가",
      "stage_idx": 2,
      "lat": 37.4836,
      "lng": 126.9213,
      "area_m2": 49000,
      "units": 740,
      "contractor": "",
      "stage_date": "2022-07",
      "notes": "",
      "subway": "신림역(2호선) 도보 10분",
      "hangang": false,
      "completion_est": "2030년 예상",
      "ref_note": ""
    },
    {
      "id": "ahyun3",
      "name": "아현3구역",
      "district": "마포구",
      "dong": "아현동",
      "type": "재개발",
      "stage": "이주/착공",
      "stage_idx": 4,
      "lat": 37.5505,
      "lng": 126.9524,
      "area_m2": 73000,
      "units": 1124,
      "contractor": "GS건설",
      "stage_date": "2023-09",
      "notes": "마포래미안 아파트 건설 중",
      "subway": "아현역(2호선) 도보 5분",
      "hangang": false,
      "completion_est": "2026~2027년 예상",
      "ref_note": "마포래미안 푸르지오 전용84㎡ 16~19억 참고"
    },
    {
      "id": "mia3",
      "name": "미아3구역",
      "district": "강북구",
      "dong": "미아동",
      "type": "재개발",
      "stage": "사업시행인가",
      "stage_idx": 2,
      "lat": 37.6261,
      "lng": 127.0258,
      "area_m2": 58000,
      "units": 849,
      "contractor": "",
      "stage_date": "2023-11",
      "notes": "",
      "subway": "미아사거리역(4호선) 도보 8분",
      "hangang": false,
      "completion_est": "2030년 예상",
      "ref_note": ""
    },
    {
      "id": "jangwi4",
      "name": "장위4구역",
      "district": "성북구",
      "dong": "장위동",
      "type": "재개발",
      "stage": "사업시행인가",
      "stage_idx": 2,
      "lat": 37.6042,
      "lng": 127.0561,
      "area_m2": 67000,
      "units": 985,
      "contractor": "",
      "stage_date": "2023-03",
      "notes": "장위뉴타운",
      "subway": "우이신설선 가오리역 도보 10분",
      "hangang": false,
      "completion_est": "2029년 예상",
      "ref_note": ""
    },
    {
      "id": "jangwi9",
      "name": "장위9구역",
      "district": "성북구",
      "dong": "장위동",
      "type": "재개발",
      "stage": "관리처분인가",
      "stage_idx": 3,
      "lat": 37.6088,
      "lng": 127.0592,
      "area_m2": 45000,
      "units": 643,
      "contractor": "포스코이앤씨",
      "stage_date": "2024-06",
      "notes": "",
      "subway": "우이신설선 가오리역 도보 8분",
      "hangang": false,
      "completion_est": "2027년 예상",
      "ref_note": ""
    },
    {
      "id": "garibong1",
      "name": "가리봉1구역",
      "district": "구로구",
      "dong": "가리봉동",
      "type": "재개발",
      "stage": "사업시행인가",
      "stage_idx": 2,
      "lat": 37.4841,
      "lng": 126.8838,
      "area_m2": 39000,
      "units": 561,
      "contractor": "",
      "stage_date": "2022-12",
      "notes": "",
      "subway": "가산디지털단지역(1·7호선) 도보 10분",
      "hangang": false,
      "completion_est": "2029년 예상",
      "ref_note": ""
    },
    {
      "id": "yeongdeungpo",
      "name": "영등포1-12구역",
      "district": "영등포구",
      "dong": "영등포동",
      "type": "재개발",
      "stage": "조합설립인가",
      "stage_idx": 1,
      "lat": 37.5258,
      "lng": 126.8975,
      "area_m2": 82000,
      "units": 1210,
      "contractor": "",
      "stage_date": "2021-08",
      "notes": "영등포 뉴타운",
      "subway": "영등포역(1호선) 도보 10분",
      "hangang": false,
      "completion_est": "2032년 이후 예상",
      "ref_note": ""
    },
    {
      "id": "jamsilju5",
      "name": "잠실주공5단지",
      "district": "송파구",
      "dong": "잠실동",
      "type": "재건축",
      "stage": "사업시행인가",
      "stage_idx": 2,
      "lat": 37.5092,
      "lng": 127.0839,
      "area_m2": 183000,
      "units": 6600,
      "contractor": "",
      "stage_date": "2024-11",
      "notes": "재건축 최대 규모, 서울 랜드마크 예정",
      "subway": "잠실역(2·8호선) 도보 5분",
      "hangang": false,
      "completion_est": "2031년 예상",
      "ref_note": "인근 잠실 엘스 전용84㎡ 25~28억, 완공 시 30억+ 예상"
    },
    {
      "id": "eunma",
      "name": "은마아파트",
      "district": "강남구",
      "dong": "대치동",
      "type": "재건축",
      "stage": "조합설립인가",
      "stage_idx": 1,
      "lat": 37.5044,
      "lng": 127.0594,
      "area_m2": 116000,
      "units": 4424,
      "contractor": "",
      "stage_date": "2022-03",
      "notes": "30년 넘은 재건축 숙원 사업",
      "subway": "대치역(3호선) 도보 5분",
      "hangang": false,
      "completion_est": "2032년 이후 예상",
      "ref_note": "대치동 신축 전용84㎡ 30억+ 예상"
    },
    {
      "id": "apgujeong1",
      "name": "압구정1구역(현대1·2차)",
      "district": "강남구",
      "dong": "압구정동",
      "type": "재건축",
      "stage": "사업시행인가",
      "stage_idx": 2,
      "lat": 37.528,
      "lng": 127.0308,
      "area_m2": 49000,
      "units": 1788,
      "contractor": "",
      "stage_date": "2024-08",
      "notes": "압구정 재건축 선도 구역",
      "subway": "압구정역(3호선) 도보 8분",
      "hangang": true,
      "completion_est": "2030년 예상",
      "ref_note": "압구정 신축 전용84㎡ 40~50억 예상"
    },
    {
      "id": "apgujeong3",
      "name": "압구정3구역",
      "district": "강남구",
      "dong": "압구정동",
      "type": "재건축",
      "stage": "조합설립인가",
      "stage_idx": 1,
      "lat": 37.5262,
      "lng": 127.0285,
      "area_m2": 67000,
      "units": 2409,
      "contractor": "",
      "stage_date": "2023-01",
      "notes": "",
      "subway": "압구정역(3호선) 도보 10분",
      "hangang": true,
      "completion_est": "2032년 이후 예상",
      "ref_note": ""
    },
    {
      "id": "banpoju12",
      "name": "반포주공1단지(1·2·4주구)",
      "district": "서초구",
      "dong": "반포동",
      "type": "재건축",
      "stage": "이주/착공",
      "stage_idx": 4,
      "lat": 37.5019,
      "lng": 126.9958,
      "area_m2": 176000,
      "units": 3590,
      "contractor": "삼성물산",
      "stage_date": "2022-11",
      "notes": "래미안 원베일리 인접, 공사 진행 중",
      "subway": "고속터미널역(3·7·9호선) 도보 12분",
      "hangang": true,
      "completion_est": "2027~2028년 예상",
      "ref_note": "래미안 원베일리 전용84㎡ 45~55억 참고"
    },
    {
      "id": "banpoju3",
      "name": "반포주공1단지(3주구)",
      "district": "서초구",
      "dong": "반포동",
      "type": "재건축",
      "stage": "준공완료",
      "stage_idx": 5,
      "lat": 37.5031,
      "lng": 126.9969,
      "area_m2": 58000,
      "units": 2091,
      "contractor": "삼성물산",
      "stage_date": "2023-09",
      "notes": "래미안 원베일리 준공",
      "subway": "고속터미널역(3·7·9호선) 도보 10분",
      "hangang": true,
      "completion_est": "완료(2023)",
      "ref_note": "래미안 원베일리 전용84㎡ 45~55억"
    },
    {
      "id": "gaepoju1",
      "name": "개포주공1단지",
      "district": "강남구",
      "dong": "개포동",
      "type": "재건축",
      "stage": "준공완료",
      "stage_idx": 5,
      "lat": 37.4806,
      "lng": 127.0596,
      "area_m2": 178000,
      "units": 6700,
      "contractor": "현대건설",
      "stage_date": "2021-11",
      "notes": "디에이치 퍼스티어아이파크 준공",
      "subway": "개포동역(3호선) 도보 10분",
      "hangang": false,
      "completion_est": "완료(2021)",
      "ref_note": "전용84㎡ 27~32억"
    },
    {
      "id": "gaepoju4",
      "name": "개포주공4단지",
      "district": "강남구",
      "dong": "개포동",
      "type": "재건축",
      "stage": "준공완료",
      "stage_idx": 5,
      "lat": 37.4798,
      "lng": 127.0667,
      "area_m2": 53000,
      "units": 1957,
      "contractor": "GS건설",
      "stage_date": "2022-07",
      "notes": "개포 자이 프레지던스 준공",
      "subway": "개포동역(3호선) 도보 8분",
      "hangang": false,
      "completion_est": "완료(2022)",
      "ref_note": "전용84㎡ 25~30억"
    },
    {
      "id": "mokdong7",
      "name": "목동신시가지7단지",
      "district": "양천구",
      "dong": "목동",
      "type": "재건축",
      "stage": "조합설립인가",
      "stage_idx": 1,
      "lat": 37.5301,
      "lng": 126.8722,
      "area_m2": 76000,
      "units": 1850,
      "contractor": "",
      "stage_date": "2023-07",
      "notes": "목동 재건축 선도 단지",
      "subway": "오목교역(5호선) 도보 7분",
      "hangang": false,
      "completion_est": "2032년 이후 예상",
      "ref_note": "목동 신축 전용84㎡ 18~22억 예상"
    },
    {
      "id": "mokdong14",
      "name": "목동신시가지14단지",
      "district": "양천구",
      "dong": "목동",
      "type": "재건축",
      "stage": "조합설립인가",
      "stage_idx": 1,
      "lat": 37.5319,
      "lng": 126.8699,
      "area_m2": 48000,
      "units": 1020,
      "contractor": "",
      "stage_date": "2022-05",
      "notes": "",
      "subway": "목동역(5호선) 도보 5분",
      "hangang": false,
      "completion_est": "2033년 이후 예상",
      "ref_note": ""
    },
    {
      "id": "dunchi",
      "name": "둔촌주공(올림픽파크포레온)",
      "district": "강동구",
      "dong": "둔촌동",
      "type": "재건축",
      "stage": "이주/착공",
      "stage_idx": 4,
      "lat": 37.5447,
      "lng": 127.1303,
      "area_m2": 519000,
      "units": 12032,
      "contractor": "현대/대우/롯데/HDC컨소시엄",
      "stage_date": "2019-09",
      "notes": "국내 최대 재건축, 2024년 입주 중",
      "subway": "올림픽공원역(5·8·9호선) 도보 5분",
      "hangang": false,
      "completion_est": "2024년 입주중",
      "ref_note": "전용84㎡ 14~17억"
    },
    {
      "id": "godeokju2",
      "name": "고덕주공2단지",
      "district": "강동구",
      "dong": "고덕동",
      "type": "재건축",
      "stage": "준공완료",
      "stage_idx": 5,
      "lat": 37.556,
      "lng": 127.1459,
      "area_m2": 98000,
      "units": 3658,
      "contractor": "현대건설",
      "stage_date": "2019-12",
      "notes": "힐스테이트 고덕강일 준공",
      "subway": "고덕역(5호선) 도보 7분",
      "hangang": false,
      "completion_est": "완료(2019)",
      "ref_note": "전용84㎡ 12~14억"
    },
    {
      "id": "godeokju3",
      "name": "고덕주공3단지",
      "district": "강동구",
      "dong": "고덕동",
      "type": "재건축",
      "stage": "이주/착공",
      "stage_idx": 4,
      "lat": 37.558,
      "lng": 127.1473,
      "area_m2": 71000,
      "units": 2947,
      "contractor": "삼성물산",
      "stage_date": "2022-03",
      "notes": "래미안 고덕 센트럴 공사 중",
      "subway": "고덕역(5호선) 도보 9분",
      "hangang": false,
      "completion_est": "2026년 예상",
      "ref_note": "인근 전용84㎡ 12~15억 예상"
    },
    {
      "id": "sanggyeju5",
      "name": "상계주공5단지",
      "district": "노원구",
      "dong": "상계동",
      "type": "재건축",
      "stage": "조합설립인가",
      "stage_idx": 1,
      "lat": 37.6587,
      "lng": 127.069,
      "area_m2": 82000,
      "units": 2640,
      "contractor": "",
      "stage_date": "2021-04",
      "notes": "노원구 재건축 핵심 단지",
      "subway": "상계역(4호선) 도보 8분",
      "hangang": false,
      "completion_est": "2033년 이후 예상",
      "ref_note": ""
    },
    {
      "id": "gildong",
      "name": "길음1구역",
      "district": "성북구",
      "dong": "길음동",
      "type": "재개발",
      "stage": "준공완료",
      "stage_idx": 5,
      "lat": 37.6011,
      "lng": 127.0224,
      "area_m2": 69000,
      "units": 2802,
      "contractor": "대림산업",
      "stage_date": "2017-06",
      "notes": "길음뉴타운 완료",
      "subway": "길음역(4호선) 도보 5분",
      "hangang": false,
      "completion_est": "완료(2017)",
      "ref_note": "전용84㎡ 10~12억"
    },
    {
      "id": "wangshipri",
      "name": "왕십리2구역",
      "district": "성동구",
      "dong": "하왕십리동",
      "type": "재개발",
      "stage": "준공완료",
      "stage_idx": 5,
      "lat": 37.5617,
      "lng": 127.0299,
      "area_m2": 112000,
      "units": 4000,
      "contractor": "현대건설",
      "stage_date": "2016-11",
      "notes": "왕십리뉴타운 완료",
      "subway": "왕십리역(2·5·경의선·분당선) 도보 8분",
      "hangang": false,
      "completion_est": "완료(2016)",
      "ref_note": "전용84㎡ 14~17억"
    },
    {
      "id": "heukseok2",
      "name": "흑석2구역",
      "district": "동작구",
      "dong": "흑석동",
      "type": "재개발",
      "stage": "이주/착공",
      "stage_idx": 4,
      "lat": 37.5099,
      "lng": 126.9659,
      "area_m2": 54000,
      "units": 880,
      "contractor": "롯데건설",
      "stage_date": "2021-05",
      "notes": "",
      "subway": "흑석역(9호선) 도보 8분",
      "hangang": true,
      "completion_est": "완료 근접",
      "ref_note": ""
    },
    {
      "id": "sinjeong1",
      "name": "신정1구역",
      "district": "양천구",
      "dong": "신정동",
      "type": "재개발",
      "stage": "조합설립인가",
      "stage_idx": 1,
      "lat": 37.5311,
      "lng": 126.8625,
      "area_m2": 45000,
      "units": 650,
      "contractor": "",
      "stage_date": "2022-09",
      "notes": "신정뉴타운",
      "subway": "신정역(2호선) 도보 10분",
      "hangang": false,
      "completion_est": "2032년 이후 예상",
      "ref_note": ""
    },
    {
      "id": "noryangjin5",
      "name": "노량진5구역",
      "district": "동작구",
      "dong": "노량진동",
      "type": "재개발",
      "stage": "조합설립인가",
      "stage_idx": 1,
      "lat": 37.5108,
      "lng": 126.9451,
      "area_m2": 29000,
      "units": 415,
      "contractor": "",
      "stage_date": "2023-02",
      "notes": "",
      "subway": "노량진역(1·9호선) 도보 10분",
      "hangang": false,
      "completion_est": "2032년 이후 예상",
      "ref_note": ""
    },
    {
      "id": "jayang4",
      "name": "자양4구역",
      "district": "광진구",
      "dong": "자양동",
      "type": "재개발",
      "stage": "준공완료",
      "stage_idx": 5,
      "lat": 37.5338,
      "lng": 127.0921,
      "area_m2": 52000,
      "units": 1935,
      "contractor": "현대건설",
      "stage_date": "2020-08",
      "notes": "힐스테이트 자양 강변 준공",
      "subway": "자양역(5호선) 도보 8분",
      "hangang": true,
      "completion_est": "완료(2020)",
      "ref_note": "전용84㎡ 13~16억"
    },
    {
      "id": "jayang1",
      "name": "자양1구역",
      "district": "광진구",
      "dong": "자양동",
      "type": "재개발",
      "stage": "관리처분인가",
      "stage_idx": 3,
      "lat": 37.5352,
      "lng": 127.0947,
      "area_m2": 37000,
      "units": 612,
      "contractor": "",
      "stage_date": "2024-05",
      "notes": "",
      "subway": "자양역(5호선) 도보 5분",
      "hangang": true,
      "completion_est": "2027~2028년 예상",
      "ref_note": "인근 힐스테이트 자양강변 전용84㎡ 13~16억 참고"
    },
    {
      "id": "guui3",
      "name": "구의3구역",
      "district": "광진구",
      "dong": "구의동",
      "type": "재개발",
      "stage": "사업시행인가",
      "stage_idx": 2,
      "lat": 37.5418,
      "lng": 127.0882,
      "area_m2": 44000,
      "units": 687,
      "contractor": "",
      "stage_date": "2023-09",
      "notes": "",
      "subway": "구의역(2호선) 도보 8분",
      "hangang": true,
      "completion_est": "2029년 예상",
      "ref_note": ""
    },
    {
      "id": "hwayan",
      "name": "화양연립재개발",
      "district": "광진구",
      "dong": "화양동",
      "type": "재개발",
      "stage": "조합설립인가",
      "stage_idx": 1,
      "lat": 37.5431,
      "lng": 127.0681,
      "area_m2": 28000,
      "units": 410,
      "contractor": "",
      "stage_date": "2022-11",
      "notes": "",
      "subway": "건대입구역(2·7호선) 도보 12분",
      "hangang": false,
      "completion_est": "2032년 이후 예상",
      "ref_note": ""
    }
  ]
}